timestamp,x,y,z,vx,vy,vz,ax,ay,az,roll,pitch,yaw,roll_rate,pitch_rate,yaw_rate
1733312833272244,-0.19951072,0.23319389,-9.570466,-0.0029994564,0.048386917,-0.27219686,0.0,0.0,0.0,0.0441654295302671,0.1264966469355269,91.70813201446126,0.0,0.0,0.0
1733312833288244,-0.20067748,0.23486082,-9.572621,-0.004521281,0.04804264,-0.27385935,-0.09511404,-0.021517275,-0.10390579,0.03146754084988507,0.14701008475016042,91.70519541247792,-0.7936180425238769,1.2820898634145959,-0.1835376239585254
1733312833296244,-0.20125268,0.23567711,-9.573755,-0.005257729,0.04786491,-0.2745656,-0.09205599,-0.022216232,-0.08828192,0.024213805225598316,0.15682064545256105,91.70368609536764,-0.9067169530358444,1.2263200878000777,-0.18866463878543735
1733312833304244,-0.2018281,0.23647654,-9.574925,-0.005951705,0.047650047,-0.27523515,-0.08674699,-0.026857944,-0.083692364,0.016302929688905083,0.16611634305274703,91.70207406441516,-0.9888594420866543,1.1619622000232488,-0.20150386906048803
1733312833312244,-0.20239818,0.23726478,-9.57613,-0.0066375025,0.047412865,-0.27580863,-0.08572469,-0.029647721,-0.07168576,0.008050269564375446,0.17512240096080922,91.70105691192752,-1.0315825155662044,1.125757238507774,-0.12714406095301165
1733312833328244,-0.202724,0.23893471,-9.578693,-0.0075547392,0.046814084,-0.2770379,-0.057327297,-0.0374238,-0.076828524,-0.010003256043119567,0.19314506880819782,91.6972934928161,-1.1283453504684382,1.126416740461786,-0.23521369446434467
1733312833336244,-0.20289205,0.23974942,-9.580024,-0.007987473,0.046488084,-0.2775764,-0.054091737,-0.040750016,-0.06731227,-0.019694085827145578,0.2021365460858646,91.6948206178775,-1.2113537230032512,1.123934659708349,-0.30910936732501537
1733312833344244,-0.20306331,0.24055086,-9.581383,-0.008403445,0.046145674,-0.27802286,-0.051996436,-0.042801253,-0.05580857,-0.029853633221467106,0.21079139911938394,91.69226591454469,-1.2699434242901912,1.0818566291899183,-0.31933791660111965
1733312833352244,-0.20323755,0.24133909,-9.582771,-0.008805043,0.045792364,-0.27838212,-0.0501998,-0.04416378,-0.04490837,-0.04023066575638116,0.21893528303655427,91.6898206461445,-1.2971290668642566,1.017985489646289,-0.30565855002363895
1733312833368244,-0.20359421,0.24287651,-9.585632,-0.009558176,0.045027353,-0.2791857,-0.047070786,-0.047813166,-0.05022436,-0.061743557256894094,0.23442179100848504,91.68464957902205,-1.3445557187820585,0.9679067482456732,-0.32319169515331175
1733312833376244,-0.20377624,0.24362576,-9.587102,-0.00992187,0.04460211,-0.2795116,-0.04546181,-0.053155232,-0.040736046,-0.07252451495439516,0.24181999031318177,91.68212930203546,-1.3476197121876328,0.9247749130870921,-0.3150346233229822
1733312833384244,-0.20396213,0.24436077,-9.588598,-0.010262499,0.044195917,-0.27975386,-0.042578552,-0.050774306,-0.030282883,-0.08299067256276316,0.24904052701050594,91.67958121177374,-1.3082697010460007,0.9025670871655225,-0.3185112827154302
1733312833392244,-0.20415005,0.2450833,-9.590117,-0.01059792,0.043784156,-0.27987853,-0.041927673,-0.051470004,-0.015582888,-0.09327384379144692,0.2559583752010193,91.67659617018751,-1.285396403585469,0.8647310238141673,-0.3731301982790482
1733312833400244,-0.2043399,0.2457935,-9.5916605,-0.010933043,0.04336401,-0.28007284,-0.04189042,-0.052518208,-0.02428889,-0.1029850866471229,0.2625412775284247,91.67341253334334,-1.2139053569594989,0.8228627909256788,-0.39795460552149564
1733312833416244,-0.20472501,0.24717742,-9.594811,-0.011555231,0.042492546,-0.2802115,-0.038886733,-0.054466534,-0.008666888,-0.12271178678916322,0.27436457150169336,91.6672234598274,-1.2329187588775201,0.7389558733292917,-0.3868170947465845
1733312833424244,-0.20491987,0.2478514,-9.596418,-0.011845716,0.042037826,-0.2802129,-0.036310636,-0.05684001,-0.00017508863,-0.13240472813364057,0.27981992873453654,91.66419704328055,-1.2116176680596664,0.6819196541053919,-0.3783020683541328
1733312833432244,-0.20511614,0.2485135,-9.598044,-0.012128736,0.04158324,-0.2801785,-0.03537745,-0.056823246,0.0043027103,-0.14167214799533198,0.2850155246554076,91.66119120551089,-1.158427482711427,0.6494494901088865,-0.3757297212083528
1733312833440244,-0.20531358,0.24916402,-9.59969,-0.012386614,0.04113157,-0.2801877,-0.032234818,-0.056458633,-0.0011511147,-0.1503903541934084,0.2901247305912327,91.65816498162121,-1.0897757747595551,0.6386507419781382,-0.37827798621027203
1733312833456244,-0.20433477,0.25070235,-9.604236,-0.012367985,0.040274628,-0.2804262,0.0011643278,-0.05355896,-0.014906748,-0.16639729841486148,0.2988986513859545,91.65205731419893,-1.0004340138408157,0.5483700496701117,-0.3817292138922579
1733312833464244,-0.20387374,0.25144953,-9.606513,-0.012371641,0.03984522,-0.2804562,-0.0004569301,-0.05367584,-0.0037476418,-0.17446586705378433,0.3025152063195515,91.64829293057537,-1.0085710798653584,0.45206936669961933,-0.47054795294595825
1733312833472244,-0.20342861,0.25218254,-9.608792,-0.012365531,0.039415974,-0.28043318,0.00076368445,-0.053655818,0.0028759239,-0.18243859342678184,0.3059101516754512,91.64453537141482,-0.996590796624688,0.4243681694874696,-0.46969489506922524
1733312833488244,-0.20258398,0.25360703,-9.613357,-0.012352832,0.03854971,-0.28020787,0.0007937196,-0.054141503,0.014081596,-0.19677384087601446,0.3124718178569675,91.63727276433855,-0.8959529655770395,0.41010413634476517,-0.4539129422664498
1733312833496244,-0.20218359,0.25429907,-9.615641,-0.012331346,0.038106948,-0.2799719,0.0026857012,-0.055345237,0.029496847,-0.2026797235502615,0.31555166577671623,91.63367203539563,-0.7382353342808784,0.38498098996859975,-0.4500911178645384
1733312833504244,-0.20179705,0.25497788,-9.617924,-0.012299412,0.037664182,-0.27962828,0.003991765,-0.055345703,0.042952593,-0.20818901496299336,0.3185342629504792,91.63015352694606,-0.6886614265914812,0.3728246467203673,-0.43981355619626505
1733312833512244,-0.20142388,0.25564378,-9.620206,-0.012252809,0.037218392,-0.2791648,0.0058254222,-0.05572382,0.05793571,-0.21283153637009813,0.3212715306065862,91.62668973356581,-0.5803151758880987,0.3421584570133773,-0.43297417253088333
1733312833528244,-0.2007202,0.25694242,-9.624765,-0.012170907,0.036328223,-0.2781331,0.0051188394,-0.05563558,0.06448105,-0.21972063611932194,0.32634217326976517,91.61970011232063,-0.43056873432648757,0.3169151664486851,-0.4368513278244357
1733312833536244,-0.20038907,0.25757545,-9.627042,-0.012158041,0.035862774,-0.2775046,0.0016082776,-0.058181114,0.07856264,-0.22246555484403016,0.3287284562411237,91.61583329281652,-0.3431148405885291,0.29828537141981065,-0.48335243801313416
1733312833544244,-0.20006992,0.25819623,-9.629314,-0.012142338,0.035395864,-0.27679288,0.0019628787,-0.058363654,0.08896365,-0.2245815316633077,0.3309897665791374,91.61188396250627,-0.2644971024096894,0.2826637922517229,-0.4936662887814136
1733312833552244,-0.19976227,0.25880486,-9.631583,-0.012110416,0.03491636,-0.27601138,0.0039902516,-0.059938055,0.09768828,-0.22599039145540203,0.3332959013074462,91.60820840690369,-0.1761074740117944,0.28826684103859473,-0.45944445032354114
1733312833560244,-0.19946581,0.2594016,-9.633847,-0.01209952,0.034435485,-0.27530164,0.0013619427,-0.060109418,0.08871778,-0.2266776996705214,0.3355550248579755,91.6045119831907,-0.08591352688992034,0.28239044381616174,-0.4620529641211526
1733312833576244,-0.19795522,0.26133245,-9.638605,-0.011834491,0.033830542,-0.2736501,0.016564328,-0.037808903,0.103220336,-0.2267682150945739,0.3398106267868569,91.5980075845721,-0.005657214003280802,0.26597512055509065,-0.4065249136628379
1733312833584244,-0.19723311,0.26226828,-9.640971,-0.011705982,0.03350683,-0.2727719,0.016063685,-0.0404641,0.10977685,-0.22639960853109597,0.3416537432371471,91.5952133597651,0.046075820434739435,0.2303895562862701,-0.3492781008754633
1733312833592244,-0.19653237,0.26318482,-9.64333,-0.011600854,0.033162974,-0.2718468,0.013140961,-0.04298193,0.11563673,-0.22551242230596882,0.34335833277843275,91.59259646305858,0.11089827814089677,0.2130736926607089,-0.32711208831459937
1733312833608244,-0.19521122,0.26495394,-9.64802,-0.0114352545,0.03246968,-0.2699019,0.010349962,-0.043330945,0.121556215,-0.2223344433270924,0.3470108694039924,91.58695992917995,0.19862368617977527,0.22828353909747484,-0.35228336741436056
1733312833616244,-0.19458051,0.26581123,-9.650352,-0.011357913,0.03212096,-0.26886615,0.00966771,-0.043589618,0.12946874,-0.22021213868371267,0.3491525200760497,91.58405626702806,0.26528808042246843,0.26770633400716753,-0.3629577689870208
1733312833624244,-0.19396906,0.26665077,-9.652673,-0.011284506,0.03173154,-0.26771045,0.009175856,-0.0486779,0.14446303,-0.21719369400156488,0.3514292567750779,91.58136463982255,0.37730558526847396,0.28459208737852226,-0.3364534006877666
1733312833632244,-0.19337629,0.2674727,-9.654984,-0.011210643,0.031331435,-0.26649758,0.009232899,-0.05001295,0.15160814,-0.2133848978593722,0.3538969494817017,91.57870696123142,0.4760995177740833,0.30846158832797765,-0.3322098238917871
1733312833648244,-0.19224504,0.26906493,-9.659574,-0.011079296,0.030489426,-0.26398936,0.008209201,-0.052625544,0.15676394,-0.20440023024842016,0.3590095784194893,91.5736583518085,0.5615417256845024,0.31953930861172375,-0.3155380889320832
1733312833656244,-0.19170567,0.26983586,-9.661851,-0.011027992,0.03006724,-0.26268157,0.0064129704,-0.05277316,0.16347317,-0.19953194689477313,0.36185889089948775,91.57123309421927,0.6085354192058788,0.35616405999980705,-0.30315719865491003
1733312833664244,-0.19120005,0.27058575,-9.664117,-0.01104894,0.029629096,-0.26137108,-0.0026185296,-0.054768052,0.16381218,-0.19447377157141035,0.3649230394230086,91.56882859913442,0.6322719154203478,0.3830185654401014,-0.30056188560637903
1733312833672244,-0.19071126,0.27131963,-9.666371,-0.01107148,0.029198559,-0.25997484,-0.0028174834,-0.05381717,0.17452984,-0.18887929662760483,0.36793158583490376,91.5657131729604,0.6993093679756895,0.37606830148690246,-0.3894282717514432
1733312833680244,-0.1902389,0.2720379,-9.668613,-0.011105748,0.028753955,-0.25868034,-0.0042835018,-0.05557551,0.1618117,-0.18291629975922774,0.3712525942891654,91.56275525019656,0.745374608547135,0.4151260567826997,-0.3697403454808617
1733312833696244,-0.19073111,0.27371344,-9.67383,-0.011727093,0.027845286,-0.25614667,-0.038834054,-0.056791816,0.15835463,-0.17022963650296224,0.37810085913548047,91.55706462176786,0.7929164535165933,0.4280165528946937,-0.35566427679334517
1733312833704244,-0.19166417,0.27466324,-9.676785,-0.012334319,0.027399978,-0.25489753,-0.07590325,-0.05566352,0.15614182,-0.1627513272891787,0.3811025263500177,91.55430460594049,0.9347886517229429,0.37520840181714804,-0.3450019784223656
1733312833712244,-0.19258234,0.2755906,-9.6797085,-0.012957211,0.026943333,-0.25358227,-0.07786147,-0.057080526,0.16440822,-0.15500286812422653,0.3842254065124926,91.55183874038103,0.9685573956190224,0.3903600203093677,-0.30823319493252366
1733312833728244,-0.1943766,0.2773793,-9.685465,-0.014191977,0.02597014,-0.2511227,-0.077172875,-0.06082456,0.15372224,-0.1399349713419125,0.3906895813167574,91.54716618377087,0.9417435488946279,0.4040109252665496,-0.29203478813505385
1733312833736244,-0.19526051,0.27823988,-9.688298,-0.01483126,0.025478996,-0.24975538,-0.07991038,-0.061393015,0.1709163,-0.13326182203580952,0.3941098520760098,91.54474801458367,0.8341436632628708,0.4275338449065514,-0.3022711483994316
1733312833744244,-0.19613196,0.27907953,-9.691101,-0.015448003,0.024981009,-0.2482377,-0.0770929,-0.062248435,0.1897104,-0.12716126274019332,0.39753183182808505,91.5426783409546,0.7625699119520251,0.42774746900940763,-0.25870920363472716
1733312833752244,-0.1969913,0.27989864,-9.693873,-0.016050559,0.024475854,-0.24666052,-0.07531943,-0.06314436,0.19714794,-0.12174716097991568,0.400804105461098,91.54048539628948,0.6767627200347038,0.40903420412661934,-0.2741180831389174
1733312833760244,-0.197839,0.28069752,-9.696615,-0.016646156,0.023955025,-0.24514349,-0.07444969,-0.065103635,0.18962844,-0.11708418652840587,0.4040617591641781,91.53855919688729,0.5828718064387279,0.40720671288500354,-0.24077492527327096
1733312833776244,-0.19950156,0.28223583,-9.702008,-0.017833225,0.022882469,-0.24178997,-0.07419183,-0.06703474,0.20959507,-0.11040872939339216,0.4109646403343997,91.53500066788166,0.4172160709383561,0.43143007313885473,-0.22240806285252904
1733312833784244,-0.20031735,0.28297594,-9.704659,-0.018424943,0.022334864,-0.24006625,-0.07396471,-0.06845058,0.21546519,-0.10861327242275394,0.4147480230252887,91.5334298810853,0.22443212132977852,0.4729228363611219,-0.19634834954433347
1733312833792244,-0.20112348,0.28369704,-9.707281,-0.019012712,0.021774257,-0.2382581,-0.07347111,-0.07007597,0.22601894,-0.10791008425787497,0.4184989098982654,91.53204353813992,0.08789852060987138,0.46886085912208497,-0.17329286817240286
1733312833808244,-0.20273714,0.28507283,-9.712434,-0.020180702,0.020609021,-0.23476481,-0.07299939,-0.07282721,0.21832994,-0.10969419293195462,0.4263248651895579,91.52925746589406,-0.11150679212997812,0.4891222057057826,-0.17412951536659038
1733312833816244,-0.20388539,0.28556883,-9.71422,-0.02079488,0.019920599,-0.2327732,-0.076772176,-0.086052805,0.24895182,-0.11201063395223256,0.43017789320055344,91.52593735109319,-0.28955512753474233,0.48162850137444513,-0.4150143501074612
1733312833824244,-0.20501576,0.2860503,-9.715996,-0.021389022,0.019229202,-0.2307187,-0.07426785,-0.086424634,0.25681219,-0.11513128042535804,0.4341525627122291,91.52304794038977,-0.39008080914068594,0.496833688959453,-0.36117633792769765
1733312833832244,-0.20612891,0.2865174,-9.717761,-0.02199151,0.01853887,-0.2286535,-0.07531093,-0.086291455,0.25814956,-0.11908571624804212,0.43812851501115024,91.5201585264173,-0.49430447783550946,0.4969940373651424,-0.361176746559002
1733312833848244,-0.2083058,0.28740934,-9.721259,-0.023134952,0.017147178,-0.22461317,-0.07146515,-0.08698075,0.25252065,-0.12984710449202835,0.44538041710722553,91.5146254068294,-0.6725867652491403,0.4532438810047057,-0.34581997424436645
1733312833856244,-0.20937051,0.2878345,-9.722992,-0.023698391,0.016428502,-0.2225849,-0.07042987,-0.08983444,0.25353393,-0.1368315954280056,0.44860564520504964,91.51205690076904,-0.8730613669971533,0.4031535122280172,-0.3210632575449549
1733312833864244,-0.2104198,0.28824583,-9.724714,-0.024227446,0.015708333,-0.22055839,-0.066131815,-0.09002117,0.25331414,-0.14486825952086968,0.4516274568309672,91.50957715701132,-1.0045830116080106,0.3777264532396979,-0.30996796971323853
1733312833872244,-0.21145397,0.28864354,-9.726424,-0.024736067,0.014977004,-0.21858147,-0.06357767,-0.09141606,0.24711525,-0.1540992195615071,0.454485126563806,91.50742551671459,-1.1538700050796782,0.35720871660485,-0.26895503709296326
1733312833888244,-0.21349491,0.28938445,-9.729814,-0.025710456,0.01352133,-0.2148524,-0.060899295,-0.09097962,0.23306718,-0.17443306674790132,0.460038567380166,91.50312870001278,-1.2708654491496383,0.34709005102249707,-0.2685510438626777
1733312833896244,-0.21449369,0.28973535,-9.731492,-0.026166406,0.012792218,-0.21295209,-0.05699368,-0.09113911,0.23753753,-0.1848737388661641,0.4624404171943267,91.50107264737493,-1.3050840147828477,0.300231226770089,-0.257006579732732
1733312833904244,-0.21547829,0.29007345,-9.733159,-0.02659448,0.012075676,-0.21109617,-0.05350937,-0.089567736,0.23199058,-0.19586945028514358,0.4646667582020785,91.49922152470907,-1.3744639273724328,0.27829262596897314,-0.23139033323033828
1733312833912244,-0.21644899,0.290399,-9.734816,-0.027009431,0.011348151,-0.20933767,-0.051868845,-0.09094062,0.2198126,-0.20780495695694562,0.4666731391762357,91.49765726942978,-1.4919383339752572,0.250797621769654,-0.19553190991207856
1733312833928244,-0.21834956,0.29101267,-9.7381,-0.027764183,0.009884802,-0.20607351,-0.04717195,-0.091459304,0.20400992,-0.23375386029603334,0.46984661507988434,91.4944189721403,-1.621806458692983,0.19834224397804046,-0.2023935805924047
1733312833936244,-0.21927978,0.29130122,-9.739728,-0.02808975,0.009167525,-0.20444891,-0.040696,-0.08965959,0.20307487,-0.24720798079628362,0.47122395849994586,91.492950396932,-1.6817650625312848,0.17216792750768753,-0.1835719010380497
1733312833944244,-0.22044429,0.29154173,-9.740047,-0.028495707,0.008419272,-0.20244889,-0.050744504,-0.093531676,0.25000235,-0.2609830258635029,0.4722375288927572,91.49181630914164,-1.7218806334024142,0.12669629910141925,-0.14176097379377678
1733312833952244,-0.22159013,0.29177096,-9.74039,-0.028867599,0.007671667,-0.20040125,-0.046486497,-0.09345059,0.25595537,-0.27506139991660916,0.4730748425260426,91.49404405018467,-1.7597967566382757,0.10466420416067276,0.2784676303777598
1733312833960244,-0.22271758,0.29198912,-9.740753,-0.029200507,0.0069391336,-0.19843446,-0.041613586,-0.091566645,0.24584866,-0.2896892522797541,0.47358290854319596,91.4962510402109,-1.828481545393118,0.06350825214416785,0.275873753278105
1733312833976244,-0.22491829,0.29239282,-9.741538,-0.02978395,0.005462993,-0.19467491,-0.03646512,-0.09225879,0.23497175,-0.32014338154787475,0.4736850980680006,91.50109554713045,-1.903383079257542,0.006386845300290113,0.30278168247166637
1733312833984244,-0.22599213,0.29257864,-9.74196,-0.03003664,0.004726705,-0.19289325,-0.03158627,-0.09203597,0.22270715,-0.33542404860318703,0.47325024563058343,91.50352121481211,-1.9100833819140306,-0.054356554677142045,0.3032084602081277
1733312833992244,-0.22704856,0.292754,-9.742399,-0.03024759,0.003998189,-0.19125113,-0.026368767,-0.09106454,0.20526534,-0.35067245635554306,0.4725338517800533,91.50619260308503,-1.906050969044505,-0.08954923131626737,0.3339235341148813
1733312834008244,-0.22911054,0.2930737,-9.743337,-0.030651603,0.0025193335,-0.18844335,-0.025250832,-0.09242845,0.17548631,-0.38135452406618164,0.4700251664993459,91.51196545365633,-1.9176292319149135,-0.15679283004421532,0.3608031607068737
1733312834016244,-0.23011714,0.29322964,-9.743835,-0.03080439,0.0018247281,-0.18710913,-0.0190984,-0.08682567,0.1667775,-0.3972426000059705,0.46841751017404304,91.51490349297747,-1.9860094924736083,-0.20095704066285677,0.367254915141924
1733312834024244,-0.23110735,0.2933756,-9.744352,-0.0309245,0.0011055387,-0.18585071,-0.01501385,-0.089898676,0.15730223,-0.41343797318443726,0.4666564900378985,91.51607818455881,-2.0244216473083427,-0.22012751701806696,0.14683644766687423
1733312834032244,-0.23208144,0.29351172,-9.744887,-0.031020395,0.00040337615,-0.18467228,-0.011986819,-0.087770306,0.14730357,-0.42949126126777565,0.46472972607950563,91.51725323699645,-2.0066610104172993,-0.24084549479910514,0.14688155470524858
1733312834048244,-0.23398162,0.2937549,-9.746012,-0.031105815,-0.0010135131,-0.18267107,-0.00533869,-0.088555574,0.12507568,-0.46033131115741227,0.46003557907608045,91.51996477250736,-1.9275031181022875,-0.2933841877140763,0.16947096943218204
1733312834056244,-0.23490818,0.29386222,-9.7466,-0.031134242,-0.001726611,-0.18168673,-0.003553461,-0.08913724,0.123042606,-0.4754162807964037,0.45740448453862037,91.5214673861079,-1.8856212048739318,-0.32888681718250923,0.18782670006659088
1733312834064244,-0.2358194,0.29396003,-9.747207,-0.031130802,-0.0024442638,-0.18072946,0.00043003817,-0.089706585,0.11965818,-0.49038558197855064,0.45473779815576865,91.5232639652158,-1.8711626477683658,-0.33333579785646156,0.22457238848817576
1733312834072244,-0.23693402,0.29374543,-9.747825,-0.031244723,-0.0033314405,-0.17986849,-0.014240154,-0.11089709,0.10762177,-0.5052365714473442,0.4516632097131854,91.52482101856101,-1.8563736835992057,-0.3843235553229045,0.19463166815201416
1733312834080244,-0.23802963,0.29352728,-9.74846,-0.031334076,-0.0042205863,-0.17913137,-0.011169118,-0.11114322,0.09213946,-0.519663173506956,0.4487308869667061,91.52519628479482,-1.8033252574514664,-0.3665403433099118,0.046908279224302206
1733312834096244,-0.24013148,0.29305765,-9.749781,-0.03137586,-0.006028601,-0.17767067,-0.0026114283,-0.113000914,0.09129382,-0.5479537102555266,0.4421174898556299,91.52600817725545,-1.7681585467856635,-0.4133373194422644,0.050743278790117044
1733312834104244,-0.24115495,0.29281732,-9.750465,-0.03133955,-0.0068982593,-0.17696114,0.0045388006,-0.10870729,0.088691704,-0.5616009701152963,0.4384438601975409,91.52666320725857,-1.7059074824712108,-0.4592037072611242,0.08187875038853676
1733312834112244,-0.2421604,0.29257345,-9.751165,-0.031296093,-0.007756182,-0.17634763,0.0054319385,-0.107240334,0.076688826,-0.574521368319996,0.4344327686001844,91.52744814973295,-1.6150497755874669,-0.5013864496695567,0.09811780929856703
1733312834128244,-0.24411784,0.29207495,-9.752615,-0.031072931,-0.009456592,-0.17532353,0.013947602,-0.1062756,0.064006075,-0.6003426277402402,0.42485982923733484,91.52929105875583,-1.613828713765256,-0.5983087101781017,0.1151818139298097
1733312834136244,-0.24507006,0.29182017,-9.753365,-0.030922242,-0.010297845,-0.17478986,0.018836232,-0.105156675,0.06670877,-0.613458754232758,0.419438806409153,91.53034911581837,-1.6395158115647246,-0.6776278535227314,0.13225713281819293
1733312834144244,-0.24600486,0.29156175,-9.754129,-0.030731931,-0.0111262705,-0.17421794,0.02378877,-0.10355317,0.07149018,-0.6262217315479566,0.413984302526513,91.53120897902944,-1.5953721643998282,-0.6818129853299915,0.10748290138460181
1733312834152244,-0.24692234,0.29129967,-9.754908,-0.03052397,-0.011942303,-0.17365251,0.025995074,-0.10200403,0.07067807,-0.6385391213221828,0.4080963678621228,91.53186382081441,-1.5396737217782797,-0.7359918330487812,0.08185522311947482
1733312834168244,-0.24870032,0.2907609,-9.756507,-0.030062024,-0.013534762,-0.17273554,0.028871696,-0.09952869,0.057310794,-0.6623338851795332,0.39510908442552706,91.5334328705766,-1.4871727410843987,-0.8117052147872325,0.09806561013770775
1733312834176244,-0.24956429,0.29048616,-9.757326,-0.02978335,-0.014319258,-0.17224838,0.03483426,-0.09806198,0.060895454,-0.6742081940887358,0.38785066506123816,91.53439496456379,-1.4842886136503235,-0.9073024205361137,0.12026174839805974
1733312834184244,-0.25041172,0.29020792,-9.75816,-0.029477855,-0.015071,-0.17176811,0.038186785,-0.093967766,0.06003305,-0.6856307104425322,0.38029342455780923,91.53527493923787,-1.4278145442245584,-0.9446550629286183,0.10999683425954662
1733312834192244,-0.25104344,0.2896543,-9.758715,-0.029025756,-0.015999686,-0.17122948,0.05651242,-0.116085745,0.067329034,-0.6966733623160974,0.37284536928650835,91.53600497356805,-1.380331484195644,-0.9310069089126042,0.09125429127415828
1733312834208244,-0.2522699,0.28855166,-9.759885,-0.028095687,-0.017777855,-0.17026798,0.05812931,-0.111135535,0.060093585,-0.7181508395797979,0.3579186211113422,91.53781289361977,-1.3423423289812815,-0.9329217609478845,0.11299500323164449
1733312834216244,-0.2528648,0.2880024,-9.760498,-0.027603423,-0.018641604,-0.16972741,0.061532944,-0.10796869,0.06757118,-0.7281417649371993,0.3502381668486159,91.53878891048747,-1.2488656696751756,-0.9600567828407887,0.12200210846338548
1733312834224244,-0.2534517,0.28746635,-9.761128,-0.027110528,-0.019472042,-0.16920976,0.061611876,-0.103804745,0.06470643,-0.7375818745502184,0.3423777295074473,91.53984667659344,-1.1800137016273906,-0.9825546676460725,0.1322207632453826
1733312834232244,-0.2540265,0.2869315,-9.761775,-0.026591968,-0.020270156,-0.1687373,0.06482005,-0.0997642,0.059057023,-0.7468460677749531,0.3338922723076229,91.5408633820494,-1.1580241530918276,-1.0606821499780525,0.12708818199454905
1733312834248244,-0.25513947,0.2858655,-9.763123,-0.025506582,-0.02181784,-0.16803671,0.067836605,-0.0967303,0.04378706,-0.7638406974413671,0.3156013454843074,91.54290352336415,-1.062164354150878,-1.143182926457219,0.12750883217216313
1733312834256244,-0.25567776,0.28533426,-9.763825,-0.024946375,-0.022561893,-0.16770066,0.070025906,-0.09300652,0.04200637,-0.7716083798874578,0.30588146980825326,91.54405013564521,-0.9709603057613373,-1.214984459506771,0.1433265351331344
1733312834264244,-0.25620395,0.2848042,-9.7645445,-0.024372177,-0.02329417,-0.16736722,0.0717747,-0.09153457,0.041680407,-0.7787036614495078,0.29575776261292913,91.5452306087098,-0.8869101952562465,-1.2654633994155104,0.1475591330741867
1733312834272244,-0.25671813,0.2842753,-9.76528,-0.023789369,-0.023998406,-0.16700922,0.07285108,-0.08802953,0.044750046,-0.7851885513827218,0.2851852409491085,91.54632923807762,-0.8106112416517495,-1.3215652079775773,0.13732867097592064
1733312834288244,-0.2577103,0.28322086,-9.766796,-0.022567432,-0.025366597,-0.166558,0.07637101,-0.08551194,0.028201377,-0.796220590108577,0.2633771040504049,91.54864283954511,-0.6895024203659557,-1.363008556168977,0.14460009171833565
1733312834296244,-0.25818112,0.28269777,-9.767576,-0.021938847,-0.026004082,-0.16613896,0.07857312,-0.07968558,0.05237944,-0.8011442132336579,0.2522354319246601,91.54964587418482,-0.6154528906351074,-1.392709015718105,0.1253793299637725
1733312834304244,-0.2586402,0.28217596,-9.76837,-0.021322334,-0.026605686,-0.16568877,0.07706415,-0.07520057,0.05627423,-0.8057891013764714,0.24102034415364115,91.55123655540163,-0.5806110178516906,-1.4018859713773635,0.19883515210178296
1733312834312244,-0.25908765,0.28165555,-9.76918,-0.020699732,-0.027196769,-0.16527435,0.07782527,-0.07388531,0.05180202,-0.8099369278294243,0.22978730954576207,91.5528342466728,-0.5184783066190977,-1.4041293259848868,0.19971140889665426
1733312834328244,-0.25857744,0.28101304,-9.772819,-0.018924948,-0.028123714,-0.16529076,0.110924006,-0.057934083,-0.0010253862,-0.8165882602469818,0.20678517308625674,91.55676065107723,-0.4157082760973479,-1.4376335287190813,0.24540027527661482
1733312834336244,-0.25832874,0.2806878,-9.77462,-0.018050326,-0.02855509,-0.1652145,0.10932772,-0.053921945,0.009533018,-0.8193871958324511,0.1949178865894521,91.55910311118652,-0.3498669481836692,-1.48341081210058,0.2928075136600134
1733312834344244,-0.25808382,0.2803602,-9.776409,-0.017183565,-0.028970188,-0.16508768,0.10834517,-0.051887237,0.01585111,-0.821938721794257,0.1831403351869362,91.56141844312592,-0.31894074522572224,-1.4721939253144884,0.2894164924262244
1733312834352244,-0.25784242,0.2800304,-9.778187,-0.016318219,-0.02935258,-0.16487125,0.10816822,-0.047798965,0.027054919,-0.8239143817602907,0.17152458235306806,91.56363818471013,-0.24695749575423406,-1.4519691042335183,0.27746769802579413
1733312834368244,-0.25734246,0.27935624,-9.781705,-0.014550086,-0.030101927,-0.16442478,0.110508285,-0.04683423,0.027904285,-0.8248821544544618,0.14892908082179507,91.56837826380898,-0.060485793385684355,-1.412218845704562,0.29625494367860544
1733312834376244,-0.25708336,0.27901226,-9.783445,-0.013646863,-0.030448454,-0.16401114,0.112902835,-0.04331581,0.051705163,-0.8243617136767186,0.13795669436278937,91.57217649316367,0.0650550972178853,-1.371548307375713,0.4747786693344721
1733312834384244,-0.2568266,0.27866697,-9.785173,-0.012748739,-0.03077518,-0.16359726,0.11226558,-0.04084082,0.051734965,-0.8230404205733262,0.12716963566110198,91.5760089506917,0.16516163792405736,-1.3483823377109219,0.4790571910055979
1733312834392244,-0.25657195,0.2783205,-9.786888,-0.011847953,-0.031091856,-0.16315746,0.11259817,-0.039584465,0.054974105,-0.820936999473428,0.11646649158141113,91.57998506681523,0.26292763748727666,-1.337893009961357,0.4970145154404566
1733312834408244,-0.25606793,0.27762473,-9.790282,-0.010088342,-0.03165341,-0.16216645,0.10997569,-0.035097238,0.061938535,-0.814565513079264,0.09578453646289316,91.58739089504368,0.3982178996352564,-1.292622194907373,0.46286426427839983
1733312834416244,-0.2558182,0.27727598,-9.791959,-0.009225575,-0.031877838,-0.16146757,0.107845865,-0.028053297,0.08735991,-0.8102928019041781,0.08609163203671891,91.59131238266266,0.5340888968857308,-1.211613053271782,0.4901859523719622
1733312834424244,-0.2555697,0.27692693,-9.793623,-0.0083815865,-0.03209882,-0.1607722,0.10549859,-0.02762256,0.08692033,-0.8051514793374627,0.07683652958342448,91.5950906791692,0.642665320839429,-1.1568878066618045,0.4722870633172802
1733312834432244,-0.25532243,0.27657765,-9.795273,-0.0075604334,-0.03231687,-0.16005549,0.10264414,-0.02725655,0.0895895,-0.7991529636339514,0.06757929469939455,91.59879377625083,0.7498144629389071,-1.1571543605037398,0.462887135204222
1733312834448244,-0.25479487,0.27611607,-9.798497,-0.0059384825,-0.032561935,-0.15863848,0.10137193,-0.01531653,0.08856318,-0.7861158938793135,0.04958451152094878,91.60596100329478,0.8148168596648714,-1.124673948652861,0.4479516902470491
1733312834456244,-0.25451013,0.27600208,-9.800073,-0.005158039,-0.03258386,-0.157791,0.09755545,-0.0027404164,0.10593421,-0.7788709588628617,0.041035299793895655,91.61054561079177,0.9056168770564622,-1.0686514658816404,0.5730759371228794
1733312834464244,-0.2542271,0.275884,-9.801635,-0.004397022,-0.032593153,-0.15686281,0.09512709,-0.0011618249,0.11602416,-0.7712334320907885,0.032923301199847266,91.61493231622319,0.9546908465091455,-1.0139998242560486,0.5483381789275076
1733312834472244,-0.2539457,0.27576208,-9.803184,-0.0036460613,-0.032587577,-0.15595686,0.093870096,0.0006970949,0.11324323,-0.7631806511454334,0.024988994922659498,91.61927767075848,1.0065976181693919,-0.9917882846484714,0.5431693169113115
1733312834488244,-0.2533874,0.27550745,-9.806246,-0.0021840415,-0.032571238,-0.1542657,0.09137623,0.0010211952,0.105697654,-0.7453478253804924,0.010302006397151673,91.62761392927811,1.1145516103088136,-0.9179367828442389,0.5210161574768285
1733312834496244,-0.25311026,0.2753751,-9.807757,-0.0014716807,-0.032557618,-0.15320776,0.0890451,0.0017024575,0.13224222,-0.7360082267577899,0.003754789777196302,91.63174099704467,1.1674498278378207,-0.8184020774944214,0.5158834708200274
1733312834504244,-0.25285396,0.275255,-9.809256,-0.00082031393,-0.032492273,-0.15215425,0.08142085,0.008168165,0.13168901,-0.7264361012160868,-0.0022502271669803293,91.63586816210059,1.19651569271288,-0.7506271180220789,0.5158956319904977
1733312834512244,-0.2525989,0.27513206,-9.81074,-0.00017907123,-0.032414325,-0.15111741,0.080155335,0.009743497,0.12960471,-0.7162928569712348,-0.007847914061310624,91.6385738617764,1.2679055306065061,-0.6997108617912867,0.3382124594757868
1733312834528244,-0.25209266,0.2748782,-9.813672,0.0010345535,-0.032276917,-0.14916915,0.075851545,0.008587958,0.121766694,-0.6953443278844427,-0.018200026525346594,91.64332973328233,1.3092830679245078,-0.647007029002248,0.2972419691210106
1733312834536244,-0.25184152,0.27474743,-9.815118,0.0016297484,-0.032203954,-0.1480914,0.07439935,0.009120442,0.13471767,-0.6842989359674884,-0.02268364579556741,91.64565309932578,1.380673989619282,-0.5604524087776017,0.29042075543098606
1733312834544244,-0.2515916,0.27461436,-9.816551,0.002206155,-0.03212039,-0.14701615,0.07205084,0.010445247,0.13440661,-0.6730194785313538,-0.026668981505409448,91.64793540337138,1.409932179516824,-0.49816696373025515,0.2852880056998099
1733312834552244,-0.25134295,0.27447912,-9.817971,0.0027459855,-0.032038607,-0.14596881,0.0674788,0.010223127,0.13091788,-0.6618847519000991,-0.030347465716254247,91.65002614825724,1.391840828906833,-0.45981052635559955,0.2613431107328321
1733312834560244,-0.2510957,0.27434188,-9.819379,0.0032723206,-0.031938072,-0.14504968,0.06579188,0.0125668,0.11489167,-0.6511828985573683,-0.03362024741696761,91.6518098588511,1.3377316678413456,-0.40909771258917055,0.22296382423183775
1733312834576244,-0.25010738,0.2741531,-9.82224,0.0046237325,-0.031602748,-0.14294942,0.08446324,0.020957783,0.13126619,-0.6297646333538748,-0.03867197372790319,91.65767245180642,1.3386415752183483,-0.3157328944334735,0.36641205970775864
1733312834584244,-0.24962209,0.27405456,-9.823649,0.005261352,-0.031437173,-0.1418503,0.07970241,0.02069678,0.13739057,-0.6189988262807472,-0.0405858945768478,91.66147170840401,1.3457258841409498,-0.23924010611807667,0.47490707469761384
1733312834592244,-0.24914247,0.2739544,-9.825046,0.005874103,-0.03127757,-0.14076893,0.07659388,0.019950325,0.1351703,-0.6085736748668047,-0.042416038909039465,91.6649703653844,1.3031439267428095,-0.228768041523958,0.43733212255029147
1733312834608244,-0.24819994,0.27374926,-9.827796,0.007018577,-0.03096624,-0.13869905,0.07152962,0.019458123,0.12936722,-0.5877702545586385,-0.045081440968593525,91.67158475517742,1.3002137692603895,-0.16658762872212862,0.41339936206336425
1733312834616244,-0.2477369,0.27364442,-9.829151,0.007567421,-0.030813474,-0.13755031,0.06860553,0.019095838,0.14359318,-0.5775463321925133,-0.0459024779903992,91.67502186775378,1.2779902957656533,-0.10262962772570954,0.4296390720448649
1733312834624244,-0.24727917,0.27353814,-9.830492,0.008094719,-0.030657478,-0.13644795,0.0659122,0.019499566,0.13779476,-0.5674563388274811,-0.04636199512401717,91.67811029017588,1.2612491706290083,-0.057439641702246164,0.3860528027621301
1733312834632244,-0.24682665,0.27343056,-9.83182,0.008610385,-0.030494493,-0.13539395,0.06445823,0.020373145,0.13175048,-0.5575409479437914,-0.0465662872164851,91.68089168612498,1.2394238604612253,-0.025536511558491584,0.3476744936376379
1733312834648244,-0.24594691,0.27322933,-9.834436,0.009566686,-0.030158032,-0.13332519,0.059768844,0.021028796,0.12929738,-0.5374447072293741,-0.046137159097112204,91.68538109791174,1.2560150446510794,0.02682050746080599,0.28058823667330357
1733312834656244,-0.24551451,0.2731267,-9.835726,0.009998657,-0.030014781,-0.13222559,0.053996336,0.017906306,0.13745017,-0.5276461502591969,-0.04569282313241591,91.68717796669836,1.2248196212721407,0.05554199558703661,0.2246085983255786
1733312834664244,-0.24508716,0.27302277,-9.837002,0.010410495,-0.029852504,-0.13113707,0.051479783,0.02028467,0.13606437,-0.5181672433767656,-0.04510700082504453,91.68880435567164,1.1848633603039254,0.07322778842142269,0.20329862165999735
1733312834672244,-0.24466471,0.27291778,-9.838264,0.010810715,-0.029688863,-0.1300486,0.050027505,0.020455102,0.13605878,-0.5091167623123795,-0.04425979030605368,91.69016397962137,1.1313101330482636,0.10590131487385607,0.1699529937183353
1733312834688244,-0.24383417,0.27270412,-9.8407545,0.011562541,-0.0294187,-0.12805372,0.04698912,0.016885227,0.12467987,-0.490617133595301,-0.04171899924005881,91.69270592100985,1.156226794817404,0.1587994416246791,0.1588713367786853
1733312834696244,-0.24347393,0.27209893,-9.842585,0.011890644,-0.029551866,-0.12713332,0.041012883,-0.016645761,0.115049995,-0.4813431868988547,-0.04017397537065876,91.69388803708333,1.1592433370557886,0.19312798367500653,0.14776450918532086
1733312834704244,-0.24311736,0.27150258,-9.844388,0.012207422,-0.029676994,-0.12620662,0.039597273,-0.015641097,0.115837894,-0.4722086716408065,-0.03820118415712485,91.69267841041636,1.1418144072560248,0.24659890169173945,-0.15120333337037523
1733312834712244,-0.24276903,0.27090558,-9.846164,0.012476561,-0.029804682,-0.12529223,0.03364228,-0.015961006,0.11429935,-0.46338427954403516,-0.03607321959778661,91.6916058322834,1.1030490120964194,0.26599556991727963,-0.1340722666204274
1733312834728244,-0.24208353,0.26973623,-9.84964,0.0130003365,-0.030120457,-0.12352736,0.03273599,-0.019735888,0.110303976,-0.44608204053673123,-0.031779524476001186,91.69079238583981,1.0813899379564946,0.26835594511158906,-0.05084040272368896
1733312834736244,-0.2417464,0.26916313,-9.851339,0.013224855,-0.03027399,-0.122441664,0.028064823,-0.019191764,0.13571233,-0.4379488665506109,-0.029922006237096194,91.69007492360792,1.0166467482650443,0.23218977986312406,-0.08968277898658888
1733312834744244,-0.24141297,0.2685974,-9.853012,0.013457283,-0.030426186,-0.121362634,0.029053537,-0.019024359,0.13487878,-0.42990618974528233,-0.028443817038749892,91.68922774415554,1.0053346006660644,0.1847736497932876,-0.10589743154768773
1733312834752244,-0.24108317,0.26803884,-9.85466,0.013685137,-0.030564861,-0.120285936,0.028481705,-0.017334474,0.13458729,-0.42211051243882536,-0.027135048586145474,91.68841439882762,0.9744596633071251,0.16359605657555223,-0.10166816598986544
1733312834760244,-0.24075712,0.26748732,-9.856284,0.01386932,-0.030686146,-0.11925306,0.023022875,-0.015160534,0.12910925,-0.4143269745799757,-0.02636822636609017,91.68760125484066,0.9729422323562054,0.09585277750691291,-0.10164299837040015
1733312834776244,-0.24011649,0.26640415,-9.859458,0.01422508,-0.030961853,-0.11707132,0.022234976,-0.017231679,0.13635866,-0.39927563874027944,-0.0259733960341498,91.68518260587007,0.9407084899810181,0.024676895746273193,-0.1511655606616762
1733312834784244,-0.23980153,0.2658845,-9.861009,0.014384261,-0.031086953,-0.11587711,0.019897705,-0.015637605,0.14927703,-0.39237407323541995,-0.026302619190530646,91.6837269986512,0.8626956881074299,-0.041152894547605776,-0.18195090236024702
1733312834792244,-0.23949029,0.26537067,-9.8625345,0.014547542,-0.031209012,-0.11468217,0.02041005,-0.015257391,0.14936738,-0.38573564727731163,-0.027154325196415592,91.6814926845776,0.8298032447635446,-0.10646325073561813,-0.2792892591978872
1733312834808244,-0.23887892,0.26436016,-9.865519,0.014833822,-0.031407863,-0.112466045,0.01789251,-0.01242815,0.13850768,-0.3729097294852253,-0.030278043236927676,91.6766955472772,0.8016198620053916,-0.19523237753200526,-0.2998210812747926
1733312834816244,-0.23852123,0.26361182,-9.866807,0.014929835,-0.031697873,-0.11122583,0.012001604,-0.036251266,0.15502702,-0.36717272697563724,-0.03237327077916475,91.6742289060733,0.7171253136985124,-0.261903442779634,-0.308330150489121
1733312834824244,-0.23816948,0.26287302,-9.868076,0.015007156,-0.031952407,-0.10996927,0.009665149,-0.031816773,0.1570694,-0.36185464215866336,-0.03470047137468233,91.66934341374277,0.6647606021217347,-0.29090007443969823,-0.6106865413162371
1733312834832244,-0.23782359,0.2621436,-9.869327,0.01506977,-0.03220143,-0.10865808,0.0078267185,-0.031128058,0.1638988,-0.35670448020401213,-0.037546579751268766,91.66438262165266,0.6437702443314076,-0.35576354707330377,-0.6200990112628624
1733312834848244,-0.23714957,0.26071164,-9.871776,0.015127987,-0.03267964,-0.106253415,0.0036385607,-0.029888002,0.15029171,-0.34714072357022996,-0.04430231891850871,91.65396907410576,0.5977347896113836,-0.4222336979524964,-0.650846721681664
1733312834856244,-0.23682629,0.26000625,-9.872974,0.01514431,-0.032916367,-0.10490911,0.0020404113,-0.02959091,0.16803852,-0.34279833750140604,-0.04804773174008312,91.64887183288089,0.5427982586029951,-0.46817660269680195,-0.6371551531089084
1733312834864244,-0.23650867,0.25930923,-9.874154,0.01515998,-0.033129,-0.10354406,0.0019588042,-0.026579013,0.17063132,-0.3385121593133823,-0.05211435055300277,91.64374025764259,0.5357722735029627,-0.5083273516149562,-0.641446904787037
1733312834872244,-0.23619658,0.2586205,-9.875317,0.015176569,-0.033331525,-0.102227844,0.0020735897,-0.025315674,0.1645265,-0.33425743610582564,-0.056770540638239386,91.63879341274449,0.531840400944582,-0.5820237606545771,-0.6183556122618232
1733312834888244,-0.23558894,0.25726727,-9.877592,0.015144271,-0.033696204,-0.09997038,-0.0020186417,-0.022792488,0.14109164,-0.32585163239763204,-0.06762710605686519,91.62898847536957,0.5253627317621018,-0.6785353386641123,-0.6128085859333509
1733312834896244,-0.23529331,0.25660256,-9.878706,0.015129939,-0.033848852,-0.09872406,-0.0017915153,-0.019080937,0.15578978,-0.3224733502914576,-0.07372903095210492,91.62411672858876,0.42228526327180144,-0.7627406119049681,-0.608968347600382
1733312834904244,-0.23500298,0.25594565,-9.879803,0.015106281,-0.03399447,-0.097503744,-0.0029571818,-0.018202234,0.15253946,-0.31916350145191646,-0.08029040741572226,91.61932691058489,0.4137311049426425,-0.8201720579521663,-0.5987272504842331
1733312834912244,-0.23471788,0.2552965,-9.880884,0.01508567,-0.03410829,-0.09631698,-0.0025763873,-0.014227348,0.14834571,-0.31562729810511914,-0.08703434596042972,91.61463306189037,0.4420254183496707,-0.8429923180884322,-0.5867310868138905
1733312834928244,-0.23417106,0.2540227,-9.883001,0.015019505,-0.034318365,-0.09419204,-0.004135305,-0.013129785,0.13280846,-0.30920444310896095,-0.1012908977087378,91.60497197056131,0.40142843725988414,-0.8910344842692547,-0.6038182080664191
1733312834936244,-0.23390506,0.25339693,-9.884039,0.014983912,-0.034411453,-0.09308485,-0.004449161,-0.011635943,0.13839918,-0.30629256008371375,-0.10885917358806635,91.60023032319657,0.3639853781559049,-0.9460344849160687,-0.592705920593739
1733312834944244,-0.23386991,0.25304192,-9.885226,0.014799262,-0.034337938,-0.09196746,-0.023081198,0.00918936,0.13967323,-0.3034735673606034,-0.11660001405172839,91.59552309673347,0.35237409038879114,-0.9676050579577556,-0.5884033078859215
1733312834952244,-0.23383535,0.2526888,-9.8863945,0.014620011,-0.03424421,-0.090882726,-0.022406455,0.011716037,0.13559218,-0.30054253457187297,-0.12469413967462098,91.59044670373916,0.3663790985913064,-1.0117657028615739,-0.6345491242898014
1733312834968244,-0.2337684,0.25198862,-9.888678,0.014234897,-0.03401534,-0.08884123,-0.024069624,0.014304415,0.12759352,-0.29489731953678205,-0.1409969646452803,91.58043766666886,0.3528259396931808,-1.0189265606662072,-0.6255648168939408
1733312834976244,-0.23373619,0.25164166,-9.889792,0.014049173,-0.033897683,-0.08777532,-0.023215426,0.0147069795,0.13323873,-0.29241392919546155,-0.14940284675975138,91.57575783125397,0.31042379266506026,-1.0507352643088859,-0.5849794268611702
1733312834984244,-0.23370478,0.251297,-9.890888,0.013856653,-0.033760745,-0.086612836,-0.024065025,0.017117243,0.14531054,-0.29004163316468917,-0.1578838511156871,91.57115309622712,0.29653700384655224,-1.0601255444919617,-0.5755918783558973
1733312834992244,-0.23365745,0.2509506,-9.891967,0.013685772,-0.033619843,-0.08548065,-0.021360114,0.017612707,0.14152284,-0.28797932303831075,-0.16625712291507141,91.56663749102398,0.25778876579730314,-1.0466589749230408,-0.5644506503919868
1733312835008244,-0.23356594,0.2502656,-9.894073,0.0133516975,-0.033296235,-0.08361375,-0.02087967,0.02022553,0.11668121,-0.28503066279058675,-0.18274068704206528,91.5595257778443,0.18429126548274927,-1.030222757937117,-0.4444820737301725
1733312835016244,-0.23352176,0.24992727,-9.895102,0.013183239,-0.033114094,-0.0826034,-0.021057319,0.022767575,0.12629385,-0.2840769193272737,-0.19061689746197102,91.556212671792,0.11921793291412783,-0.9845263024882173,-0.4141382565370658
1733312835024244,-0.23347868,0.24959189,-9.896114,0.013008134,-0.032914348,-0.08153796,-0.021888059,0.02496829,0.13318005,-0.28349371046346944,-0.19783200658325892,91.5531315198338,0.07290110797553198,-0.9018886401609885,-0.3851439947759755
1733312835032244,-0.2334368,0.24925962,-9.89711,0.012830153,-0.032698948,-0.0805063,-0.022247665,0.026925,0.12895744,-0.2831403685263185,-0.20470276571637055,91.55036499622184,0.04416774214386693,-0.8588448916389525,-0.34581545149401915
1733312835048244,-0.23335661,0.24860464,-9.899056,0.01248631,-0.03227266,-0.078634806,-0.021490209,0.026643042,0.11696852,-0.2832618302528682,-0.21815244694949593,91.54501638264875,-0.007591357909355651,-0.8406050770703357,-0.3342883483184342
1733312835056244,-0.23331816,0.24828205,-9.900007,0.012335688,-0.032037277,-0.07763254,-0.018827733,0.029422807,0.12528338,-0.2835181594072589,-0.2245198849566115,91.54276211771032,-0.03204114429883326,-0.7959297508894452,-0.28178311730223793
1733312835064244,-0.23331292,0.24795885,-9.900942,0.012130808,-0.031820726,-0.076631136,-0.025609972,0.027068889,0.12517534,-0.2839485680565113,-0.23055325740863641,91.54076084614537,-0.05380108115655005,-0.7541715565031163,-0.250158945619451
1733312835072244,-0.23339376,0.24757774,-9.901845,0.011835508,-0.031725653,-0.07566893,-0.036912505,0.011884141,0.12027565,-0.28441689955468247,-0.23624061102102015,91.53868428369869,-0.05854143727140029,-0.710919201547967,-0.2595703058355619
1733312835088244,-0.23355564,0.24682443,-9.903613,0.011255594,-0.03148849,-0.07410732,-0.036244627,0.014822696,0.097600736,-0.28580967368141286,-0.2452423728891592,91.52898286393216,-0.08704838292064836,-0.5626101167586918,-0.6063387354080237
1733312835096244,-0.23363683,0.24645238,-9.904475,0.010975528,-0.03135752,-0.07320259,-0.035008296,0.016371254,0.113091424,-0.2868996050580396,-0.24938593507864118,91.52437135070839,-0.13624142207834095,-0.517945273685247,-0.5764391529712127
1733312835104244,-0.23371813,0.24608344,-9.905324,0.010705321,-0.031217758,-0.07229613,-0.03377581,0.017470215,0.11330749,-0.28831562436895414,-0.25332851295392744,91.51994427683198,-0.17700241386432083,-0.49282223441077855,-0.5533842345510996
1733312835112244,-0.23379953,0.24571764,-9.90616,0.010426374,-0.031061202,-0.07152964,-0.034868367,0.019569416,0.095810734,-0.2900224242786987,-0.2570214941255532,91.51581097909732,-0.21334998871806604,-0.4616226464532225,-0.5166622168320512
1733312835128244,-0.23396274,0.244996,-9.9078,0.009904356,-0.030691242,-0.070019774,-0.03262615,0.023122527,0.09436672,-0.2935816938955037,-0.2635378019577359,91.50808413953727,-0.22245435105031489,-0.4072692395114195,-0.482927472503456
1733312835136244,-0.2340499,0.24463947,-9.908602,0.009646313,-0.030484568,-0.069082215,-0.032255307,0.025834188,0.11719483,-0.2957670716662,-0.26651134061543047,91.50444936173058,-0.2731722213370299,-0.37169233221182135,-0.45434722583604625
1733312835144244,-0.234137,0.2442864,-9.909391,0.009401155,-0.030275809,-0.0681354,-0.03064482,0.026094958,0.118351534,-0.2983135601632125,-0.2691686867638517,91.50086246796991,-0.31831106212656257,-0.3321682685526543,-0.44836172008345
1733312835152244,-0.23422404,0.24393676,-9.910165,0.009160248,-0.03007369,-0.067251116,-0.030113382,0.025264917,0.110535875,-0.301231369197343,-0.27164481799682066,91.49749451319109,-0.3647261292663195,-0.30951640412111925,-0.42099434735403657
1733312835168244,-0.23439778,0.24324769,-9.91168,0.008719002,-0.029631523,-0.06588566,-0.027577857,0.027635366,0.085340805,-0.30770859221625546,-0.27678024525270145,91.49148936581055,-0.4048264386820275,-0.32096420349254795,-0.37532171128338987
1733312835176244,-0.23448431,0.2429084,-9.912422,0.008527554,-0.029394008,-0.06498495,-0.02393103,0.029689398,0.11258944,-0.3109489802421218,-0.27942105160909675,91.4887429274391,-0.40504850323329594,-0.3301007945494156,-0.3433047964303471
1733312835184244,-0.23457043,0.24257256,-9.913152,0.00834964,-0.029167056,-0.06408947,-0.022239167,0.028369015,0.11193472,-0.3143535606226615,-0.2821228507531735,91.48626304482143,-0.4255725475674583,-0.33772489300959563,-0.30998532721033634
1733312835192244,-0.23476817,0.24190013,-9.9128475,0.008181362,-0.02911674,-0.06296538,-0.021034734,0.0062894537,0.14051142,-0.3178879423144281,-0.2847804938733065,91.4838173894181,-0.44179771147081964,-0.33220539001662347,-0.30570692541431643
1733312835208244,-0.23516357,0.24060777,-9.912284,0.007863237,-0.028970262,-0.061003402,-0.019882863,0.009154901,0.12262351,-0.32593023398159837,-0.2890253762594216,91.47719035216544,-0.5026432291981459,-0.2653051491321928,-0.414189828292167
1733312835216244,-0.23535551,0.23997626,-9.912025,0.0077113127,-0.028884187,-0.05990763,-0.018990481,0.010759336,0.13697147,-0.3297719506787896,-0.2909802494654625,91.47398608001791,-0.48021458714890364,-0.24435915075511513,-0.40053401844125053
1733312835224244,-0.2355437,0.23935431,-9.91178,0.00757174,-0.028780716,-0.058911562,-0.017446581,0.012933974,0.12450851,-0.3336805027382888,-0.29272634594658686,91.4709391146757,-0.4885690074373976,-0.21826206014054195,-0.38087066777599843
1733312835232244,-0.23572806,0.23874192,-9.911548,0.0074590202,-0.028653737,-0.05810592,-0.014089978,0.015872298,0.1007053,-0.3375613017986522,-0.2944296734112029,91.46817901300525,-0.48509988254542424,-0.21291593307700699,-0.3450127088044097
1733312835248244,-0.23608495,0.23754548,-9.911127,0.0072682123,-0.028356802,-0.056893088,-0.011925498,0.018558465,0.07580197,-0.3455689296388776,-0.2979750692154634,91.4629935561004,-0.5004767400140872,-0.22158723776628184,-0.32409105655333337
1733312835256244,-0.23625763,0.23696129,-9.910937,0.007177033,-0.028194275,-0.056259815,-0.011397408,0.020315869,0.079159155,-0.34946149890346917,-0.3000693511300507,91.46075938689822,-0.4865711580739502,-0.26178523932340747,-0.2792711502740723
1733312835264244,-0.23642647,0.2363862,-9.910761,0.0070956317,-0.028040186,-0.055695515,-0.010175164,0.019261148,0.07053744,-0.3533521486016854,-0.30224327562630204,91.45885357341534,-0.48633121227702575,-0.27174056203141933,-0.23822668535956704
1733312835272244,-0.23659872,0.23583005,-9.910601,0.0070044403,-0.027863152,-0.055207007,-0.011398922,0.022129154,0.061063558,-0.3573239823977674,-0.3045002312170135,91.45717299845434,-0.496479224510256,-0.28211944883892626,-0.21007187012447126
1733312835288244,-0.23693123,0.23474424,-9.910322,0.006919117,-0.027457306,-0.05462466,-0.0053326944,0.025365384,0.036396552,-0.3652508200223645,-0.3092437589113745,91.4519262546386,-0.49542735153731327,-0.296470480897567,-0.3279214884840181
1733312835296244,-0.23709148,0.23421429,-9.910204,0.006883246,-0.027250037,-0.05426785,-0.0044839107,0.025908694,0.0446015,-0.3690373865735844,-0.31191098696783015,91.44938516387673,-0.4733208189024954,-0.33340350705695426,-0.31763634523372414
1733312835304244,-0.23724772,0.23369285,-9.910098,0.006859229,-0.027037013,-0.053920534,-0.003002118,0.026627908,0.04341453,-0.37267548410628903,-0.31484915951805953,91.44711693690743,-0.4547621915880789,-0.36727156877867406,-0.28352837116142016
1733312835312244,-0.23739997,0.23317982,-9.910005,0.00684283,-0.026812147,-0.053694926,-0.002049841,0.028108245,0.028200911,-0.3762856182404485,-0.3178632131964994,91.44526591382679,-0.4512667667699274,-0.37675670980498127,-0.23137788508159962
1733312835328244,-0.23735417,0.23207906,-9.910316,0.0068152817,-0.026352536,-0.053813025,-0.0017217825,0.028725712,-0.0073811966,-0.38358038428223673,-0.32376549629982315,91.44140638653796,-0.45592287761176603,-0.3688926939577341,-0.24122045555138769
1733312835336244,-0.23733298,0.23154294,-9.910485,0.0068086917,-0.026123838,-0.053690426,-0.00082375476,0.028587177,0.015324912,-0.38691972390957335,-0.32665164456071205,91.43940479706443,-0.4174174534170809,-0.36076853261111597,-0.25019868419162716
1733312835344244,-0.23730671,0.23102467,-9.910662,0.00682036,-0.02584226,-0.05356165,0.0014585675,0.03519724,0.01609698,-0.38998199090505814,-0.32954513088909465,91.43778601159009,-0.3827833744355997,-0.36168579104782217,-0.20234818429212376
1733312835352244,-0.23728134,0.2305158,-9.910844,0.0068375506,-0.025569307,-0.053451132,0.002148794,0.034119233,0.0138147725,-0.39301675235292394,-0.33240636087945197,91.43622176464844,-0.37934518098321957,-0.357653748794667,-0.19553086770633024
1733312835368244,-0.23723261,0.22952533,-9.911231,0.0069098496,-0.025033398,-0.05371665,0.0045186896,0.033494316,-0.016594771,-0.39901925978238956,-0.3378693783730355,91.43340070677125,-0.3751567143416026,-0.3414385933489702,-0.1763161173241567
1733312835376244,-0.23720886,0.22904359,-9.911436,0.0069631645,-0.024758374,-0.05366304,0.0066643693,0.03437791,0.0067008655,-0.40123054629178395,-0.34052290000442914,91.43227371672873,-0.2764108136743015,-0.33169020392420434,-0.140873755315793
1733312835384244,-0.23718537,0.22857071,-9.911648,0.0070310463,-0.024473825,-0.05355262,0.008485221,0.035568606,0.013802665,-0.40293002949214474,-0.34313357283282486,91.43119460867342,-0.21243540004509695,-0.3263341035494665,-0.13488850691300794
1733312835392244,-0.237162,0.22810663,-9.911867,0.007096513,-0.024191257,-0.053488664,0.008183356,0.035321105,0.007994473,-0.40464853662050415,-0.34571713856685166,91.43033425764305,-0.2148133910449234,-0.3229457167533479,-0.10754387879607294
1733312835408244,-0.23711509,0.22720486,-9.912326,0.0072759017,-0.023563294,-0.05370154,0.011211785,0.039247677,-0.013304641,-0.4083395205555048,-0.3509724792933059,91.42933051395892,-0.23068649593754154,-0.3284587954033897,-0.06273398025854417
1733312835416244,-0.23709875,0.22676393,-9.912565,0.0073490064,-0.023254871,-0.053656217,0.009138078,0.038552795,0.0056652348,-0.4094242433860713,-0.3536798733938366,91.42917380626061,-0.1355903538208163,-0.3384242625663416,-0.019588462288430437
1733312835424244,-0.2370822,0.22633159,-9.912811,0.007420727,-0.022938523,-0.05361494,0.008965085,0.039543487,0.0051595266,-0.4102368548726046,-0.3564914040035939,91.42907863740497,-0.10157643581665421,-0.35144132621966184,-0.011896106955250332
1733312835432244,-0.23706532,0.22590789,-9.913061,0.007501288,-0.022589663,-0.053579696,0.0100700995,0.043607548,0.0044056214,-0.4109633451603916,-0.35913495220538855,91.42917465804291,-0.09081128597338196,-0.3304435252243279,0.012002579742871023
1733312835448244,-0.23699304,0.22530903,-9.912385,0.0076044034,-0.021809908,-0.05363979,0.006444723,0.04873471,-0.0037557909,-0.41160252726263913,-0.3641283201569299,91.4297084502996,-0.039948881390469,-0.31208549697133714,0.03336201604306445
1733312835456244,-0.23693971,0.22512881,-9.911499,0.0076161125,-0.021368213,-0.053374168,0.0014636315,0.055211827,0.03320258,-0.4115944857639315,-0.3667567691519478,91.43023507402992,0.001005187338457654,-0.3285561243772367,0.06582796629099325
1733312835464244,-0.2368879,0.2249522,-9.910646,0.0076535274,-0.020931022,-0.053021047,0.004676869,0.054648843,0.04414003,-0.4112928564675671,-0.36918425777278435,91.43097320182841,0.03770366204554958,-0.3034360776045638,0.0922659748103736
1733312835472244,-0.23683745,0.22477917,-9.909828,0.0076752338,-0.0204906,-0.052764315,0.0027132917,0.055052802,0.032091513,-0.410837737416294,-0.37145822465484724,91.431684187715,0.056889881409134466,-0.284245860257865,0.08887323582420253
1733312835488244,-0.23672079,0.22443965,-9.908295,0.0077480027,-0.019617682,-0.05295714,0.0045480556,0.05455734,-0.012051546,-0.41002797450232487,-0.37586912655794086,91.43420618416945,0.05061018212307055,-0.27568136894334955,0.15762477840266503
1733312835496244,-0.23666437,0.2242756,-9.907578,0.007785867,-0.019167384,-0.052938264,0.0047330395,0.05628727,0.0023595057,-0.40933887062715796,-0.3779568617397476,91.43561407520804,0.08613798439586298,-0.260966897725839,0.1759863798241757
1733312835504244,-0.23660918,0.22411552,-9.906895,0.007821446,-0.01871436,-0.05293705,0.0044474145,0.056627903,0.00015180558,-0.40844045924738326,-0.37987037040772403,91.43691245903726,0.11230142247183539,-0.23918858349705624,0.1622979786521224
1733312835512244,-0.2365551,0.22395933,-9.906255,0.00787167,-0.018273545,-0.05307381,0.0062779286,0.05510193,-0.017094892,-0.40759220649904093,-0.38182675589667187,91.43851854036187,0.10603159354279203,-0.24454818611847934,0.20076016557618098
1733312835528244,-0.2364499,0.22365896,-9.905071,0.007956241,-0.017373452,-0.053882293,0.005285721,0.05625584,-0.0505303,-0.4065364020051775,-0.3850134306627414,91.44173010450592,0.06598778086646477,-0.199167172879346,0.20072275900339523
1733312835536244,-0.23639876,0.22351483,-9.904526,0.00799299,-0.016907237,-0.054138087,0.004593632,0.05827681,-0.031974167,-0.405932756397074,-0.3861744290305879,91.44373896449996,0.07545570101294041,-0.14512479598081204,0.2511074992545159
1733312835544244,-0.23634844,0.22337489,-9.904011,0.00805081,-0.016444258,-0.054430146,0.007227412,0.05787238,-0.03650738,-0.405040031364813,-0.3871483401337703,91.44581636497755,0.11159062903262758,-0.12173888789780238,0.2596750596987661
1733312835552244,-0.2362919,0.22323535,-9.903525,0.008110359,-0.015990986,-0.054764517,0.0074437116,0.056659102,-0.041796356,-0.40396935063637623,-0.3878938616614592,91.44779799946521,0.13383509105458885,-0.09319019096111295,0.2477043109582791
1733312835568244,-0.23630756,0.22312412,-9.902183,0.00817544,-0.0150408605,-0.055860456,0.0040675513,0.05938281,-0.06849621,-0.4020718447119879,-0.38933909356397983,91.45318904646064,0.11859412027427098,-0.09032699390753918,0.33694043721401806
1733312835576244,-0.23637645,0.22314857,-9.90135,0.008213144,-0.014540889,-0.05618182,0.004712958,0.062496398,-0.040170267,-0.401027043486222,-0.38957279281801277,91.4557241090938,0.13060015322073942,-0.02921240675411671,0.31688282914346105
1733312835584244,-0.23644286,0.22317345,-9.900557,0.008234118,-0.014052644,-0.05651583,0.0026217892,0.06103061,-0.041751653,-0.39983801359471627,-0.3894867197731318,91.45832719298541,0.14862873643821353,0.010759130610116898,0.3253854864525828
1733312835592244,-0.23650694,0.22319897,-9.8998,0.008242476,-0.013548044,-0.05688379,0.0010447111,0.063075095,-0.04599476,-0.39858513467353895,-0.38945043355484654,91.46103978768384,0.15660986514717018,0.004535777285664103,0.33907433730417924
1733312835608244,-0.236628,0.22325253,-9.8984,0.008313364,-0.01254896,-0.058191903,0.0044305343,0.06244273,-0.081757076,-0.39631358637162367,-0.38840915256177283,91.46675167098114,0.14197176886970453,0.06508006206710631,0.35699270608107025
1733312835616244,-0.23668489,0.22328058,-9.897756,0.008348083,-0.012068664,-0.058620144,0.004339847,0.06003701,-0.05353009,-0.39524876033756207,-0.38729628647709774,91.46971673036538,0.13310325425769787,0.13910826058438738,0.37063242303058647
1733312835624244,-0.23672777,0.22330567,-9.897145,0.008383833,-0.0115951635,-0.05903403,0.0044687185,0.059187524,-0.051735897,-0.3941310274330753,-0.38570412248418307,91.47277055372868,0.13971661306084246,0.19902049911433037,0.3817279204115578
1733312835632244,-0.2367685,0.22333175,-9.896584,0.008424136,-0.011130248,-0.059567288,0.0050378726,0.05811441,-0.06665708,-0.3932847711824334,-0.3837036056956715,91.47714298586085,0.10578203133024658,0.2500645985639454,0.5465540165223239
1733312835648244,-0.23684347,0.22338675,-9.895564,0.008499929,-0.010226085,-0.061205328,0.004737056,0.056510206,-0.10237749,-0.39214627157369936,-0.37930753446000404,91.48605198090902,0.0711562255458739,0.2747544522292171,0.5568121905104603
1733312835656244,-0.23687777,0.22341588,-9.895104,0.00853715,-0.009767072,-0.061833885,0.0046526548,0.05737657,-0.07856963,-0.39168244969235855,-0.37716160768281176,91.49042449429486,0.05797773516760115,0.2682408471490335,0.5465641732293104
1733312835664244,-0.23690999,0.22344613,-9.894676,0.008577062,-0.009325522,-0.062468454,0.004988978,0.05519378,-0.079321206,-0.3910815476274006,-0.3746871049510357,91.49451696791813,0.07511275811974732,0.30931284147201005,0.511559202909682
1733312835672244,-0.23694012,0.22347756,-9.8942795,0.008618344,-0.008885383,-0.06313396,0.005160225,0.05501741,-0.08318852,-0.3905011398350322,-0.3718750350461577,91.49911480098328,0.07255097404605076,0.3515087381097487,0.5747291331425349
1733312835688244,-0.23699394,0.22354396,-9.89358,0.008726709,-0.008008375,-0.064918615,0.00677281,0.054812986,-0.11154077,-0.3898635202835295,-0.3661188271088056,91.50832447232055,0.039851221968917654,0.3597629960845046,0.5756044585803497
1733312835696244,-0.23724766,0.22321956,-9.893475,0.008689401,-0.0076820464,-0.065636754,-0.0046634814,0.040791053,-0.08976738,-0.3893018164113053,-0.36319531353123563,91.51268295731481,0.07021298402802689,0.3654391971962462,0.5448106242815538
1733312835704244,-0.2374941,0.22290516,-9.893392,0.008641782,-0.0073630637,-0.06629692,-0.005952315,0.03987283,-0.08252076,-0.38854086416039113,-0.35983554063249196,91.51608534678208,0.09511903136426932,0.41997161234296004,0.42529868340883187
1733312835712244,-0.23773353,0.22260046,-9.893332,0.008596176,-0.0070459624,-0.066976465,-0.0057007414,0.03963767,-0.08494313,-0.38819530203994274,-0.356151542159348,91.51954199599973,0.04319526505605207,0.46049980914299604,0.4320811522059107
1733312835728244,-0.23819129,0.22201945,-9.893283,0.008576125,-0.0064130956,-0.068815514,-0.0012532108,0.03955417,-0.11494057,-0.3880183277850133,-0.3485168738155182,91.52674933892527,0.011060890933090652,0.4771667714893622,0.45045893284669025
1733312835736244,-0.2384099,0.22174264,-9.893292,0.0085622,-0.00611658,-0.06949108,-0.0017406418,0.037064426,-0.084445804,-0.3879577883770664,-0.3447424582153355,91.53017183940665,0.007567425993354694,0.4718019500228416,0.42781256017084074
1733312835744244,-0.23862186,0.22147462,-9.893323,0.008559937,-0.005816956,-0.07011878,-0.00028288923,0.037453018,-0.07846206,-0.3881272828974223,-0.3408248744088486,91.53358750885793,-0.021186815044484247,0.4896979758108586,0.42695868141202775
