timestamp,x,y,z,vx,vy,vz,ax,ay,az,roll,pitch,yaw,roll_rate,pitch_rate,yaw_rate
1733312869429918,0.10434629,0.12919632,-9.34575,0.024202075,-0.061139643,-0.20053641,0.0,0.0,0.0,-0.5725669729433623,-0.32582312384772877,89.64087760985537,0.0,0.0,0.0
1733312869445918,0.1048353,0.12708135,-9.34886,0.025064122,-0.060849804,-0.19817355,0.05387794,0.018114923,0.14767888,-0.5738711308479469,-0.356836975582374,89.63892293488934,-0.08150986903653397,-1.9383657334153244,-0.12216718537710175
1733312869453918,0.10508204,0.12604374,-9.350405,0.02548195,-0.060657505,-0.19708599,0.052228566,0.024037434,0.13594516,-0.5740297119724983,-0.37177423427247036,89.63827342049849,-0.019822640568919248,-1.86715733626205,-0.08118929885630609
1733312869461918,0.105330385,0.1250194,-9.351941,0.025906652,-0.060443304,-0.19599614,0.05308771,0.026775056,0.136232,-0.574020585069564,-0.38641351776594546,89.63790398557434,0.0011408628667769673,-1.8299104366843837,-0.04617936551804863
1733312869469918,0.10558035,0.12400837,-9.353473,0.026311146,-0.060192928,-0.19492237,0.050561734,0.031297095,0.13422035,-0.5739657632760283,-0.40074503355182667,89.63782139703723,0.00685272419196358,-1.7914394732351577,-0.010323567140192492
1733312869485918,0.10645545,0.12154218,-9.35585,0.027320918,-0.059820455,-0.19231197,0.063110724,0.02327957,0.16315001,-0.5729042593515824,-0.4278752544842412,89.63765278239161,0.06634399527786904,-1.6956388082759062,-0.010538415350279039
1733312869493918,0.10707431,0.12009168,-9.35671,0.02790778,-0.05969868,-0.19104448,0.073357716,0.015222001,0.15843658,-0.5720228094344761,-0.4402491376052226,89.63753262659151,0.11018123963828018,-1.5467353901226752,-0.015019475013867592
1733312869501918,0.10768763,0.11866512,-9.357578,0.028503329,-0.05953732,-0.18978363,0.07444364,0.020169651,0.15760584,-0.5707081131801084,-0.45195478247861837,89.63854642397348,0.1643370317959734,-1.4632056091744707,0.12672467274713753
1733312869509918,0.10829575,0.11726228,-9.358454,0.029086228,-0.05934236,-0.18853308,0.07286248,0.024370382,0.15631877,-0.5691150532183953,-0.4631158809030415,89.63959433277847,0.19913249521413728,-1.3951373030528949,0.13098860062439907
1733312869525918,0.10949698,0.11452664,-9.360233,0.030201798,-0.058868635,-0.18601453,0.069723114,0.029607674,0.15740934,-0.5645711799770351,-0.4842500089685917,89.64241427898126,0.28399207758501477,-1.3208830040968873,0.17624663767378956
1733312869533918,0.11009051,0.1131932,-9.361136,0.030756177,-0.058601517,-0.18489663,0.06929738,0.033389777,0.1397375,-0.561700010140598,-0.4945759775283562,89.64418629671515,0.35889622955462813,-1.2907460699705624,0.2215022167364528
1733312869541918,0.110679716,0.11188218,-9.362046,0.03131663,-0.058319446,-0.18380207,0.07005664,0.03525894,0.1368206,-0.5585137385895808,-0.5047048928739971,89.64626562081445,0.3982839438771581,-1.2661144182051165,0.2599155124124895
1733312869549918,0.11126478,0.11059339,-9.362962,0.03185662,-0.05798661,-0.18272896,0.067498535,0.041604504,0.13413839,-0.5549433020677997,-0.5144890456133882,89.64819131116506,0.44630456522263523,-1.2230190924238773,0.24071129382727227
1733312869565918,0.1124117,0.10808494,-9.364811,0.03289941,-0.057245553,-0.18069428,0.065174416,0.046316065,0.12716743,-0.5458269263695165,-0.5332550278005239,89.65280775106335,0.569773481142699,-1.1728738866959818,0.2885274936422994
1733312869573918,0.1129738,0.106864914,-9.365745,0.033378232,-0.056817397,-0.17990977,0.05985284,0.05351938,0.098064534,-0.5406145187082771,-0.54258163526983,89.65484614057253,0.6515509576549153,-1.1658259336632704,0.25479868864891575
1733312869581918,0.113532364,0.105666354,-9.366685,0.033862628,-0.056358393,-0.1791103,0.060549468,0.05737552,0.09993277,-0.5349728274912889,-0.5518411260495648,89.65725002338937,0.7052114021235325,-1.1574363474668397,0.30048535210355115
1733312869589918,0.11408761,0.10448896,-9.36764,0.0343421,-0.055896472,-0.17832883,0.059933864,0.057740133,0.097684555,-0.5290308027206069,-0.5609017991735886,89.65975632850545,0.7427530963352497,-1.1325841405029826,0.31328813951149914
1733312869605918,0.11518849,0.10219667,-9.369566,0.0352372,-0.054891445,-0.1767385,0.055943847,0.06281421,0.099395394,-0.5159268171612124,-0.578629524630441,89.66494319800135,0.8189990974621567,-1.1079828410532728,0.32417934349383387
1733312869613918,0.11522983,0.10140412,-9.370953,0.03543646,-0.0542243,-0.17611457,0.02490729,0.08339295,0.077990815,-0.508273012030971,-0.5870669523684092,89.66765441974351,0.9567256412801817,-1.0546784672460332,0.33890271776843467
1733312869621918,0.11527908,0.100624785,-9.3723345,0.035628024,-0.05353856,-0.17543828,0.023945699,0.08571753,0.08453614,-0.4997940757518039,-0.5955274993352215,89.67166353316415,1.0598670348958827,-1.0575683708515415,0.501139177580082
1733312869629918,0.11533602,0.09985858,-9.373712,0.035805874,-0.05285335,-0.17482577,0.022231134,0.085651405,0.07656403,-0.49101903267920294,-0.604066931011276,89.67573411320105,1.096880384075119,-1.0674289595067894,0.5088225046130072
1733312869645918,0.11549699,0.09837024,-9.376453,0.03617203,-0.051421735,-0.17343327,0.02288469,0.08947588,0.087031156,-0.4733666296100185,-0.6205340167140524,89.68349619993053,1.1032751918240262,-1.0291928564235342,0.4851304205926203
1733312869653918,0.11558783,0.097645715,-9.377819,0.03634784,-0.050689947,-0.1728937,0.021976417,0.091473565,0.06744638,-0.4648253158791504,-0.6279406758806051,89.68712630567474,1.0676642163585197,-0.9258323958190791,0.45376321802614966
1733312869661918,0.115685165,0.096934274,-9.379181,0.03649941,-0.049949113,-0.17231111,0.01894636,0.09260419,0.07282384,-0.4564767214985365,-0.6347748017813747,89.69080419754799,1.0435742975767288,-0.8542657375962031,0.45973648415671386
1733312869669918,0.11578864,0.09623599,-9.380537,0.03662578,-0.04917848,-0.17158382,0.015796162,0.09632902,0.09091198,-0.448021647428147,-0.6412488884771468,89.69464608696283,1.0568842587986917,-0.809260836971516,0.48023617685465403
1733312869685918,0.116012976,0.09487893,-9.383232,0.03688345,-0.047619715,-0.17017597,0.01610443,0.09742285,0.08799042,-0.4306645521536989,-0.6532594219354289,89.7027295167336,1.0848184546530066,-0.750658341142625,0.5052143606725796
1733312869693918,0.11613338,0.0942201,-9.384572,0.03697669,-0.046829373,-0.16959697,0.011655035,0.09879283,0.07237494,-0.42251948090982006,-0.6588985930436089,89.70685833573131,1.0181339054848573,-0.7048963885225026,0.516102374714416
1733312869701918,0.11624979,0.09357373,-9.385907,0.037068322,-0.046029124,-0.16897921,0.01145387,0.100031026,0.07721968,-0.4150786266230882,-0.6638769053267253,89.71111020089371,0.930106785841479,-0.6222890353895495,0.5314831453000952
1733312869709918,0.1163712,0.092940405,-9.387244,0.037150092,-0.045224488,-0.16829696,0.010221264,0.100579575,0.0852812,-0.4078715422134221,-0.6682585009423351,89.7142999373833,0.9008855512082635,-0.5476994519512333,0.3987170611983922
1733312869725918,0.11662823,0.09171301,-9.3899,0.037293147,-0.043567814,-0.16679567,0.00894093,0.10354211,0.09383074,-0.3941403148267568,-0.6754179918808961,89.72060768701994,0.8582017116665789,-0.44746818366006313,0.3942343522899791
1733312869733918,0.11708387,0.09103154,-9.390786,0.037488516,-0.042808708,-0.16605708,0.024421139,0.09488826,0.09232386,-0.3878388088543588,-0.6784107840971276,89.72377696270516,0.787688246549757,-0.3740990270289399,0.3961594606530455
1733312869741918,0.117536545,0.09036439,-9.391678,0.037661277,-0.04205063,-0.16526712,0.02159504,0.09475974,0.0987444,-0.3819420801863828,-0.6811079915061028,89.72583973545193,0.7370910834969983,-0.3371509261218909,0.25784659334526516
1733312869749918,0.11798632,0.08971151,-9.392574,0.037844755,-0.04126427,-0.16438037,0.022934748,0.09829504,0.11084414,-0.37647791361200295,-0.6833358583211041,89.72804593621194,0.6830208217974811,-0.2784833518751673,0.27577509500201725
1733312869765918,0.11887753,0.0884485,-9.394387,0.038176227,-0.03968518,-0.16267431,0.020717036,0.09869318,0.10662898,-0.36623226586851104,-0.6860728251762421,89.73243793201678,0.6403529839682434,-0.1710604284461238,0.27449973780223796
1733312869773918,0.119315155,0.08784079,-9.395305,0.03829936,-0.038896892,-0.16193691,0.015391502,0.09853578,0.09217485,-0.3613116058669995,-0.686997795240156,89.73468523280808,0.6150825001889438,-0.1156212579892456,0.28091259891183123
1733312869781918,0.119749986,0.08724689,-9.396226,0.038417537,-0.038097396,-0.16119424,0.014772172,0.09993696,0.09283423,-0.35657876233086205,-0.687797678629658,89.73777268302038,0.5916054420171822,-0.09998542368774914,0.3859312765380145
1733312869789918,0.12018203,0.086666524,-9.397151,0.03851603,-0.03731865,-0.16043562,0.012311618,0.09734323,0.09482726,-0.3520164467154979,-0.6883606228607898,89.74072350669965,0.5702894519205166,-0.0703680288914725,0.3688529599092572
1733312869805918,0.12103818,0.08554577,-9.399013,0.038722787,-0.035733413,-0.15900539,0.012922333,0.09907735,0.089389265,-0.34383367136928805,-0.6889537182198913,89.74676530660481,0.5114234591381174,-0.03706845994383664,0.3776124940731651
1733312869813918,0.121462524,0.08500509,-9.399949,0.038812876,-0.0349458,-0.15847337,0.011261086,0.0984515,0.06650202,-0.3398242559908372,-0.6888302856453736,89.74990060443923,0.501176922306354,0.01542907181470468,0.39191222930113984
1733312869821918,0.121884435,0.08447736,-9.400889,0.038894523,-0.034143202,-0.15787575,0.0102058975,0.100324854,0.07470325,-0.3356117513786627,-0.68834536055542,89.75256803474714,0.5265630765218059,0.06061563624419728,0.33342878848942553
1733312869829918,0.12230395,0.08396247,-9.401844,0.03896895,-0.033344325,-0.15724398,0.009303447,0.09985966,0.07897056,-0.33110021076544827,-0.6876331552689333,89.75549845793468,0.5639425766518091,0.08902566081083049,0.3663028984425886
1733312869845918,0.123129785,0.08296534,-9.403762,0.03907214,-0.031754263,-0.15586227,0.0064494084,0.09937887,0.08635688,-0.3222045336931699,-0.6858959746345736,89.76105192397269,0.5559798170173981,0.10857378964748034,0.34709162737493454
1733312869853918,0.12353631,0.08248288,-9.404725,0.03913033,-0.030955002,-0.15538764,0.007273629,0.09990762,0.05932897,-0.3182447461579696,-0.6847493813294567,89.76431365780176,0.49497344190003983,0.14332416313961072,0.4077167286354238
1733312869861918,0.12437732,0.08192336,-9.405519,0.03934546,-0.030206528,-0.154813,0.026891006,0.093559265,0.071829185,-0.3142893707686611,-0.68341809324461,89.76741145519158,0.4944219236635592,0.1664110106058492,0.38722467372626657
1733312869869918,0.12520638,0.081377834,-9.406319,0.03955668,-0.029447103,-0.15414488,0.026402527,0.09492808,0.08351541,-0.310328856142782,-0.6818198222708013,89.77002429078804,0.49506432823489027,0.1997838717260831,0.3266044495585411
1733312869885918,0.12682982,0.080328174,-9.407949,0.039921388,-0.027935477,-0.1529042,0.022794351,0.09447662,0.07754285,-0.30138466260057717,-0.6779777838037192,89.77507919104653,0.5590120963878,0.24012740419263046,0.31593126615502176
1733312869893918,0.12762474,0.07982369,-9.408781,0.040080033,-0.027163142,-0.15240757,0.01983065,0.09654182,0.062078234,-0.296980267626255,-0.675997210857306,89.77754178737528,0.550549371790269,0.2475716183016507,0.30782454109551893
1733312869901918,0.12840872,0.0793326,-9.409617,0.040230107,-0.02640541,-0.1518971,0.018759165,0.09471643,0.063808635,-0.2929092845819605,-0.6738932598914394,89.77996676018444,0.5088728805368105,0.2629938707333173,0.3031216011426653
1733312869909918,0.1291821,0.07885462,-9.41046,0.040376578,-0.025648877,-0.15134732,0.01830887,0.094566725,0.06872229,-0.28900131420643604,-0.6714708303835432,89.78241914469918,0.4884962969405611,0.3028036884870398,0.3065480643436723
1733312869925918,0.1307203,0.07791886,-9.41216,0.04064726,-0.024180707,-0.15022257,0.016917707,0.09176065,0.07029716,-0.28063458348758674,-0.6662737161449079,89.78790781812927,0.522920669928083,0.324819639914704,0.3430420893802883
1733312869933918,0.13147435,0.07747001,-9.413017,0.040780738,-0.023443004,-0.14979951,0.016684644,0.0922128,0.052882355,-0.27642531670824816,-0.6637143572601836,89.79152821289765,0.5261583474173243,0.31991986059054245,0.4525493460483825
1733312869941918,0.13221869,0.077033706,-9.41388,0.040904745,-0.022703193,-0.14935447,0.015500932,0.09247637,0.055629756,-0.27198464233867864,-0.6611612433353311,89.79498120474162,0.5550842961961872,0.319139240606559,0.43162398049573986
1733312869949918,0.13295354,0.076609805,-9.414761,0.041007716,-0.021947617,-0.14885864,0.012871343,0.09444705,0.061979514,-0.2671836228459791,-0.6588442681034964,89.79830783990214,0.6001274365874434,0.28962190397933546,0.41582939506489797
1733312869965918,0.13439538,0.07579877,-9.4165325,0.04118176,-0.020452326,-0.14781913,0.010877847,0.09345566,0.06496906,-0.2571709850014521,-0.6541303811004494,89.80484498107975,0.6257898652829378,0.2946179376904399,0.4085713236010816
1733312869973918,0.13510276,0.0754112,-9.417425,0.04124969,-0.019718079,-0.14743073,0.008490868,0.0917809,0.048549842,-0.25220038898542785,-0.6518032699083134,89.80818186451901,0.6213245020030317,0.2908888990170029,0.41711042990782526
1733312869981918,0.13580897,0.07503002,-9.418322,0.041325003,-0.019010471,-0.1470647,0.009414274,0.08845096,0.04575401,-0.24682029574470396,-0.6492947212381786,89.81143333962606,0.6725116550904858,0.3135685837668531,0.40643438838153584
1733312869989918,0.13628124,0.07469626,-9.419279,0.041359615,-0.018288556,-0.14667287,0.004326459,0.09023933,0.04897825,-0.24102196913787025,-0.646924867508155,89.81401544757568,0.7247908258542142,0.29623171625293193,0.3227634937011827
1733312870005918,0.1372183,0.07405979,-9.421214,0.04135738,-0.016852107,-0.14585984,-0.00013969839,0.089778095,0.05081482,-0.22863266676644672,-0.642343228141486,89.81847602814626,0.7743313982139695,0.2863524604168175,0.27878628566114755
1733312870013918,0.13768288,0.07375687,-9.422193,0.04134026,-0.016132263,-0.14553319,-0.0021397136,0.08998042,0.04083104,-0.2224071263950191,-0.6401756278993219,89.82087023340814,0.7781925464284511,0.2709500302705114,0.2992756577350595
1733312870021918,0.1381448,0.07346399,-9.423173,0.041311484,-0.015414576,-0.14517502,-0.0035972332,0.08971092,0.044770535,-0.21607630487939156,-0.6380166735675834,89.82290584209493,0.7913526894534442,0.26986929146731553,0.25445108584845216
1733312870029918,0.13860396,0.07318106,-9.424156,0.041255996,-0.014712937,-0.14472724,-0.0069360244,0.08770485,0.055972483,-0.20962408597058635,-0.6357929894414965,89.82482193481917,0.8065273636006519,0.27796051576084996,0.23951159053043067
1733312870045918,0.13951367,0.07264447,-9.426126,0.041128673,-0.013315087,-0.14387713,-0.007957686,0.08736562,0.05313195,-0.19669438358421842,-0.6311094345906935,89.82860966411027,0.8081063991479945,0.2927221781751942,0.23673308069451385
1733312870053918,0.13995908,0.07239237,-9.427113,0.04103511,-0.012620772,-0.1435552,-0.011695548,0.08678936,0.040242445,-0.19002883517187444,-0.628710612562278,89.83073408342304,0.8331935515429991,0.2998527535519307,0.265552414094203
1733312870061918,0.14040151,0.07214977,-9.4281025,0.040944498,-0.0119126765,-0.14318623,-0.011326279,0.08851196,0.046120953,-0.18342021692279153,-0.6262918334846141,89.83338784948428,0.8260772811353634,0.3023473847079874,0.3317207576556039
1733312870069918,0.14084102,0.07191652,-9.429108,0.04085859,-0.011229276,-0.14281294,-0.010738614,0.085425094,0.04666112,-0.1770585723052144,-0.6236268339574966,89.83590160637372,0.7952055771971422,0.3331249408896823,0.3142196111809183
1733312870085918,0.141711,0.07147742,-9.431121,0.04063582,-0.009890182,-0.14195058,-0.013923039,0.083693355,0.053897496,-0.16478298373740902,-0.618376351246289,89.84069002357538,0.7672242854878367,0.3281551694504797,0.2992760751033476
1733312870093918,0.14214124,0.07127121,-9.432128,0.0404943,-0.009227186,-0.14159122,-0.017690007,0.08287443,0.044919547,-0.15877356831286135,-0.6156529222022435,89.84295444813809,0.7511769280684574,0.34042863050568095,0.28305307033886357
1733312870101918,0.14256811,0.071073815,-9.433137,0.04032598,-0.008565612,-0.14120746,-0.021039972,0.08269678,0.04797056,-0.15287810781477337,-0.6126687585092558,89.84508569313829,0.7369325622609966,0.373020461623458,0.2664056250239981
1733312870109918,0.14332163,0.07109801,-9.434366,0.0403705,-0.0077702957,-0.14082378,0.0055651176,0.09941455,0.047959384,-0.14715054488432205,-0.6098147509687734,89.84721691730404,0.7159453663064169,0.3567509425603142,0.26640302071903327
1733312870125918,0.14481345,0.0711737,-9.436825,0.04040528,-0.006168421,-0.14003304,0.002173707,0.10011717,0.04942156,-0.13704673624590633,-0.6049124274199698,89.85190283547591,0.6314880399009822,0.30639522180022766,0.2928698857423269
1733312870133918,0.14554492,0.07121862,-9.438054,0.040409088,-0.005376196,-0.13975893,0.0004759058,0.0990281,0.034263358,-0.1323940031946902,-0.602481278734669,89.85328610878355,0.5815916314020182,0.30389358566260394,0.17290916345393736
1733312870141918,0.146267,0.071268275,-9.439279,0.040399175,-0.004591081,-0.13944773,-0.0012391246,0.09813939,0.03889948,-0.12797369984960905,-0.5997914769017432,89.854594236,0.5525379181351413,0.3362252291157194,0.16351590205701919
1733312870149918,0.14697982,0.071322694,-9.440497,0.040383615,-0.0038140118,-0.1390063,-0.0019450671,0.09713362,0.055178996,-0.12321458776468114,-0.5968211965244428,89.85586479400536,0.594889010615989,0.3712850471625411,0.15881975066894574
1733312870165918,0.14837827,0.07144599,-9.442919,0.040291883,-0.0022633704,-0.13797489,-0.0057332213,0.09691508,0.064463355,-0.11310477678641981,-0.5904291837698646,89.85810538831171,0.6318631861413331,0.39950079716113723,0.14003714414774837
1733312870173918,0.149064,0.07151487,-9.44412,0.04022494,-0.001504351,-0.13761055,-0.008367933,0.09487742,0.04554167,-0.1081941551944557,-0.5871978000497335,89.8591676450304,0.6138276989955136,0.4039229650163784,0.13278208983443615
1733312870181918,0.14974102,0.07158866,-9.445318,0.040162608,-0.0007342419,-0.1371528,-0.007791444,0.09626363,0.057218593,-0.10281017163042792,-0.5837330057084079,89.86006936626458,0.6729979455034723,0.4330992926657112,0.11271515427441127
1733312870189918,0.1504042,0.07165773,-9.446523,0.040071446,1.6738297e-05,-0.13659129,-0.011395196,0.093872525,0.07019006,-0.0974854222839199,-0.5799526212418858,89.8610189082976,0.665593668313502,0.47254805831525637,0.1186927541254164
1733312870205918,0.15170497,0.07181103,-9.448912,0.039827198,0.0014919516,-0.13543828,-0.01526554,0.09220083,0.07206295,-0.08751375742736747,-0.5715528787332036,89.8674056654822,0.6232290535345272,0.5249839067926385,0.39917232403824043
1733312870213918,0.15234269,0.0718952,-9.450097,0.03968599,0.0022183778,-0.13493277,-0.017650891,0.090803266,0.063188374,-0.0824378855910814,-0.5670792041433712,89.87075613126257,0.6344839795357595,0.5592093237290476,0.41880822254566896
1733312870221918,0.15297212,0.071984336,-9.451277,0.039540153,0.0029367174,-0.13435583,-0.018229708,0.089792445,0.072117895,-0.07742795198918885,-0.5626038787446808,89.87380950346368,0.6262417002365684,0.5594156748363122,0.38167152513775104
1733312870229918,0.1535935,0.07207842,-9.45245,0.039407447,0.0036426648,-0.13373695,-0.016588252,0.08824342,0.07735938,-0.0725744031060031,-0.5577778526246894,89.87694138384761,0.6066936103982183,0.6032532649989281,0.39148504799204636
1733312870245918,0.1543003,0.073018804,-9.454591,0.03898082,0.0055011534,-0.13225545,-0.02666423,0.116155535,0.092593946,-0.06281145872811264,-0.547589991403778,89.88460202249284,0.6101840236181535,0.6367413263069597,0.47878991532728077
1733312870253918,0.15465203,0.07348589,-9.455662,0.03876291,0.0064065387,-0.13160406,-0.027238855,0.11317315,0.08142366,-0.05818985128010934,-0.542333015913585,89.88942106382001,0.5777009310004132,0.6571219362741213,0.6023801658962279
1733312870261918,0.15501428,0.07394813,-9.456727,0.03855331,0.007299652,-0.13093147,-0.026199965,0.11163914,0.08407421,-0.053680928229214414,-0.5368660608112684,89.89422298750804,0.5636153813618658,0.6833693877895706,0.6002404610035474
1733312870269918,0.15537503,0.07440863,-9.457787,0.03831546,0.008167418,-0.13020174,-0.029731074,0.10847073,0.09121559,-0.049069259483709715,-0.5310483546349761,89.89906592303338,0.5764585931880867,0.7272132720365403,0.6053669406671481
1733312870285918,0.1560916,0.07532482,-9.459888,0.037846405,0.009853237,-0.12867156,-0.029315937,0.10536372,0.09563658,-0.04007927087036623,-0.5181501222992806,89.90853999597616,0.5618742883339678,0.8061395209809682,0.5921295589239669
1733312870293918,0.15644708,0.07578067,-9.460931,0.037584912,0.010684938,-0.1280096,-0.03268663,0.1039626,0.08274428,-0.03580642629420292,-0.5112253117429827,89.91317457698909,0.5341055720204136,0.8656013195372456,0.5793226266163628
1733312870301918,0.15680045,0.07623524,-9.461968,0.03731171,0.011500648,-0.12734395,-0.0341502,0.10196375,0.083206214,-0.031754353358427696,-0.5040755305881373,89.91781254750855,0.5065091169719033,0.8937226443556819,0.5797463149321663
1733312870309918,0.15715161,0.07668861,-9.4630165,0.03704089,0.01230425,-0.12664089,-0.033852644,0.10045023,0.087883316,-0.0280348982788251,-0.49651379601747553,89.92238562404945,0.46493188495032417,0.9452168213327102,0.5716345676130229
1733312870325918,0.15784699,0.07759181,-9.465094,0.03646938,0.013834886,-0.12520821,-0.035719246,0.095664755,0.089542,-0.0209814784676578,-0.48031472009809,89.93092727524605,0.4408387381979564,1.012442244961595,0.5338531997870881
1733312870333918,0.15818754,0.078034945,-9.466123,0.03616722,0.014565313,-0.12455898,-0.037770253,0.09130337,0.08115451,-0.01720393516416942,-0.47172972978732947,89.93515539280624,0.4721929129360475,1.0731237888450695,0.5285146950230347
1733312870341918,0.15852538,0.07847709,-9.467147,0.035841983,0.015286415,-0.12389491,-0.040654555,0.090137705,0.08300877,-0.013753755244822133,-0.4628696658891125,89.9403944039224,0.4312724899184109,1.1075079872771203,0.6548763895211357
1733312870349918,0.1588604,0.07891836,-9.468165,0.035514567,0.015984463,-0.123200774,-0.040926967,0.087255955,0.08676666,-0.01063571159920845,-0.45374498828719473,89.94533286083058,0.38975545570171055,1.1405847002397194,0.6173071135221005
1733312870365918,0.15870398,0.079799354,-9.468675,0.034422882,0.017231729,-0.121396266,-0.068230316,0.07795414,0.11278176,-0.00452501052453132,-0.43480691898458207,89.95505605987076,0.38191881716732057,1.1836293314132917,0.6076999400111789
1733312870373918,0.15863365,0.08023742,-9.46896,0.03386887,0.017824132,-0.12056399,-0.069251284,0.07405039,0.10403431,-0.0014228262816188217,-0.4250373656778611,89.95995008468162,0.3877730303640623,1.2211941633401184,0.6117531013589196
1733312870381918,0.15856811,0.08067384,-9.469257,0.033314027,0.018395487,-0.119717106,-0.06935559,0.0714194,0.105860636,0.0014520802706589307,-0.4150487459962324,89.96475188671526,0.3593633190347191,1.2485774602035817,0.6002252542038864
1733312870389918,0.15850705,0.08110863,-9.469566,0.032753974,0.018943481,-0.11889447,-0.07000659,0.06849924,0.10282918,0.004020320395275761,-0.40503540555579837,89.96930094553478,0.3210300155771038,1.2516675550542598,0.5686323524402418
1733312870405918,0.15843302,0.08197765,-9.470218,0.0317218,0.020011406,-0.11741446,-0.06451085,0.066745326,0.09250081,0.00744027131018052,-0.3847107877580366,89.97658900045977,0.21374693218154747,1.270288612360113,0.4555034328116889
1733312870413918,0.15840158,0.082409546,-9.47056,0.031194434,0.020515088,-0.11681439,-0.065920874,0.0629602,0.07500872,0.008528446832089002,-0.37431570548129595,89.97907185224446,0.13602194023856018,1.2993852845925808,0.31035647308721853
1733312870421918,0.15837346,0.08283971,-9.470915,0.0306603,0.021009278,-0.11620914,-0.06676675,0.06177369,0.07565599,0.009498557057267945,-0.3641190885429571,89.98155811834084,0.12126377814736783,1.2745771172923535,0.31078326204785733
1733312870429918,0.15834828,0.0832681,-9.471302,0.030113868,0.0214713,-0.115524665,-0.06830389,0.057752706,0.085559666,0.010322800410959393,-0.35391031663034617,89.98401705481157,0.10303041921143102,1.2760964890763686,0.3073670588407598
1733312870445918,0.1583059,0.08411951,-9.472105,0.02904632,0.022399943,-0.11424813,-0.06672181,0.058040254,0.0797836,0.00966282791265823,-0.3342051056245653,89.9876815432956,-0.04124828114382258,1.2315756878613042,0.22903053025153491
1733312870453918,0.15828829,0.084542714,-9.472521,0.028521044,0.022842512,-0.113803595,-0.065659404,0.055321023,0.055566426,0.00845182753956705,-0.32462878199752965,89.98937546988456,-0.15137504663639773,1.197040453379456,0.21174082362025456
1733312870461918,0.15827289,0.08496402,-9.472946,0.028003974,0.023239648,-0.113363855,-0.06463379,0.049642053,0.054967586,0.00687064730079213,-0.3150756530802879,89.99087814433946,-0.19764752984686504,1.1941411146552174,0.1878343068624587
1733312870469918,0.15826178,0.08538062,-9.473381,0.027465051,0.023635505,-0.11290333,-0.067365356,0.049482096,0.057565976,0.004730773512582597,-0.30538240533127253,89.99213492611574,-0.26748422352619156,1.211655968626921,0.15709772203426958
1733312870485918,0.15790746,0.08623376,-9.474148,0.02628864,0.024356639,-0.112073675,-0.073525704,0.045070887,0.051853243,-0.0011037162902450433,-0.285748391699813,89.995392980298,-0.3646556126767275,1.2271258519662207,0.20362838639188752
1733312870493918,0.1575714,0.08666944,-9.474484,0.025626114,0.024703354,-0.11181928,-0.08281576,0.043339327,0.031799078,-0.004405042957702063,-0.27641792083952677,89.99681709523489,-0.4126658334321275,1.1663088575357767,0.17801436711028104
1733312870501918,0.15724379,0.087102324,-9.4748335,0.02498412,0.025020525,-0.1115058,-0.080249265,0.0396464,0.039185397,-0.007751442076191688,-0.2672400710080658,89.99829926454889,-0.4182998898112032,1.1472312289326214,0.18527116424987816
1733312870509918,0.15692444,0.087532334,-9.475194,0.02438615,0.025328094,-0.11114639,-0.07474609,0.03844616,0.044926066,-0.011501248498584402,-0.2581321848216279,89.9996789778753,-0.4687258027990892,1.138485773304737,0.17246416580184443
1733312870525918,0.15630955,0.08838383,-9.475951,0.02317479,0.02590051,-0.1104586,-0.075710006,0.03577594,0.042987052,-0.019818002442497946,-0.2402937763715702,90.00183050662652,-0.5197971214945964,1.1149005281286064,0.13447054695111632
1733312870533918,0.15601338,0.08880538,-9.476347,0.022591375,0.026153296,-0.11035812,-0.072926976,0.031598378,0.012559815,-0.024556258003115457,-0.23149641815052155,90.00259549323191,-0.5922819450771888,1.0996697776310813,0.0956233256745271
1733312870541918,0.15574247,0.08920977,-9.476756,0.022050954,0.02637468,-0.11021059,-0.06755255,0.027673084,0.018441118,-0.029371557480413334,-0.22299335271671844,90.0030394570047,-0.6019124346622349,1.0628831792253894,0.05549547159779593
1733312870549918,0.15547848,0.08961144,-9.4772005,0.02151461,0.026598794,-0.109919876,-0.06704312,0.028014181,0.036339276,-0.03485450230830217,-0.2147959586447176,90.00497241208323,-0.685368103486104,1.0246742590001066,0.2416193848178045
1733312870565918,0.15497044,0.09040643,-9.478119,0.020469936,0.02696934,-0.10932829,-0.06529211,0.023159081,0.036973972,-0.04709551129876285,-0.1990532303872328,90.00828506928218,-0.7650630619037926,0.9839205160927993,0.2070410749333954
1733312870573918,0.15472595,0.090799645,-9.478593,0.019991638,0.027128922,-0.10926016,-0.05978718,0.019947764,0.008516945,-0.05363403416699356,-0.19134615760926169,90.00984918728248,-0.8173153585288391,0.963384097246389,0.19551475003874588
1733312870581918,0.15448773,0.09118996,-9.479077,0.019511644,0.027283667,-0.109147936,-0.05999929,0.019343104,0.01402758,-0.06031224056562511,-0.1837102453564709,90.01107862282437,-0.8347757998289441,0.9544890315988495,0.1536794427360065
1733312870589918,0.15425545,0.09157738,-9.479572,0.01903505,0.027404439,-0.10900979,-0.059574142,0.015096505,0.017268583,-0.06678762258957233,-0.17642067662092575,90.01217828445144,-0.8094227529934014,0.9111960919431421,0.1374577033838275
1733312870605918,0.15380818,0.09234334,-9.480614,0.018137509,0.027648581,-0.10855184,-0.05609635,0.015258905,0.02862187,-0.08064143731598376,-0.1632265874693615,90.01379020756129,-0.8658634204007146,0.8246305719727656,0.10074519436475957
1733312870613918,0.15316828,0.09244718,-9.481411,0.017609127,0.027620992,-0.10863086,-0.066047765,-0.0034486873,-0.009877606,-0.08812085245863759,-0.1569574098312428,90.01451420531288,-0.9349268928317284,0.78364720476484,0.09049971895031048
1733312870621918,0.15254444,0.092553735,-9.48221,0.017109869,0.027578635,-0.10867551,-0.062407225,-0.0052945684,-0.0055814157,-0.09572925626968087,-0.15071330041961292,90.01312083774383,-0.9510504763804098,0.7805136764537315,-0.17417094613221115
1733312870629918,0.15193628,0.092662856,-9.483013,0.01662365,0.027544476,-0.108615264,-0.06077741,-0.004269881,0.007530674,-0.10300646254055439,-0.14462399312481927,90.01167283000507,-0.9096507838591901,0.7611634118492064,-0.18100096734508256
1733312870645918,0.15076517,0.09288822,-9.484626,0.015687207,0.027451575,-0.10844765,-0.058527686,-0.00580633,0.010475981,-0.11675460826013463,-0.13319582573810881,90.00848311764067,-0.8592591074737651,0.7142604616694038,-0.19935702277455494
1733312870653918,0.15020153,0.093004204,-9.4854355,0.015255366,0.027391223,-0.10851815,-0.053980038,-0.007543945,-0.0088131055,-0.12381934163962953,-0.1278043779177345,90.00657065801006,-0.8830916724368624,0.6739309775467907,-0.23905745382639795
1733312870661918,0.14965218,0.09312224,-9.486249,0.014865106,0.027349038,-0.10855111,-0.048782557,-0.005273148,-0.0041192397,-0.13119349823585919,-0.1226250811249264,90.00473333152281,-0.9217695745287086,0.6474120991010116,-0.2296658109056183
1733312870669918,0.14911698,0.093242235,-9.487088,0.014502406,0.027290167,-0.1084378,-0.04533748,-0.007358845,0.014163553,-0.13852437892529476,-0.11786705681571254,90.00288234601216,-0.9163600861794465,0.5947530386517331,-0.23137318883199443
1733312870685918,0.14812076,0.09347807,-9.4887705,0.013827226,0.027172841,-0.10815468,-0.042198747,-0.0073328842,0.017695129,-0.15361496806920674,-0.10908274262581573,89.99901303601786,-0.9431618214944983,0.54901963686855,-0.2418318746434142
1733312870693918,0.14764218,0.09359859,-9.489614,0.013497009,0.027107475,-0.10809489,-0.041277144,-0.008170726,0.007472932,-0.16168312356098932,-0.10532276359634035,89.99719961743506,-1.0085194364728227,0.469997378684422,-0.22667732285099532
1733312870701918,0.14717622,0.09372066,-9.490457,0.013199913,0.027031614,-0.107979655,-0.037136953,-0.009482726,0.014404765,-0.16980942309114003,-0.10200959615707451,89.99520861516868,-1.0157874412688381,0.4141459299082297,-0.24887528329644723
1733312870709918,0.14672267,0.09384419,-9.491301,0.012916143,0.026956102,-0.10777745,-0.035471283,-0.009438954,0.025276093,-0.17816830373974663,-0.09903504419524832,89.99309808400382,-1.0448600810758233,0.3718189952282741,-0.2638163956084688
1733312870725918,0.14585158,0.094095364,-9.493013,0.0123733785,0.026818462,-0.10718509,-0.033922784,-0.00860251,0.0370224,-0.19523844992521075,-0.09336508539554203,89.9890204566461,-1.0668841365915083,0.35437242498164345,-0.2548517098567331
1733312870733918,0.14622621,0.09443613,-9.494381,0.012468516,0.026922723,-0.10721144,0.011892173,0.013032694,-0.0032940877,-0.20368439538095812,-0.09095228459934486,89.98674941666069,-1.0557431819684227,0.30160009952464567,-0.28387999817777776
1733312870741918,0.14659458,0.09477476,-9.495736,0.012548769,0.027022224,-0.10716694,0.010031624,0.012437579,0.0055627893,-0.2127225864063774,-0.08902223350997884,89.98427347295825,-1.1297738781774103,0.24125638617075257,-0.3094929628041498
1733312870749918,0.14695458,0.09511321,-9.497078,0.012650925,0.027133737,-0.10690371,0.012769479,0.013939104,0.032903627,-0.22162892270902815,-0.08754766462075866,89.98164726044968,-1.1132920378313433,0.18432111115252278,-0.32827656357151136
1733312870765918,0.14765802,0.09578427,-9.499723,0.012873099,0.027339663,-0.106422864,0.013885902,0.012870411,0.030052846,-0.2388614051309474,-0.08556483309560227,89.97555814331449,-1.0770301513699518,0.12392697032227465,-0.3805698209494248
1733312870773918,0.148002,0.096116886,-9.501027,0.012990266,0.027419835,-0.106272124,0.014645861,0.010021496,0.018842518,-0.24715804213972814,-0.08460582411989002,89.97266555405946,-1.0370796260975936,0.11987612196403005,-0.36157365687848414
1733312870781918,0.14834116,0.09644757,-9.502319,0.0131042395,0.027504878,-0.106073044,0.014246673,0.010630348,0.024884937,-0.2551988832569817,-0.08347859490023532,89.96951683227162,-1.0051051396566968,0.14090365245683859,-0.3935902234790774
1733312870789918,0.14867568,0.0967765,-9.50362,0.013214077,0.027590541,-0.10572388,0.013729673,0.01070788,0.043645497,-0.2626476908675829,-0.08235618820495344,89.96653887116034,-0.9311009513251464,0.14030083691023415,-0.37224513891106825
1733312870805918,0.14933178,0.097429544,-9.50618,0.0134599805,0.027774109,-0.10469137,0.015368976,0.011472962,0.0645318,-0.27479532788618055,-0.08039242679663934,89.96015946787347,-0.7592273136623557,0.12273508801963139,-0.39871270542955106
1733312870813918,0.1496538,0.09775384,-9.50744,0.01358096,0.027854372,-0.10439315,0.015122466,0.010032904,0.03727805,-0.2798043462773134,-0.0793064990352079,89.9569390342857,-0.6261272988915978,0.13574097017893064,-0.40255419847066815
1733312870821918,0.14997573,0.09808158,-9.508687,0.013697502,0.027925458,-0.10401659,0.014567747,0.008885749,0.04706997,-0.284116436132988,-0.07823603262380094,89.95379031285754,-0.5390112319593316,0.1338083014258702,-0.3935901785203467
1733312870829918,0.15029396,0.09840782,-9.509921,0.013817284,0.027993336,-0.10342974,0.014972756,0.008484814,0.07335562,-0.28777212452626766,-0.07718080077702273,89.94997564163272,-0.4569610491599597,0.13190398084727487,-0.4768339031030617
1733312870845918,0.15092033,0.099056035,-9.51237,0.014070082,0.028133271,-0.10219949,0.015799887,0.008745934,0.07689092,-0.29266519997956125,-0.07475053862683648,89.94282784555766,-0.30581721583084676,0.15189138438664163,-0.4467372546908952
1733312870853918,0.15122871,0.09937817,-9.513585,0.014183182,0.028184643,-0.10167175,0.014137476,0.0064214687,0.06596744,-0.2942444833630282,-0.07322131535959014,89.93935128561752,-0.19741042293337394,0.1911529084057908,-0.4345699925177099
1733312870861918,0.15111396,0.099376805,-9.514503,0.014112293,0.028120618,-0.101057,-0.008861185,-0.008003088,0.076843426,-0.29546527533575595,-0.07150108015234266,89.93597374941317,-0.1525989965909657,0.21502940090593486,-0.4221920255440042
1733312870869918,0.1510055,0.099381536,-9.515414,0.014041804,0.028053604,-0.10032016,-0.008811126,-0.008376781,0.092105,-0.29613907199547507,-0.06983831469076884,89.93299578692435,-0.08422458246489009,0.20784568269672765,-0.3722453111015279
1733312870885918,0.15080671,0.09940853,-9.517215,0.013905244,0.027913164,-0.09868736,-0.008534989,-0.008777482,0.10205013,-0.2957164240924102,-0.06617590331231812,89.92687251474928,0.026415493941553583,0.22890071115317018,-0.3827045109422682
1733312870893918,0.15071596,0.09942741,-9.518104,0.013837916,0.027847987,-0.09804286,-0.008416013,-0.00814721,0.08056219,-0.2949501900702931,-0.06404508301849209,89.92362134103604,0.0957792527646408,0.26635253672825476,-0.4063967141547368
1733312870901918,0.15063073,0.09945169,-9.518987,0.013772172,0.027774265,-0.097317025,-0.00821799,-0.009215204,0.09072944,-0.2937109539557387,-0.06192601554795817,89.92102244554661,0.15490451431929786,0.2648834338167392,-0.32486193617818215
1733312870909918,0.15055066,0.09948111,-9.519888,0.013677959,0.027705818,-0.0965561,-0.011776573,-0.008555828,0.09511597,-0.2921831994847753,-0.05998737464455881,89.91841332879659,0.19096930887042793,0.24233011292492027,-0.3261395937538918
1733312870925918,0.1504048,0.099555045,-9.521666,0.013486309,0.027590215,-0.09498046,-0.011978147,-0.0072252,0.09847711,-0.2886549729328808,-0.055945861598064354,89.91323944875518,0.22051415949340633,0.25259456540590347,-0.3233675025882214
1733312870933918,0.1503386,0.0995991,-9.522544,0.01338342,0.02751241,-0.094352566,-0.012861098,-0.009725569,0.0784872,-0.28710555457512,-0.05408522116079142,89.91088304056234,0.1936772947200963,0.2325800546591171,-0.29455102410450806
1733312870941918,0.15027659,0.09964771,-9.523415,0.013287498,0.02747074,-0.09368807,-0.011990312,-0.0052088867,0.08306186,-0.2858832781573553,-0.052536261652539336,89.90867346553372,0.15278455222058596,0.19361993853150974,-0.27619687857744835
1733312870949918,0.1502186,0.099700764,-9.524277,0.013182765,0.027407298,-0.09291069,-0.0130916005,-0.007930212,0.09717233,-0.2843930098067971,-0.05110160117493501,89.9063204675712,0.1862835438197795,0.17933255970054152,-0.2941247453143818
1733312870965918,0.15010253,0.099839866,-9.526005,0.012935133,0.027343107,-0.09132346,-0.015477009,-0.004011905,0.09920215,-0.2813354381570495,-0.0482814390181072,89.90056261299536,0.19109822810922653,0.1762601348017379,-0.35986591099055637
1733312870973918,0.15004961,0.09991544,-9.526869,0.012795157,0.027302327,-0.09070482,-0.01749699,-0.0050975936,0.077329576,-0.2801365603990722,-0.046980180809846867,89.89715776208644,0.1498597197471598,0.16265727603254196,-0.42560636361499626
1733312870981918,0.14999983,0.09999483,-9.527726,0.012666523,0.027271032,-0.09007286,-0.016079167,-0.0039117876,0.07899477,-0.2791377835670257,-0.04591994033511384,89.89383145222523,0.12484710400580919,0.13253005934162823,-0.41578873265131605
1733312870989918,0.15001282,0.100383684,-9.528761,0.012519116,0.027316345,-0.089310504,-0.018425984,0.0056640706,0.09529478,-0.27784944746548074,-0.0449167426453512,89.89035146327173,0.16104201269312354,0.12539971122033025,-0.4349986191869409
1733312871005918,0.1500412,0.10114999,-9.530788,0.0122130625,0.027431132,-0.08770154,-0.019128317,0.00717421,0.10056048,-0.27509898100243013,-0.043157248042795374,89.88516392999713,0.17190415394066158,0.1099684126597388,-0.32422082966233184
1733312871013918,0.15005639,0.101527765,-9.531781,0.012060523,0.027487565,-0.08706148,-0.019067433,0.0070540695,0.08000712,-0.2741184432634627,-0.0425770019660593,89.8829304484048,0.12256721737092997,0.07253075959200991,-0.2791851990406938
1733312871021918,0.15007222,0.10190204,-9.532763,0.011909198,0.027532637,-0.08639808,-0.018915627,0.0056340354,0.082924955,-0.27337270102204275,-0.042098808552324625,89.88069015068237,0.09321778017749228,0.05977417671683352,-0.2800372153048519
1733312871029918,0.1500834,0.10226725,-9.533756,0.011750137,0.027580803,-0.08564297,-0.019882571,0.006020767,0.094388604,-0.27303026155432863,-0.04144755250991321,89.8785522987009,0.042804933464267454,0.08140700530142712,-0.2672314976836815
1733312871045918,0.15010726,0.10298833,-9.535703,0.011419925,0.027683012,-0.084132686,-0.020638281,0.0063880575,0.0943928,-0.27267916145137694,-0.03944941485476478,89.87548894340384,0.02194375643447818,0.12488360344677668,-0.1914597060658246
1733312871053918,0.15011992,0.103344455,-9.536656,0.011265545,0.02773404,-0.0835251,-0.01929747,0.006378395,0.075948425,-0.2724234961962982,-0.03839925968730989,89.87425950457099,0.03195815688484658,0.1312693959318624,-0.1536798541073587
1733312871061918,0.15013301,0.10369778,-9.537599,0.011117764,0.027784688,-0.08284628,-0.018472666,0.0063311304,0.08485279,-0.27222238137146215,-0.03733188231382694,89.87307789205538,0.025139353104502136,0.13342217168536794,-0.14770156445129318
1733312871069918,0.1501466,0.10404831,-9.5385275,0.010969564,0.027816819,-0.08207491,-0.018524937,0.0040163286,0.09642075,-0.2723302758206432,-0.03618791877388049,89.87193723792201,-0.013486806147622286,0.14299544249330712,-0.14258176667030756
1733312871085918,0.15017532,0.10474162,-9.540374,0.010705188,0.027917795,-0.08052113,-0.016523525,0.0063109905,0.09711133,-0.2730403407750229,-0.032907359642415576,89.86974817530914,-0.0443790596487365,0.2050349457165566,-0.13681641330464914
1733312871093918,0.15019035,0.10508455,-9.541291,0.010565082,0.027955182,-0.07997336,-0.017513288,0.0046733767,0.068470836,-0.2733555397926844,-0.031115795407341003,89.86864508695565,-0.039399877207685764,0.2239455293843218,-0.137886044186394
1733312871101918,0.15021057,0.10542638,-9.542197,0.01045173,0.027985707,-0.079332516,-0.014168908,0.0038156284,0.08010584,-0.2734678097621376,-0.02924476354214196,89.8676888707989,-0.014033746181641977,0.23387898314988054,-0.11952701959303624
1733312871109918,0.15043366,0.10560594,-9.543516,0.01042506,0.028010717,-0.07869436,-0.0033337853,0.0031262168,0.07976963,-0.2740153556066447,-0.027236234114829488,89.8667087333449,-0.06844323056339124,0.251066178414059,-0.12251718175169915
1733312871125918,0.15086785,0.105972014,-9.546085,0.010368515,0.028055802,-0.077391505,-0.003534078,0.0028178326,0.08142832,-0.2757894030731354,-0.02265617829439188,89.86436937577152,-0.11087796665566933,0.28625348877735046,-0.14620984833599876
1733312871133918,0.15107927,0.10615844,-9.547337,0.010343776,0.028083187,-0.076872535,-0.00309234,0.003423076,0.064871274,-0.2762938707602946,-0.019983879936589635,89.86340634614567,-0.06305846089490333,0.33403729472528054,-0.12037870323160528
1733312871141918,0.15128703,0.10634708,-9.548568,0.010308323,0.028103316,-0.07635607,-0.004431582,0.0025162005,0.06455835,-0.2765089658654172,-0.01725339160953434,89.86241594706837,-0.026886888140320538,0.34131104088191205,-0.12379988466038329
1733312871149918,0.15149105,0.106537774,-9.549801,0.010257218,0.028120423,-0.07559606,-0.006388174,0.0021383166,0.095001414,-0.27694338801746143,-0.014605092377983306,89.86165438316738,-0.05430276900553254,0.33103740394387926,-0.09519548762541967
1733312871165918,0.15188862,0.10692514,-9.552201,0.010201943,0.028162694,-0.07404391,-0.0034546827,0.002641929,0.097009346,-0.278236056099213,-0.009472912133009607,89.86054790410499,-0.08079175510947138,0.32076126531085614,-0.06915494139885932
1733312871173918,0.15207289,0.107128456,-9.5533695,0.010156679,0.028172668,-0.0735127,-0.005658017,0.001246808,0.066400506,-0.278455073135723,-0.006690597194056026,89.86022347111758,-0.027377129563746765,0.34778936736919763,-0.04055412342697111
1733312871181918,0.15225412,0.107333384,-9.55452,0.010126556,0.028184105,-0.07284693,-0.003765337,0.00142958,0.08322205,-0.2785866327623424,-0.003862325236221924,89.85900086269416,-0.01644495332743027,0.35353399472926267,-0.15282605292704526
1733312871189918,0.15243243,0.107539944,-9.555648,0.010097853,0.028195966,-0.071985,-0.00358792,0.0014826654,0.107740976,-0.27874897116739505,-0.0009983682174227564,89.85793194148975,-0.020292300631580523,0.35799462734989596,-0.13361515055088016
1733312871205918,0.15278059,0.107957385,-9.557866,0.01002038,0.02818841,-0.070174076,-0.0048420625,-0.00047229693,0.11318269,-0.27842292360169785,0.004431805599979017,89.85564380131346,0.020377972856076763,0.33938586358761086,-0.14300876101844545
1733312871213918,0.15295051,0.108168095,-9.558956,0.009981364,0.028184302,-0.06950014,-0.004876987,-0.00051339157,0.084241845,-0.2780023916724438,0.007012976789100918,89.8544895030833,0.05256649115675193,0.3226463986402376,-0.14428727877039782
1733312871221918,0.15311778,0.10838011,-9.560028,0.0099370275,0.028192783,-0.068748735,-0.0055420673,0.0010600779,0.09392574,-0.2777766613537544,0.009734913924383951,89.8535844973057,0.02821628983617356,0.3402421419103792,-0.11312572219784828
1733312871229918,0.15328239,0.108593404,-9.561079,0.009882464,0.028184788,-0.06783704,-0.006820424,-0.0009993091,0.11396221,-0.2776611364649459,0.01247479366884682,89.85271022724216,0.01444061110106785,0.34248496805785844,-0.10928375794403777
1733312871245918,0.15449557,0.108749345,-9.563286,0.010142009,0.027914084,-0.06599542,0.016221544,-0.016918987,0.11510122,-0.2769286872733152,0.01799972321381337,89.84961612643029,0.04577807447691659,0.3453080965604093,-0.19338130074211707
1733312871253918,0.15508369,0.108831875,-9.564358,0.010276462,0.027789598,-0.06532873,0.016806647,-0.0155607695,0.08333567,-0.27677951874036144,0.021116050565425145,89.84776514249106,0.018646066619222485,0.389540918951472,-0.23137299240411785
1733312871261918,0.15565997,0.1089173,-9.56541,0.010394954,0.027649425,-0.06456354,0.01481152,-0.01752167,0.09564868,-0.2765142116497656,0.024190382984529947,89.84594487602492,0.033163386324481126,0.3842915523881005,-0.2275333082676946
1733312871269918,0.1562246,0.10900536,-9.566466,0.01048902,0.027499883,-0.06364588,0.011758179,-0.018692808,0.1147082,-0.2759984582602221,0.02716354328478806,89.8442783065068,0.06446917369293226,0.3716450375322642,-0.20832118976509983
1733312871285918,0.15732025,0.10918886,-9.568518,0.010702615,0.02721039,-0.061870754,0.013349693,-0.01809327,0.110945195,-0.27405315099791666,0.03254607992898333,89.84110909159087,0.12158170389408979,0.3364085402622047,-0.198075932244886
1733312871293918,0.15785192,0.109284095,-9.569513,0.010810049,0.027059523,-0.06121709,0.013429321,-0.01885835,0.081708185,-0.2725314440021378,0.03491542227000574,89.83968155884864,0.19021337447236053,0.29616779262780035,-0.17844159277857066
1733312871301918,0.15837333,0.109381534,-9.570492,0.010922091,0.026926186,-0.060479067,0.014005228,-0.016667182,0.09225262,-0.27064485947113537,0.03719174334428719,89.83822673406605,0.2358230663753047,0.28454013428518093,-0.18185309782295936
1733312871309918,0.1588816,0.109485544,-9.57145,0.011028507,0.0268019,-0.05954999,0.013301963,-0.015535857,0.116134524,-0.2684047736203397,0.03927436453554818,89.83688799307714,0.2800107313494567,0.2603276489076246,-0.16734262361542845
1733312871325918,0.15986894,0.10969929,-9.573336,0.011167742,0.026511326,-0.05775258,0.008702219,-0.01816079,0.11233822,-0.2627086649449309,0.04279474098670679,89.83302209163791,0.35600679221305026,0.22002352819741292,-0.24161883995141606
1733312871333918,0.16034847,0.10980884,-9.574263,0.011256839,0.026379287,-0.057097167,0.011137104,-0.016504899,0.08192658,-0.2594326529242868,0.04433042008606806,89.83114036214265,0.40950150258051643,0.19195988742015804,-0.2352161869076111
1733312871341918,0.16081892,0.10992005,-9.575173,0.011309835,0.02623783,-0.056353852,0.006624497,-0.01768209,0.09291432,-0.2557180835865239,0.04562045912281449,89.82938498036694,0.4643211672203538,0.16125487959330398,-0.2194227219639196
1733312871349918,0.16128032,0.11003277,-9.576065,0.011347511,0.02608817,-0.055411007,0.0047094654,-0.018707477,0.11785561,-0.251649468369512,0.046680386097954434,89.82764668395966,0.508576902126491,0.13249087189249326,-0.21728705090990139
1733312871365918,0.16115248,0.11029882,-9.578051,0.011015668,0.02555649,-0.053683896,-0.020740204,-0.033230055,0.10794447,-0.24291644219547215,0.048935063010494995,89.82429304420803,0.545814135877492,0.1409173070337852,-0.20960248447683766
1733312871373918,0.16110107,0.11043858,-9.579014,0.010879524,0.025320945,-0.05309645,-0.01701794,-0.029443063,0.07343059,-0.23804473819310884,0.050023211268620825,89.82288603144895,0.6089630002954142,0.13601853226572833,-0.1758765948864236
1733312871381918,0.16105269,0.11057723,-9.579959,0.010743206,0.02509019,-0.05245269,-0.01703971,-0.028844455,0.08046999,-0.23284726879872314,0.05099052384545298,89.82051253027632,0.6496836742982124,0.12091407210401993,-0.29668764657852176
1733312871389918,0.16100718,0.11071474,-9.580911,0.010593805,0.024851086,-0.051620208,-0.018675113,-0.029888002,0.10406039,-0.2274755507296682,0.051603753682755785,89.81792729430198,0.6714647586318652,0.07665372966285032,-0.3231544967907674
1733312871405918,0.1609236,0.110986084,-9.582753,0.010249047,0.024371604,-0.04988362,-0.021547427,-0.02996763,0.108536795,-0.21751531244020972,0.0522300902909056,89.81366180709524,0.6225148930911553,0.03914603800936351,-0.2665929504218291
1733312871413918,0.16088496,0.11111991,-9.583646,0.010064835,0.02412424,-0.04926871,-0.023026483,-0.030920373,0.076863445,-0.21299278592840526,0.05280729487911057,89.81144538829786,0.5653158139755595,0.0721505735256208,-0.2770523496730112
1733312871421918,0.1608482,0.11125248,-9.584521,0.009877079,0.023885421,-0.04862055,-0.023469444,-0.02985238,0.08101994,-0.20861410608343126,0.05309386279182917,89.80933483666227,0.5473349806217498,0.035820989089825776,-0.26381895444740444
1733312871429918,0.16081321,0.11138377,-9.585379,0.0097004445,0.023632903,-0.047712017,-0.022079328,-0.03156485,0.11356687,-0.20461974116653583,0.052863630623502945,89.80754533643668,0.4992956146119255,-0.028779021040778792,-0.22368752819906473
1733312871445918,0.16075195,0.111647464,-9.587064,0.009332237,0.023182852,-0.045960743,-0.023012979,-0.028128153,0.10945461,-0.19738494088382308,0.052273472682345924,89.8039014039379,0.45217501766954743,-0.03688487132231382,-0.22774578117354854
1733312871453918,0.16072527,0.1117799,-9.587893,0.009141998,0.022958774,-0.045348916,-0.023779808,-0.028009757,0.07647835,-0.19431682187857588,0.05209577429840875,89.80169182657991,0.3835148756559027,-0.02221229799214722,-0.276197169749278
1733312871461918,0.16069967,0.11191108,-9.588704,0.008950106,0.02272615,-0.044668052,-0.023986561,-0.029077984,0.085107975,-0.19157714704150278,0.05153987404586209,89.79953687853248,0.342459354634136,-0.06948753156833196,-0.2693685059287627
1733312871469918,0.16067503,0.112041086,-9.5894985,0.008758251,0.02251732,-0.043842286,-0.023981905,-0.026103806,0.103220806,-0.18924165380745825,0.05072978260518062,89.7973921875819,0.29193665425556553,-0.1012614300851831,-0.2680863688216731
1733312871485918,0.16082588,0.11208557,-9.591977,0.008512375,0.022005007,-0.0422611,-0.0153672295,-0.032019567,0.09882403,-0.18570234812153893,0.04926387937684931,89.7937687575015,0.2212066053699567,-0.0916189517707069,-0.22646438002534344
1733312871493918,0.16099788,0.11200454,-9.593638,0.008469559,0.02172257,-0.041884247,-0.005351961,-0.035304576,0.047106758,-0.1848466599602833,0.04879536424682083,89.79091373160719,0.10696102015695723,-0.05856439125356039,-0.35687823678898745
1733312871501918,0.16116722,0.11192688,-9.595262,0.008415238,0.02143447,-0.041414127,-0.006790156,-0.036012612,0.058765054,-0.18414722261608246,0.04813772485018579,89.78799719686803,0.08742966802510481,-0.08220492457938038,-0.36456684239450365
1733312871509918,0.16133383,0.11185251,-9.596866,0.008348179,0.021160623,-0.04076896,-0.008382369,-0.03423076,0.08064601,-0.18368094675485458,0.047210559699921946,89.78539828879107,0.05828448265348412,-0.11589564378297972,-0.324863509620847
1733312871525918,0.161669,0.11171355,-9.599955,0.00822338,0.020592026,-0.039193362,-0.0077999425,-0.035537288,0.098474786,-0.18297349436473828,0.045539437312169105,89.78028930363702,0.044215774382268196,-0.10444514923455267,-0.3193115721279187
1733312871533918,0.16183265,0.111648515,-9.601441,0.008155448,0.020319352,-0.038521376,-0.00849145,-0.03408431,0.08399831,-0.1828501804630627,0.04443227264457931,89.77806263850206,0.015414237709446972,-0.13839558344872438,-0.27833314186983155
1733312871541918,0.16199367,0.11158636,-9.602892,0.008080736,0.02005594,-0.03777372,-0.00933907,-0.032926444,0.09345682,-0.18309014305862803,0.04310839616813119,89.77595552737868,-0.029995324445666223,-0.1654845595560156,-0.26338889042190183
1733312871549918,0.16215222,0.11152698,-9.604305,0.008019192,0.019786308,-0.036819935,-0.007692957,-0.0337041,0.11922325,-0.18364766547626699,0.04162010154317783,89.77389618713539,-0.06969030220486783,-0.1860368281191695,-0.25741753041207077
1733312871565918,0.16246209,0.111416504,-9.607041,0.00787525,0.019304555,-0.03480576,-0.008996401,-0.030109541,0.12588593,-0.1850059859761625,0.03813837841933565,89.77036157801999,-0.08489503124346956,-0.2176076952401364,-0.22091306971235397
1733312871573918,0.16261356,0.11136538,-9.608366,0.007812585,0.019080108,-0.033985965,-0.007833121,-0.028055858,0.10247435,-0.18515019295857535,0.0360915023636337,89.76871547436167,-0.01802587280160779,-0.2558595069627435,-0.205762957289656
1733312871581918,0.16276278,0.11131697,-9.609655,0.007738952,0.018866772,-0.03311769,-0.009204086,-0.026667023,0.10853446,-0.18507238219399746,0.03401556469436223,89.76740750373291,0.0097263455722374,-0.25949220865893324,-0.16349632859591234
1733312871589918,0.16291012,0.111277305,-9.61091,0.007677589,0.01866279,-0.032083206,-0.0076703723,-0.025497748,0.12931041,-0.18487996393181075,0.03181602997510687,89.76613705725444,0.024052282773338186,-0.27494183990692045,-0.15880580980797146
1733312871605918,0.16319838,0.111205675,-9.613317,0.007512157,0.01827146,-0.029853523,-0.010339513,-0.024458159,0.13935518,-0.18385684614705536,0.02699125441177748,89.76211406742888,0.06394486154721148,-0.3015484727080869,-0.2514368640976514
1733312871613918,0.16352229,0.11140435,-9.614171,0.0074977735,0.018191522,-0.028872292,-0.0017979181,-0.009992159,0.12265378,-0.18328331565462352,0.024487542930983493,89.76036209633811,0.07169131155397995,-0.31296393509924825,-0.2189963863452326
1733312871621918,0.16383989,0.111600265,-9.615001,0.0074862815,0.018110579,-0.027806744,-0.0014365067,-0.0101178875,0.13319355,-0.18315336929256448,0.02191640338426671,89.75892774046287,0.016243295257379647,-0.32139244333959816,-0.1792944844061202
1733312871629918,0.16415137,0.111793496,-9.615829,0.0074666333,0.018036375,-0.02668495,-0.0024560138,-0.009275507,0.14022434,-0.18313006405732596,0.019346444490621638,89.75765049195468,0.0029131544048173552,-0.3212448617056339,-0.15965606352322514
1733312871645918,0.16475585,0.112172194,-9.617413,0.0073460806,0.01786029,-0.024426531,-0.007534545,-0.0110053215,0.14115113,-0.1823835410478639,0.013695996839762142,89.75540336549155,0.04665768809137949,-0.35315297817871844,-0.14044540394583357
1733312871653918,0.16506456,0.112362556,-9.61817,0.0073180827,0.017785374,-0.023545565,-0.0034997354,-0.0093644485,0.11012074,-0.1823789787180549,0.011017955642889179,89.75447103864438,0.0005702912261239425,-0.33475514960912023,-0.11654085589572585
1733312871661918,0.16536735,0.11255059,-9.618904,0.0072912276,0.01771218,-0.022617983,-0.0033568938,-0.009149313,0.11594779,-0.18269031103169972,0.008676461372979888,89.75379145581404,-0.03891653920560309,-0.29268678373866147,-0.08494785379353251
1733312871669918,0.1656643,0.11273638,-9.6196165,0.007248793,0.017646119,-0.021575008,-0.0053043473,-0.008257572,0.13037188,-0.1827303981678817,0.0064778541422824765,89.75318010081475,-0.005010892022746972,-0.2748259038371764,-0.07641937491109736
1733312871685918,0.16624081,0.113102086,-9.620999,0.0071415803,0.017564325,-0.019540204,-0.0067007784,-0.0051121456,0.12717524,-0.18167962406676083,0.002799623838772191,89.75274983236955,0.06567338132005368,-0.22988939396939284,-0.026891777824819593
1733312871693918,0.16652055,0.11328232,-9.621671,0.007080655,0.017508507,-0.018708833,-0.007615657,-0.0069772354,0.10392139,-0.18112323324514934,0.001003570900580396,89.75266104074939,0.06954885270143744,-0.22450661727397436,-0.011098952520889821
1733312871701918,0.16679479,0.113460764,-9.622321,0.007026427,0.017453669,-0.017826455,-0.0067785145,-0.0068547665,0.110297225,-0.18056012153296744,-0.0005825937918709706,89.75269516189145,0.07038896402273806,-0.1982705865564208,0.00426514275850404
1733312871709918,0.1670637,0.11363754,-9.622951,0.0069810855,0.017399982,-0.016793555,-0.0056676795,-0.006710877,0.1291125,-0.17979071519730855,-0.0018673763874547278,89.7528283493387,0.09617579195736027,-0.16059782444796966,0.01664843090515012
1733312871725918,0.16758272,0.11397287,-9.624147,0.0068711173,0.017301314,-0.014876041,-0.006873015,-0.006166752,0.11984462,-0.17767491964131968,-0.004335982848119999,89.75309133861198,0.1322372222493049,-0.15428790379157947,0.01643682958021292
1733312871733918,0.16743302,0.11364345,-9.624418,0.006685451,0.01697818,-0.01401898,-0.023208266,-0.04039169,0.10713259,-0.17629439316748868,-0.005250567859557364,89.75499697297269,0.17256580922887255,-0.11432312642967062,0.23820429508950514
1733312871741918,0.16728792,0.113322616,-9.624679,0.0065011024,0.016667828,-0.013159759,-0.023043597,-0.038794007,0.107402556,-0.17454631605837306,-0.005640715737230838,89.75659525170045,0.21850963863945222,-0.04876848470918428,0.19978484096904978
1733312871749918,0.16714726,0.113010086,-9.624954,0.006324586,0.01634842,-0.0121729,-0.022064544,-0.03992603,0.12335739,-0.17307068477576398,-0.005982391950154882,89.75835060896308,0.18445391032613712,-0.042709526615505415,0.21941965783026168
1733312871765918,0.16687861,0.11240885,-9.625467,0.005971815,0.01573878,-0.010260556,-0.022048188,-0.0381025,0.119521506,-0.17097177789348564,-0.00591453028512537,89.76242145162796,0.13118168014239623,0.004241354064344485,0.25442766655445087
1733312871773918,0.16675027,0.112119675,-9.625707,0.005796972,0.015423358,-0.009533686,-0.021855345,-0.039427657,0.09085878,-0.1698268222993853,-0.005862149937629894,89.76446368886228,0.14311944926254155,0.006547543436934467,0.2552796542906238
1733312871781918,0.1666256,0.11183776,-9.625936,0.0056111002,0.015132919,-0.008825644,-0.023233995,-0.036304932,0.08850521,-0.16869759474963006,-0.006138719239679469,89.76670057107646,0.1411534437194055,-0.03457116275619685,0.27961027677226813
1733312871789918,0.16650434,0.111562975,-9.626154,0.0054107793,0.014843324,-0.007975157,-0.02504012,-0.036199342,0.106310815,-0.1676020377580499,-0.006780783706171175,89.76896482935688,0.13694462394751805,-0.08025805831146325,0.28303228505143696
1733312871805918,0.16628096,0.11102882,-9.626587,0.0050723385,0.014261511,-0.0064273602,-0.021152547,-0.036363315,0.09673732,-0.1656942954255885,-0.008069014757396393,89.77410114512956,0.11923389577883874,-0.0805144407015761,0.3210197357928359
1733312871813918,0.16617383,0.11077139,-9.6268015,0.0048943316,0.013967937,-0.0058870297,-0.022250867,-0.036696784,0.067541316,-0.16512883282114593,-0.00894631387934624,89.77691863009558,0.0706828255553191,-0.10966239024373094,0.3521856207528313
1733312871821918,0.16606952,0.11052015,-9.6270075,0.004725612,0.013701286,-0.0053415513,-0.021089973,-0.033331335,0.0681848,-0.16521605077426707,-0.010316340456491473,89.77985904416606,-0.010902244140142561,-0.17125332214315409,0.367551758810261
1733312871829918,0.16596788,0.11027505,-9.627204,0.004553313,0.013449788,-0.0046831747,-0.021537358,-0.03143726,0.08229707,-0.1652975591390644,-0.012107470889307723,89.78281311862511,-0.010188545599666822,-0.22389130410203137,0.36925930738134716
1733312871845918,0.16577193,0.10980248,-9.627567,0.0041936184,0.01295195,-0.0034571164,-0.022480903,-0.031114904,0.07662863,-0.16541026665114722,-0.016556392118733745,89.78871787793734,-0.007044219505174779,-0.27805757683912624,0.36904745701420755
1733312871853918,0.16567725,0.1095747,-9.627736,0.004015852,0.012720903,-0.0030213406,-0.022220774,-0.028880777,0.054471977,-0.16570900615595271,-0.019116425851172205,89.79154217956275,-0.03734243810068671,-0.32000421655480765,0.35303770317570743
1733312871861918,0.16660991,0.10926079,-9.628273,0.0044076312,0.012417689,-0.002593845,0.048972372,-0.0379018,0.053436957,-0.16629536935929823,-0.02191009346295089,89.79441768276969,-0.0732954004181907,-0.349208451472336,0.35943790086866984
1733312871869918,0.16752774,0.10895536,-9.628818,0.004769453,0.012140953,-0.0021254765,0.0452277,-0.034591995,0.058546048,-0.1677851547427832,-0.024658877975266835,89.79528170843828,-0.18622317293561969,-0.34359806403949267,0.10800320857302569
1733312871885918,0.16930859,0.108363986,-9.629851,0.0054718503,0.011603238,-0.0012804396,0.043899838,-0.03360718,0.052814808,-0.1718457887760292,-0.030664742722407733,89.79693122516376,-0.2537896270778768,-0.3753665466963062,0.10309479534229725
1733312871893918,0.17017277,0.10807787,-9.6303425,0.0058090733,0.011359937,-0.0009689923,0.04215288,-0.030412687,0.038930904,-0.17365414738907892,-0.03392986714955525,89.79773031613061,-0.22604482663121206,-0.4081405533934403,0.09988637085721871
1733312871901918,0.17102002,0.10779813,-9.6308155,0.0061189635,0.011150318,-0.0006439524,0.038736265,-0.026202293,0.040629987,-0.1750306052735897,-0.03744104530186777,89.79881291864635,-0.17205723556385158,-0.43889726903906434,0.13532531446663645
1733312871909918,0.17185083,0.10752483,-9.631273,0.0064348914,0.010955879,-0.00026627927,0.039490987,-0.02430484,0.04720914,-0.1758448186743666,-0.04100690514277379,89.7998886551168,-0.1017766750971106,-0.44573248011325184,0.1344670588065819
