timestamp,x,y,z,vx,vy,vz,ax,ay,az,roll,pitch,yaw,roll_rate,pitch_rate,yaw_rate
1731602218436867,-0.3448413,0.23192364,-9.585222,0.0495865,-0.087264925,-0.22415273,0.0,0.0,0.0,-0.6226000907942436,-0.4755960157784071,91.51714606837577,0.0,0.0,0.0
1731602218444867,-0.34490293,0.23145634,-9.58703,0.050045494,-0.086810574,-0.22270226,0.057374123,0.05679391,0.181308,-0.6192548150628653,-0.4785158094130516,91.51680511886772,0.41815946642229335,-0.36497420433056244,-0.04261868850566982
1731602218452867,-0.34541667,0.23136012,-9.588487,0.05034162,-0.08619642,-0.22121201,0.03701588,0.07676892,0.18628126,-0.616093590386325,-0.4810504320677773,91.51657350803211,0.3951530845675159,-0.3168278318407073,-0.028951354451583693
1731602218468867,-0.3463288,0.23111685,-9.591408,0.05096125,-0.08499521,-0.21827929,0.03872672,0.075075775,0.18329544,-0.609846407916541,-0.4859654617926873,91.51368416181944,0.39044890436150764,-0.3071893578068739,-0.18058413829142878
1731602218476867,-0.34673366,0.23097375,-9.592893,0.05126575,-0.08438555,-0.2168848,0.038062688,0.07620733,0.17431004,-0.6067218879910049,-0.4882431987508605,91.51227030376349,0.39056499069201267,-0.284717119771649,-0.17673225699496872
1731602218484867,-0.34709904,0.23082677,-9.594377,0.05159635,-0.08376498,-0.21550544,0.041325107,0.07757172,0.17242132,-0.6037401568965134,-0.49054137443633894,91.51081538627709,0.37271638681143576,-0.28727196068481003,-0.18186468579863582
1731602218492867,-0.34743565,0.23066862,-9.59586,0.051924147,-0.08313609,-0.21411648,0.040974464,0.07861107,0.173619,-0.6008939405301672,-0.4926573168593298,91.50828774107262,0.3557770457932723,-0.2644928028738533,-0.3159556505597162
1731602218508867,-0.3480291,0.23032232,-9.598823,0.052567534,-0.081921265,-0.21135277,0.04021171,0.075926535,0.17273238,-0.5956984436445418,-0.49541932392017085,91.50327314549877,0.32471855535158917,-0.17262544130256624,-0.31341222336514446
1731602218516867,-0.3482885,0.23013556,-9.6003,0.052898362,-0.081317596,-0.21006233,0.041353513,0.07545855,0.16130506,-0.593664077420769,-0.49608812052448065,91.50097747244945,0.25429577797160274,-0.08359957553873022,-0.2869591311661699
1731602218524867,-0.34852427,0.22994053,-9.601775,0.05323797,-0.08072362,-0.208792,0.042451076,0.0742469,0.15879048,-0.5920409917733463,-0.4962568538681822,91.49870201531805,0.20288570592782537,-0.021091667962690245,-0.2844321414240773
1731602218532867,-0.3487373,0.22973783,-9.603248,0.05359134,-0.08012408,-0.2075178,0.04417123,0.074942596,0.15927477,-0.5907776058507638,-0.4962113353534708,91.49637894018403,0.15792324032282445,0.00568981433892653,-0.2903843917517435
1731602218548867,-0.3491002,0.22930633,-9.606225,0.054298934,-0.07897674,-0.20502383,0.04422455,0.071708575,0.1558736,-0.5887623967516628,-0.4953930693991419,91.49193772209209,0.12595056869381221,0.051141622145553164,-0.27757613074674775
1731602218556867,-0.34925142,0.2290782,-9.607709,0.054661967,-0.07840812,-0.20377846,0.045379154,0.07107761,0.15567057,-0.587998639367568,-0.494336164925506,91.4906390441443,0.09546967301184424,0.13211305920448993,-0.16233474347405327
1731602218564867,-0.3493824,0.22884391,-9.609188,0.05504174,-0.077841714,-0.20254219,0.047471836,0.070801005,0.15453435,-0.5873895379350049,-0.49275561118470695,91.48937486272024,0.07613767907039048,0.197569217599885,-0.15802267800664607
1731602218572867,-0.3494936,0.22860378,-9.610663,0.055424944,-0.07727955,-0.20128645,0.047900245,0.07027015,0.15696695,-0.5870602033472124,-0.49073230656835887,91.4881239830101,0.04116682347405217,0.25291307704350935,-0.15635996376840505
1731602218588867,-0.3500632,0.22853631,-9.613597,0.056025833,-0.07590759,-0.1988408,0.037555583,0.08574779,0.15285331,-0.5872139220344987,-0.4861457746027516,91.48562213750378,-0.009607417955390043,0.28665824785045285,-0.15636534414419026
1731602218596867,-0.35031375,0.22848892,-9.615078,0.056321125,-0.07524448,-0.19765861,0.036911573,0.08288863,0.14777295,-0.5873531232277028,-0.4838304709719714,91.48428905724592,-0.01740014915051434,0.2894129538475226,-0.16663503223484974
1731602218604867,-0.35054222,0.22843285,-9.616554,0.056625724,-0.074588396,-0.19648226,0.038074795,0.082010396,0.14704466,-0.5874641502856596,-0.4816643169837225,91.48301086853006,-0.013878382244596624,0.2707692485311223,-0.15977358948102344
1731602218612867,-0.35074902,0.2283685,-9.618025,0.05694241,-0.07392789,-0.19533175,0.039585862,0.0825636,0.14381297,-0.5875036216239544,-0.479568175575002,91.48178074257022,-0.00493391728684524,0.26201767609006227,-0.15376574498017054
1731602218620867,-0.3509393,0.22829257,-9.619492,0.057255115,-0.073274344,-0.19420156,0.039088074,0.081692815,0.14127418,-0.587376681749968,-0.4773271550634236,91.48066651900321,0.015867484248283787,0.2801275639472911,-0.13927794587568576
1731602218636867,-0.35125768,0.22811782,-9.622409,0.057926595,-0.07202494,-0.1920034,0.04196749,0.07808767,0.13738498,-0.5860549497940856,-0.47191233681740014,91.48028255473594,0.08260824724265795,0.3384261403764668,-0.023997766704627926
1731602218644867,-0.35138646,0.2280196,-9.62386,0.05828822,-0.07138974,-0.19088648,0.045203134,0.0793999,0.13961457,-0.5847222419494731,-0.46859280643614154,91.48017942687224,0.16658848057656228,0.4149412976573259,-0.012890982963161143
1731602218652867,-0.35149536,0.22791447,-9.625306,0.058658477,-0.07078677,-0.18977554,0.04628207,0.075371936,0.13886765,-0.5829696839364329,-0.4650163366541083,91.4802468260228,0.2190697516300176,0.44705872275415853,0.008424893820597223
1731602218668867,-0.35165557,0.22768383,-9.628222,0.059362262,-0.06964274,-0.18765064,0.043986596,0.07150182,0.1328066,-0.5800977380467509,-0.4580339492452599,91.4807578768795,0.17949661810512654,0.43639921305302126,0.031940678543629704
1731602218676867,-0.35170764,0.22755863,-9.629673,0.05974612,-0.069098555,-0.18660833,0.0479822,0.06802287,0.1302883,-0.5785544433944458,-0.4545115943795718,91.4811056698546,0.19291183153813143,0.4402943582110203,0.043474121887805556
1731602218684867,-0.35174143,0.22742705,-9.631118,0.060107473,-0.06856131,-0.1855737,0.04516914,0.06715581,0.12932904,-0.5770471491936051,-0.4511363082996041,91.4815286600976,0.18841177510508825,0.42191075999595573,0.0528737803741115
1731602218692867,-0.35175458,0.22728956,-9.632557,0.06047872,-0.06802128,-0.1845566,0.046405938,0.06750319,0.1271367,-0.575533239736299,-0.44792057760932685,91.48209504033703,0.18923868216326448,0.4019663362846587,0.07079752992912791
1731602218708867,-0.3516912,0.22757083,-9.635562,0.06085401,-0.06649095,-0.18251398,0.02345559,0.09564589,0.12766384,-0.5721673907388652,-0.44158005004489465,91.48117830740108,0.21036556233961196,0.3962829727770145,-0.0572958084967393
1731602218716867,-0.35163954,0.22769658,-9.637073,0.061067842,-0.06575916,-0.18150648,0.026728956,0.091473565,0.12593716,-0.5704276135329065,-0.43838580188995374,91.47952422827761,0.2174721507448466,0.39928101936761135,-0.20675989043421675
1731602218724867,-0.3515748,0.22781277,-9.638576,0.06128517,-0.06505018,-0.18050781,0.027166212,0.088622786,0.12483447,-0.5686884975440423,-0.43520729700328464,91.47794508352,0.21738949860803153,0.39731311083363785,-0.19739309470155988
1731602218732867,-0.3514972,0.22791953,-9.640071,0.061528232,-0.06437112,-0.17948471,0.030382534,0.084882595,0.12788735,-0.566864628341386,-0.4319944280898722,91.47642082936632,0.22798365033203466,0.4016086141765561,-0.19053176920842357
1731602218748867,-0.35130396,0.22810577,-9.643035,0.062010303,-0.06303901,-0.17747101,0.030129448,0.083256505,0.12585613,-0.5630451353225446,-0.42459427165664715,91.47356324845376,0.23871831367757826,0.4625097770765644,-0.17859880703590264
1731602218756867,-0.35117164,0.22818963,-9.644505,0.06227793,-0.06239392,-0.17651224,0.033453573,0.080636695,0.11984631,-0.5614193819854127,-0.42039657939980607,91.47238040406623,0.2032191671414899,0.5247115321051382,-0.14785554843948862
1731602218764867,-0.35102737,0.22826494,-9.645967,0.06254991,-0.061767716,-0.17552839,0.033997465,0.07827533,0.12298114,-0.5601073321918592,-0.4156516060722417,91.4705757639505,0.16400622419419533,0.593121665945544,-0.2255800144667423
1731602218772867,-0.35087135,0.2283319,-9.647421,0.062821135,-0.06116222,-0.17453651,0.033902936,0.075687185,0.123985104,-0.5588139598908897,-0.41053141911793933,91.46888037578124,0.16167153762119305,0.6400233692877947,-0.21192352115835744
1731602218780867,-0.35070372,0.22839063,-9.648887,0.06311022,-0.060579706,-0.17353061,0.036135316,0.072814055,0.12573786,-0.5576060914845024,-0.40526318205094664,91.46732838020753,0.15098355079840756,0.6585296333740849,-0.19399944671286087
1731602218796867,-0.35033453,0.22848453,-9.6517935,0.06365844,-0.05941053,-0.17154586,0.034263823,0.07307343,0.12404657,-0.5549453323336397,-0.3942407226647433,91.46420408554421,0.16629744692891668,0.6889037116377089,-0.19526841645715254
1731602218804867,-0.35013333,0.22852017,-9.653233,0.06395506,-0.05884426,-0.17054676,0.037077814,0.07078377,0.12488849,-0.5535174674575063,-0.3887123825812204,91.4628023147467,0.17848310951668414,0.6910425104403674,-0.17522134969022973
1731602218812867,-0.3499212,0.22854851,-9.654664,0.06424986,-0.058299847,-0.16951476,0.03684964,0.06805174,0.12899935,-0.5522380303206738,-0.3832915172784348,91.46130521365212,0.1599296421040585,0.6776081628481956,-0.18713763682124657
1731602218828867,-0.3495294,0.22882046,-9.657285,0.064888604,-0.057072718,-0.16736446,0.039921604,0.07669558,0.13439357,-0.5494177730837904,-0.3725392849589476,91.45851559907022,0.1762660773052124,0.672014519967951,-0.17435091136869688
1731602218836867,-0.34934822,0.22906075,-9.658501,0.06518726,-0.056388676,-0.1662811,0.037332065,0.08550519,0.13541989,-0.547922715116152,-0.36738889478801745,91.45870609091475,0.1868822459548047,0.6437987713662645,0.023811480564171008
1731602218844867,-0.3491551,0.22929083,-9.659712,0.065496944,-0.055717707,-0.16520035,0.038710423,0.08387118,0.13509393,-0.5461134456422598,-0.3621463248705831,91.4589784329245,0.22615868423650887,0.6553212396792916,0.034042751219867655
1731602218852867,-0.34895015,0.2295109,-9.660918,0.06581444,-0.05507033,-0.16410433,0.039687376,0.08092215,0.13700314,-0.5438489361523767,-0.3567160041835702,91.45927834791237,0.2830636862354007,0.6787900858766219,0.037489373484119196
1731602218868867,-0.34850526,0.22992188,-9.663319,0.06647512,-0.05382649,-0.16195892,0.04129251,0.07774005,0.1340881,-0.5384841873751534,-0.3446936588321532,91.45994610993205,0.3352967985764597,0.7513965844635626,0.041735126229549294
1731602218876867,-0.3482655,0.23011309,-9.664512,0.066810474,-0.053238705,-0.16094613,0.041918825,0.07347297,0.1265984,-0.5359304357683093,-0.33815763871657056,91.46036192739652,0.3192189508554908,0.8170025144478243,0.05197718305898998
1731602218884867,-0.3480144,0.23029493,-9.665701,0.06714249,-0.052666686,-0.15992498,0.041501593,0.07150229,0.12764335,-0.5335985347701911,-0.3314251450521653,91.46103029631624,0.29148762476478285,0.8415617080506593,0.08354611496507616
1731602218892867,-0.347758,0.23045766,-9.666886,0.067471236,-0.05211965,-0.15890324,0.041093674,0.068379566,0.12771785,-0.5313667926265719,-0.3244099723105398,91.46161690144736,0.2789677679523932,0.876896592703189,0.07332564139083583
1731602218908867,-0.34721202,0.23075633,-9.669283,0.06814953,-0.051125124,-0.15690483,0.042393334,0.062157862,0.124900594,-0.5266636589484194,-0.3104463433570023,91.46456671356184,0.2939458548845349,0.8727268095960928,0.18436325715424678
1731602218916867,-0.34692273,0.2308924,-9.670474,0.068494536,-0.0506541,-0.1559206,0.04312582,0.05887821,0.12302957,-0.5239234115408529,-0.3038451107942948,91.46623293328477,0.34253092594581946,0.8251540703384375,0.20827746536791497
1731602218924867,-0.34662282,0.2310198,-9.67166,0.068832256,-0.050203007,-0.15495232,0.042214986,0.056386456,0.121034674,-0.5209167976773983,-0.29744262743779276,91.46794011916053,0.37582673293181884,0.8003104195627532,0.21339823446962672
1731602218932867,-0.3463125,0.23113857,-9.672842,0.069159776,-0.049785934,-0.15394564,0.040940005,0.052134037,0.12583472,-0.5176369649631838,-0.2913893457272243,91.46979104184,0.409979089276817,0.7566602138210559,0.23136533493406258
1731602218948867,-0.34566128,0.23135093,-9.675188,0.06981982,-0.048967496,-0.15200609,0.04125293,0.051152423,0.12122187,-0.5100545323066947,-0.27963324356584596,91.4737250343655,0.4739020410305628,0.7347563850861486,0.24587453284384006
1731602218956867,-0.34617588,0.23111331,-9.676706,0.06984766,-0.048729062,-0.15121983,0.003479421,0.029804183,0.098282464,-0.5056892896998098,-0.2736187650137009,91.47591743951935,0.5456553258606333,0.7518098190181295,0.27405064423023595
1731602218964867,-0.34665504,0.2308746,-9.67821,0.06989442,-0.048495203,-0.15041704,0.00584498,0.029232351,0.10034814,-0.5005873121114346,-0.2673197396282814,91.47588942382782,0.6377471985468948,0.7873781731774332,-0.0035019614396471876
1731602218972867,-0.34710532,0.23063517,-9.679701,0.06994279,-0.0482829,-0.1495996,0.0060461457,0.026538035,0.10218098,-0.49530546538964393,-0.2609798159557391,91.47577929631805,0.6602308402238297,0.7924904590677931,-0.013765938721924722
1731602218988867,-0.3479222,0.23015358,-9.682644,0.07006433,-0.047888234,-0.1480147,0.007596332,0.024666542,0.09905639,-0.4850024292047411,-0.24908732492064373,91.47583942889185,0.6439397615564256,0.7432806896934613,0.003758285861505226
1731602218996867,-0.34829015,0.22991104,-9.684096,0.07012072,-0.04774014,-0.14726435,0.00704918,0.018511899,0.09379349,-0.48021079064126243,-0.24373464826408703,91.47611884849924,0.5989548204348317,0.6690845820695852,0.03492745092436309
1731602219004867,-0.34863198,0.22966702,-9.685536,0.07021008,-0.047591247,-0.14645652,0.011169351,0.01861155,0.10097771,-0.47578798024651076,-0.23886825540456025,91.47632333603563,0.552851299343966,0.6082991074408481,0.025560942050703788
1731602219012867,-0.34894824,0.22942136,-9.686963,0.07028724,-0.04747389,-0.14560394,0.009645708,0.014669727,0.1065731,-0.47179618872319934,-0.234682594362315,91.47654839536973,0.49897394041392534,0.5232076302806549,0.02813241676238335
1731602219028867,-0.34949422,0.22892362,-9.689816,0.07045539,-0.047193497,-0.14387047,0.010509043,0.017524464,0.10834168,-0.4659807220977788,-0.22823412279383368,91.47710802531802,0.3634666640887843,0.4030294730300833,0.034976871767340094
1731602219036867,-0.349725,0.22867149,-9.691223,0.07058504,-0.04706959,-0.14304318,0.016206875,0.015488359,0.10341219,-0.464192984329194,-0.2255772917742914,91.47684129424107,0.22346722107309747,0.33210387744278647,-0.03334138461894626
1731602219044867,-0.3499326,0.22841758,-9.692617,0.070716776,-0.046942588,-0.14216235,0.016466714,0.015875325,0.11010281,-0.46293097270390854,-0.22325390239680196,91.47662936304731,0.15775145316067893,0.290423672186179,-0.026491399218596206
1731602219052867,-0.35011768,0.22816184,-9.693998,0.07084452,-0.0468205,-0.14125758,0.015968457,0.015261116,0.11309608,-0.46223916302017726,-0.2210677985419431,91.47635571616426,0.08647621046641185,0.27326298185735565,-0.03420586038165249
1731602219068867,-0.35042244,0.22764456,-9.696724,0.071125895,-0.046613485,-0.1394559,0.017585699,0.012938398,0.11260527,-0.461768127660609,-0.21780155678178312,91.47589762620464,0.029439709973019448,0.20414011000999954,-0.02863062247590555
1731602219076867,-0.35032648,0.22757791,-9.697932,0.071307465,-0.046378653,-0.13852951,0.02269633,0.029353889,0.11579878,-0.461786936041343,-0.21694570924313158,91.4756583833127,-0.002351047591757957,0.10698094233144236,-0.029905361492740156
1731602219084867,-0.35021594,0.22750565,-9.699131,0.07148224,-0.046160363,-0.13758758,0.021846963,0.027286353,0.11774152,-0.4620360990855544,-0.21681198598778728,91.47595216201599,-0.031145380526418236,0.016715406918037072,0.036722337910259084
1731602219092867,-0.35009113,0.22742778,-9.700321,0.0716849,-0.045948848,-0.13663115,0.025331972,0.026439315,0.11955387,-0.4623413963361811,-0.21700739483139017,91.47625276868212,-0.03816215632833918,-0.024426105450360138,0.037575833265927436
1731602219108867,-0.349804,0.2272599,-9.702674,0.072032996,-0.04553326,-0.13470323,0.02175616,0.025974352,0.12049451,-0.46321182585836623,-0.21793649401407486,91.47673799452956,-0.0544018451365705,-0.05806869891779394,0.03032661546526469
1731602219116867,-0.3496423,0.22717011,-9.703837,0.0722184,-0.045319356,-0.13375247,0.02317596,0.026737804,0.11884607,-0.4640880440010257,-0.21833715688176947,91.47679253026908,-0.10952726783244002,-0.050082858461825655,0.006816967440403341
1731602219124867,-0.3494674,0.22707514,-9.704991,0.07239383,-0.04512725,-0.13277607,0.021927988,0.02401322,0.122049816,-0.46520488776211794,-0.21865649722792685,91.47690195380488,-0.13960547013652339,-0.039917543269670695,0.01367794197523332
1731602219132867,-0.34927955,0.22697501,-9.706137,0.07258212,-0.044943098,-0.13177608,0.023536382,0.023019033,0.12499838,-0.46649304328364943,-0.21891707351257678,91.47710031701493,-0.16101944019144182,-0.032572035581241665,0.024795401254849542
1731602219148867,-0.34886524,0.22675925,-9.708436,0.07301183,-0.044632882,-0.12984912,0.026857013,0.019388506,0.1204349,-0.4687830787070679,-0.21939241546734828,91.47749651527324,-0.143127213963653,-0.029708872173218392,0.024762391145306924
1731602219156867,-0.34863913,0.22664389,-9.709572,0.07323737,-0.044476002,-0.12891486,0.028192064,0.019609926,0.116782255,-0.469170122810124,-0.21961153007748044,91.47772884228874,-0.048380512882011194,-0.027389326266519833,0.029040876935800233
1731602219164867,-0.34840068,0.22652365,-9.710698,0.073453136,-0.044330485,-0.12795044,0.0269711,0.018189661,0.12055225,-0.46894801279253445,-0.21988529994678163,91.47800905316178,0.027763752198689744,-0.03422123366264959,0.035026359131618265
1731602219172867,-0.34815693,0.22639646,-9.711816,0.07368534,-0.04418818,-0.12697667,0.029025597,0.017788261,0.12172199,-0.46824881584799055,-0.22018729792070002,91.47828252420172,0.08739961806798884,-0.03774974673979936,0.03418387999126267
1731602219188867,-0.3476332,0.22612837,-9.71402,0.074154034,-0.04390675,-0.12511647,0.029293353,0.017589424,0.11626258,-0.4661216357397974,-0.2209566870793727,91.47902738932926,0.1329487567620724,-0.04808682241704215,0.046554070471400665
1731602219196867,-0.34735355,0.2259877,-9.715128,0.07440173,-0.04376035,-0.12426761,0.030961817,0.018299557,0.106107436,-0.46462529904869876,-0.2212897013020732,91.47941001979912,0.18704208638732853,-0.04162677783756474,0.047828808732853535
1731602219204867,-0.34711322,0.2258231,-9.716588,0.07465284,-0.043634247,-0.1234031,0.031389296,0.0157631,0.10806321,-0.462729030905742,-0.22142349129894837,91.48005885256818,0.23703351786959534,-0.016723749609395752,0.08110409613148571
1731602219212867,-0.34685987,0.22565491,-9.71803,0.07489186,-0.043512452,-0.12250665,0.029876826,0.015224329,0.112056725,-0.4606245281126446,-0.22146966212176167,91.48103595661483,0.2630628491371747,-0.005771352851662909,0.1221380058314057
1731602219228867,-0.34631503,0.22530787,-9.720856,0.07539982,-0.043292698,-0.120715834,0.031747855,0.013734679,0.11192588,-0.4556081895840487,-0.22150828232760592,91.48318817551237,0.31352115803724356,-0.0024137628652644966,0.1345136810961926
1731602219236867,-0.34602395,0.22512905,-9.72224,0.07564752,-0.043197,-0.11990277,0.030961817,0.011962372,0.10163336,-0.45295354832785034,-0.2216669119893504,91.48441143966713,0.33183015702480023,-0.01982870771806267,0.15290801934524115
1731602219244867,-0.34571627,0.22494656,-9.723608,0.07590875,-0.043095943,-0.11901982,0.032654032,0.012631993,0.11036824,-0.4501399487582443,-0.22183039752680064,91.4855455867785,0.35169994620074857,-0.02043569218128009,0.1417683889214681
1731602219252867,-0.34539667,0.22476068,-9.7249565,0.076181956,-0.042990867,-0.11809337,0.034150667,0.013134441,0.11580623,-0.447281366881992,-0.22213268902716246,91.48664550550168,0.3573227345315404,-0.03778643754522523,0.1374898403985094
1731602219268867,-0.34472242,0.22437902,-9.727631,0.07672654,-0.042792436,-0.116282105,0.03403658,0.012401956,0.113204114,-0.44128219740175684,-0.22284386115589988,91.4889277212901,0.37494809251469785,-0.044448258046088415,0.14263848677575425
1731602219276867,-0.34436828,0.2241833,-9.728943,0.076994546,-0.042690646,-0.11543597,0.033500604,0.012723728,0.10576657,-0.4380110113703086,-0.22337991500805654,91.49019195413388,0.408898253931027,-0.06700673151958488,0.15802910547192134
1731602219569608,-0.3440031,0.2239845,-9.730237,0.07725694,-0.042587366,-0.11455453,0.00089633686,0.00035280315,0.0030109924,-0.4344701188553402,-0.22417322351833538,91.4914764933407,0.012095649447697544,-0.0027099330475704618,0.004387971643287181
1731602219577639,-0.34362704,0.22378257,-9.731514,0.0775361,-0.042495083,-0.11361069,0.0347601,0.011490834,0.11752453,-0.43080105584164174,-0.22510629856355915,91.49274054880938,0.4568625343915421,-0.1161841670058247,0.1573970201320931
1731602219593642,-0.34285203,0.22337179,-9.734017,0.078062415,-0.042296827,-0.11171122,0.032888614,0.012388691,0.118694834,-0.42308757025760985,-0.2271041711328622,91.49558983931284,0.4820024735382031,-0.1248436274013016,0.17804727260270015
1731602219601726,-0.34245354,0.22316316,-9.73526,0.07830922,-0.04219465,-0.11076811,0.030530421,0.012639443,0.1166637,-0.41889363350675546,-0.2277091812482727,91.49660135143307,0.5187947489923818,-0.07484043980832668,0.12512520042472514
1731602219609897,-0.3425495,0.222942,-9.736498,0.07827633,-0.041989096,-0.10985027,-0.004025739,0.025156539,0.11232861,-0.41446211337023925,-0.22811099164940823,91.49765356364236,0.5423473426161041,-0.04917518065543355,0.1287739822885154
1731602219618061,-0.34262526,0.22272,-9.73772,0.078263834,-0.041801166,-0.108902976,-0.0015304537,0.02301932,0.1160334,-0.40954472660196733,-0.22865023403207244,91.49830275068116,0.6023256698030278,-0.06605124726411117,0.07951825561144069
1731602219634097,-0.34271833,0.22227341,-9.740116,0.0782278,-0.041410156,-0.1070296,-0.0022468825,0.024383275,0.116823025,-0.39892273276691187,-0.2297466215682689,91.49960768478067,0.6623842501281787,-0.06837038764008829,0.08137528682337854
1731602219642282,-0.34273666,0.22204898,-9.741291,0.07821783,-0.041218687,-0.10611846,-0.0012188549,0.023392638,0.111318134,-0.39356440467387893,-0.23081851635834552,91.50040052614428,0.6546521799673698,-0.13095843495132792,0.09686516354395036
1731602219650515,-0.34273684,0.22182377,-9.74245,0.078204244,-0.041029032,-0.105203025,-0.0016497521,0.023035897,0.1111913,-0.3885610201719103,-0.23234304837824177,91.5011454830076,0.607723126681483,-0.18517332927198515,0.09048425401760254
1731602219658702,-0.34271926,0.22159782,-9.743593,0.078203395,-0.04083332,-0.10429066,-0.00010374572,0.023905199,0.111441106,-0.3840690872819536,-0.23375979074228145,91.5019380563461,0.5486665310805753,-0.17304780310732518,0.09680876249003896
1731602219674757,-0.34263918,0.22112451,-9.745866,0.07817987,-0.040493377,-0.102466255,-0.0014650567,0.021173712,0.11363447,-0.3770062558104653,-0.2359740979783767,91.50440480787552,0.4399147599805872,-0.1379201019056531,0.15364381995661672
1731602219683048,-0.3425744,0.22088683,-9.746981,0.078169435,-0.040331654,-0.101607926,-0.0012589874,0.019505767,0.10352542,-0.37420475788453106,-0.23659394291635044,91.50609947016177,0.3378962641339121,-0.07476117934793733,0.20439781525252476
1731602219691298,-0.34249368,0.2206484,-9.74808,0.07817187,-0.04018252,-0.1007289,0.00029531392,0.018076915,0.10654872,-0.3718170144104581,-0.23693863028859158,91.50782809252951,0.2894234514027812,-0.041780287544378424,0.2095299839678492
1731602219699539,-0.34239745,0.22040917,-9.749166,0.078164496,-0.040028162,-0.099826865,-0.0008950461,0.018730422,0.10945691,-0.36998882788488535,-0.23737483231720036,91.50951574757305,0.22184037441726986,-0.05293071576371497,0.20478765241453917
1731602219715600,-0.34215984,0.2199286,-9.751297,0.07819879,-0.039708506,-0.09805965,0.002135298,0.01990262,0.110031635,-0.3671746292798938,-0.2389028068571172,91.51293930354906,0.1752193888918211,-0.09513570387378484,0.213159577610785
1731602219723895,-0.3420191,0.2196874,-9.752356,0.078232616,-0.039555233,-0.0972267,0.0040778345,0.0184778,0.10041533,-0.36609422295481375,-0.2397077623440059,91.51470215579457,0.13024789934660302,-0.09704104724396613,0.21251986081969923
1731602219732204,-0.34186414,0.21944554,-9.753402,0.07828166,-0.039405685,-0.09634026,0.005902897,0.017998321,0.10668435,-0.36502651623512294,-0.24050650128407633,91.51639672954454,0.12850002644010022,-0.09612937057051599,0.20394436754991416
1731602219740498,-0.3415455,0.21882293,-9.754254,0.07840961,-0.039452706,-0.095378175,0.015426672,-0.0056692325,0.11599783,-0.363761429825139,-0.2412603633956828,91.51809121299465,0.15253031227199876,-0.09089246583150283,0.204302320969268
1731602219756569,-0.34087735,0.21759963,-9.755931,0.07864015,-0.039507296,-0.093474,0.014344837,-0.003396827,0.118485145,-0.36156884528734934,-0.2425520543938981,91.52014119735891,0.1364311205145706,-0.0803740276407987,0.12755798421099468
1731602219764908,-0.34052837,0.21699859,-9.756755,0.07875799,-0.039521802,-0.092586644,0.014130997,-0.0017395708,0.106410444,-0.36040386230080995,-0.2433160819532717,91.52109108345185,0.13970296037167573,-0.09162100484154022,0.11390887311919866
1731602219773208,-0.34016958,0.21640444,-9.757571,0.07888784,-0.039533418,-0.09171302,0.015645321,-0.0013994524,0.10525606,-0.3590862153679859,-0.2443579086796221,91.52204770685815,0.1587526425089214,-0.12552129233137468,0.11525583208448209
1731602219781496,-0.33980113,0.2158168,-9.758379,0.07903446,-0.0395494,-0.09082842,0.017690634,-0.0019282693,0.10673263,-0.35760347143449567,-0.24580274703078855,91.52308644593056,0.1789025016276789,-0.17432895163687945,0.12533048653561746
1731602219797564,-0.33903545,0.21466045,-9.759997,0.079343,-0.03955869,-0.089103945,0.019201891,-0.00057822216,0.107323505,-0.3539943980725929,-0.2500529253943764,91.52516392478655,0.2246124820701265,-0.26451197184390224,0.12929293353243365
1731602219805824,-0.33863977,0.2140959,-9.760794,0.07949559,-0.039562315,-0.08830205,0.018473111,-0.0004388266,0.09708125,-0.3522277968719842,-0.2529319312249418,91.52617571707353,0.21387423736182692,-0.34854792137596036,0.12249301295097301
1731602219814058,-0.3382349,0.21353707,-9.761582,0.07964487,-0.03954565,-0.08748214,0.018129686,0.0020237095,0.09957664,-0.35079839438886284,-0.25627656914583496,91.52674324596585,0.173597581141775,-0.4061984358626644,0.06892505371826323
1731602219822298,-0.33782104,0.2129839,-9.762362,0.07979015,-0.03951654,-0.08665808,0.017631834,0.0035331484,0.10000686,-0.3493068203924049,-0.2600916153766814,91.52744059501781,0.18101626170605575,-0.4629910474328178,0.08462973931627725
1731602219838475,-0.33696702,0.21189402,-9.763895,0.08007808,-0.039436247,-0.085008964,0.017798584,0.0049632923,0.1019422,-0.34584319111587314,-0.26825062987403353,91.5287260489446,0.21410825718809398,-0.504358935362066,0.07946182399684266
1731602219846706,-0.3365271,0.211357,-9.764665,0.08023072,-0.039394222,-0.08422474,0.018544532,0.005105698,0.09527709,-0.34366861198339055,-0.272281900396443,91.52937560431296,0.26419379570922086,-0.48976679898061487,0.07891572935896386
1731602219854974,-0.33607876,0.21082507,-9.765426,0.08038013,-0.03933967,-0.083444506,0.018070452,0.0065981075,0.09436772,-0.34101936305336034,-0.27602510035605254,91.52997071976976,0.32042197992624366,-0.4527334252067711,0.07197816361945146
1731602219863167,-0.33562216,0.2102981,-9.766177,0.08051933,-0.03928564,-0.08264576,0.016990924,0.0065943957,0.09749138,-0.33797130204408654,-0.27970936372931104,91.5305722987047,0.37203234581640493,-0.44968428820438067,0.07342596544965574
1731602219879211,-0.33464763,0.20972924,-9.767545,0.0807325,-0.03915329,-0.081002705,0.013286497,0.008249321,0.10240926,-0.33102098425591786,-0.28734619570001796,91.53062819848556,0.4332035519925641,-0.47599301737141125,0.003484154878277111
1731602219887419,-0.3341457,0.20944722,-9.768218,0.08082967,-0.039081074,-0.080248795,0.011838508,0.008798094,0.09185056,-0.32717971085324343,-0.2916273115306168,91.52875636694237,0.46799139896131026,-0.5215784394004368,-0.22804965194823115
1731602219895642,-0.33363733,0.20916326,-9.768884,0.08092968,-0.038983144,-0.079488166,0.012162124,0.011909331,0.09250028,-0.32281768726330995,-0.2963816393538424,91.52683018475393,0.5304662033240246,-0.578174367411602,-0.2342432431520138
1731602219903824,-0.33312252,0.20887755,-9.769543,0.08105281,-0.038885787,-0.07872776,0.015048679,0.011898892,0.09293647,-0.31819848771253506,-0.30121310339629626,91.52495179599569,0.5645562882883043,-0.590499149652151,-0.22957574654612461
1731602219919866,-0.33207393,0.20830116,-9.770867,0.08127226,-0.038691923,-0.07729243,0.013679679,0.012084784,0.08947338,-0.30873927728434786,-0.3105264391732219,91.52120220454908,0.5896528131272417,-0.5805595173248769,-0.23373590865307506
1731602219928156,-0.33154052,0.2080107,-9.77152,0.08137685,-0.038580384,-0.076637015,0.012616556,0.013454634,0.07906064,-0.3037515904018717,-0.3150866189013665,91.51928976199635,0.6016510111551426,-0.5500819937448204,-0.23069270841222217
1731602219936274,-0.33100122,0.20771885,-9.772166,0.081482045,-0.038485195,-0.07597175,0.01295821,0.011725624,0.08194905,-0.2987130910061408,-0.31963431399159187,91.51735674351923,0.6206577230513594,-0.5601989517400079,-0.23811511174074915
1731602219944409,-0.33045614,0.20742573,-9.772806,0.081587374,-0.03837025,-0.07529164,0.012947616,0.014129543,0.083603114,-0.2937503862993343,-0.3239678972483068,91.51541680520509,0.6100436025576513,-0.5327084519625008,-0.2384681394156456
1731602219960450,-0.3293712,0.20682456,-9.774066,0.08173933,-0.038164124,-0.07402577,0.009472888,0.012850057,0.07891457,-0.2840323080335983,-0.3318950219144574,91.51259606377279,0.6058274587454651,-0.4941789580543983,-0.175845734823288
1731602219968707,-0.32882062,0.2065225,-9.774702,0.08181533,-0.038051873,-0.07346985,0.00920472,0.013594581,0.06732773,-0.2790759075062198,-0.33508568143863177,91.5117149910438,0.6002665044663321,-0.38641873854600395,-0.10670615586510317
1731602219976972,-0.32826483,0.20621958,-9.775332,0.08186799,-0.037933692,-0.07291345,0.006371531,0.014298985,0.067319356,-0.2740144358373527,-0.3378603335512137,91.5107250311506,0.6123982660456214,-0.33571108440192715,-0.11977736154887922
1731602219985134,-0.32770404,0.20591593,-9.775956,0.08192733,-0.037809603,-0.072355114,0.0072698384,0.01520331,0.06840713,-0.26868272390938197,-0.3403803973310931,91.5097618421195,0.6532359627506419,-0.3087556701640973,-0.11800894769738225
1731602220001178,-0.32633957,0.20413435,-9.778466,0.08226026,-0.03823063,-0.07156901,0.020751009,-0.02624212,0.048996717,-0.2578271338734221,-0.3446540110010584,91.50676293634436,0.6766136896010894,-0.2663683414338917,-0.1869175875803907
1731602220009383,-0.3256523,0.20326012,-9.779689,0.08244011,-0.038405053,-0.07126058,0.021919508,-0.021257991,0.037590697,-0.25260882233644855,-0.3469029451002581,91.5047615379019,0.6359916559382739,-0.2740931260450496,-0.24392424649113892
1731602220017634,-0.32496178,0.20239666,-9.780891,0.08259692,-0.03857909,-0.070916094,0.019005256,-0.021092972,0.041750703,-0.2474536610100146,-0.34964352909356733,91.50271207347646,0.6247923071668835,-0.33215173837222844,-0.2483898224996577
1731602220025868,-0.3242772,0.20154978,-9.782074,0.082710505,-0.038740423,-0.07050221,0.013794523,-0.01959329,0.050265633,-0.24238866541148557,-0.3526952669100244,91.5006969268926,0.6151318433967745,-0.3706264047190993,-0.24473482922701684
1731602220041921,-0.32289907,0.1998859,-9.784398,0.082959406,-0.039066125,-0.06963638,0.015504986,-0.020289175,0.05393537,-0.231688619007868,-0.36016094153649253,91.49616809704659,0.6665449700129309,-0.46506413919318224,-0.2821173516480515
1731602220050189,-0.3222056,0.19906834,-9.785532,0.08307263,-0.03920676,-0.069228955,0.013694542,-0.017009366,0.049277645,-0.226015545478347,-0.36489187605289697,91.49398916298333,0.6861482256314664,-0.5721981756657483,-0.2635382272934415
1731602220058458,-0.3215094,0.19826011,-9.786646,0.08315755,-0.039332066,-0.06875127,0.010268989,-0.015153899,0.057768356,-0.22018574280520517,-0.3704891712541305,91.49186520671189,0.7050190679818428,-0.6769011006450038,-0.2568576939694227
1731602220074696,-0.32010928,0.19667101,-9.788816,0.08334443,-0.039527506,-0.06767694,0.011508985,-0.012035959,0.06616141,-0.20820998296001478,-0.3842223381944604,91.48787027777846,0.737514462691857,-0.8457425138767027,-0.24602345938168022
1731602220082790,-0.31940535,0.19588989,-9.789873,0.08341613,-0.03960228,-0.067142114,0.008858035,-0.009238205,0.066076726,-0.2020453317815731,-0.39192064490306194,91.48601322679652,0.7616322187350733,-0.9511127636028643,-0.22943550555223588
1731602220091009,-0.3186946,0.19512273,-9.790922,0.083492614,-0.0396429,-0.06662356,0.009306201,-0.004942276,0.06309198,-0.19574271394363904,-0.3999417997058154,91.48416991683114,0.7668351183762103,-0.9759283127817774,-0.22427423839654595
1731602220099304,-0.3179816,0.19436435,-9.791953,0.08355496,-0.0396388,-0.06605376,0.0075161494,0.0004944599,0.06869175,-0.1893975677500096,-0.4080786516095959,91.48192348159262,0.764936249985465,-0.9809345272791397,-0.27081799138216084
1731602220107511,-0.31726646,0.19361466,-9.792966,0.08360763,-0.03963813,-0.06542624,0.0064174673,8.1251004e-05,0.07646219,-0.18321110546676045,-0.41618768332475364,91.47985457215923,0.753803129432089,-0.9880628384498329,-0.25209082897533314
1731602220123552,-0.31571084,0.19230844,-9.795143,0.08359991,-0.039451614,-0.064207636,-0.00048119205,0.01162757,0.07596796,-0.17081540530672634,-0.4323827193824882,91.47590854468875,0.7727510853459326,-1.0096026468259158,-0.24599635125419633
1731602220131801,-0.3148748,0.19174865,-9.796305,0.08357471,-0.03929032,-0.063703544,-0.0030546568,0.019553145,0.061109394,-0.16434258354185338,-0.44058580117209556,91.47452987928523,0.7846795690232714,-0.9944334815865468,-0.16713121633293257
1731602220140048,-0.31404117,0.1911941,-9.797444,0.08354985,-0.039118893,-0.06313558,-0.003014743,0.02078655,0.06886931,-0.15760017461788894,-0.44881578668790645,91.47321292769168,0.8175589819285126,-0.9979368880575825,-0.15968856475713114
1731602220148209,-0.31320995,0.19064482,-9.798563,0.08350132,-0.038930375,-0.06251911,-0.005946953,0.023099903,0.07553835,-0.15060610295137095,-0.45727492026031646,91.47190945382502,0.8570115998674168,-1.0365315001115039,-0.1597198709295367
1731602220164266,-0.3115712,0.18956566,-9.800754,0.083340116,-0.038515233,-0.06126512,-0.010039283,0.025854308,0.0780963,-0.13567114819482937,-0.473736539688368,91.46954192180031,0.9301211158087799,-1.0251989430187158,-0.14744547703165625
1731602220172478,-0.31076384,0.189036,-9.801819,0.08322279,-0.03828221,-0.060666837,-0.014286933,0.028376078,0.072854556,-0.12762829737128759,-0.4815262142179112,91.46851182963329,0.979402194781027,-0.9485721541090131,-0.12543742901011604
1731602220180674,-0.30995908,0.18851185,-9.802864,0.08309957,-0.03805248,-0.06002679,-0.015034792,0.028029218,0.07809246,-0.11939568470848202,-0.4887222898997159,91.46765961815764,1.0044671379704184,-0.8779984970479155,-0.10397895017700015
1731602220188862,-0.30915704,0.18799324,-9.803889,0.08297449,-0.03780578,-0.059375647,-0.015275146,0.030129446,0.07952412,-0.11110995179636023,-0.49552242094277843,91.46683419279871,1.0119361153055448,-0.8304996388693877,-0.10080915472984714
1731602220204920,-0.30756083,0.186973,-9.805882,0.08270818,-0.037290975,-0.0579999,-0.016584478,0.03205912,0.085673556,-0.0947728599471088,-0.5082681496865195,91.4655594139063,1.017380237218298,-0.793730772433744,-0.07938590686240221
1731602220213111,-0.30676687,0.18647137,-9.806858,0.08252831,-0.037019644,-0.05731573,-0.021959702,0.03312557,0.08352728,-0.08698416798527729,-0.5141900527075401,91.46512345538174,0.9508841364706995,-0.7229768063753719,-0.0532240904124459
1731602220221305,-0.3059758,0.18597548,-9.807816,0.08235837,-0.036725592,-0.056610312,-0.0207396,0.035886265,0.086089484,-0.07946538032105274,-0.5196643519611486,91.46477608855875,0.9175967371521307,-0.6680863135963334,-0.04239282682297414
1731602220229503,-0.30518407,0.18548018,-9.808754,0.08218581,-0.03643566,-0.055878717,-0.021048483,0.035366178,0.089240655,-0.07207856022140711,-0.524916558764476,91.46451775023345,0.9010514881246184,-0.6406692855974002,-0.031512359758252416
1731602220245541,-0.30360937,0.18450743,-9.810574,0.081807576,-0.035817716,-0.054377597,-0.02358375,0.03852997,0.09359774,-0.05734074405579852,-0.5345408133731087,91.46510077046015,0.9189310491089037,-0.6000906976326632,0.036352427154370405
1731602220253727,-0.30269596,0.18441671,-9.8113365,0.08168508,-0.03523464,-0.053705055,-0.014963961,0.07122831,0.08215753,-0.05000043154516416,-0.5392251414125908,91.46555974822532,0.8966909981229363,-0.572236506166886,0.05606862511088021
1731602220261900,-0.30178806,0.18432507,-9.812085,0.08155093,-0.03463742,-0.053018406,-0.016413521,0.0730723,0.08401434,-0.04296161605460466,-0.544198968734527,91.46771992468301,0.8612278833426522,-0.6085681294428182,0.2643064306480674
1731602220270114,-0.30088565,0.18423276,-9.812821,0.081409626,-0.03403626,-0.05232515,-0.017203277,0.073187396,0.0843991,-0.036127837641351496,-0.5488214028103905,91.47002367271972,0.8319671796022848,-0.5627506788243863,0.28046603807079307
1731602220286162,-0.29909724,0.18404695,-9.814273,0.08108096,-0.032861236,-0.050943527,-0.020480277,0.07321932,0.086093254,-0.023010231409811868,-0.556398943007312,91.47481571776936,0.8173981948865672,-0.4721797231381763,0.2986069946191348
1731602220294383,-0.29821125,0.18395363,-9.814979,0.08089154,-0.032281384,-0.050304044,-0.023040518,0.0705331,0.07778656,-0.016530751729628448,-0.5589908024119901,91.47733062381101,0.7881619851822678,-0.31527300871890646,0.305912424480251
1731602220302560,-0.29732624,0.18386725,-9.815673,0.08070401,-0.0316989,-0.04962205,-0.022933975,0.07123427,0.083403766,-0.010066206775591497,-0.5607454977479714,91.47998901254896,0.7905766117203068,-0.2145891324423906,0.3251056301750124
1731602220310738,-0.29644653,0.18378086,-9.816354,0.08052284,-0.031119667,-0.04890622,-0.022153132,0.07082834,0.08753157,-0.0037385878169850914,-0.56193416779333,91.48124646689774,0.7737367276359018,-0.14534972430406384,0.15376061980728595
1731602220326777,-0.29470298,0.18360864,-9.817678,0.08011393,-0.0299614,-0.04758463,-0.025494743,0.07221568,0.082398385,0.009189663259165594,-0.5632622233619781,91.48383639878583,0.8060509430856467,-0.08280164403316685,0.16147714247007167
1731602220335094,-0.29383904,0.18352313,-9.818332,0.079894766,-0.029384349,-0.04700627,-0.026351603,0.06938213,0.069539346,0.01567655034542266,-0.563858719829868,91.48518279809785,0.7799551624692879,-0.07172014763616033,0.16188521245989002
1731602220343245,-0.29298034,0.18343818,-9.818974,0.079665296,-0.028817466,-0.046397634,-0.028152425,0.06954766,0.07467034,0.022147216091552825,-0.5643826420776094,91.48675435211506,0.7938493124929659,-0.064277051618376,0.1928050567059441
1731602220351398,-0.2921268,0.18335384,-9.819604,0.07943198,-0.028257933,-0.04574231,-0.028617065,0.06862909,0.080378175,0.02849634758487656,-0.5645858500674323,91.48831233841722,0.7787478833955275,-0.024924321087079267,0.19109362224399243
1731602220367432,-0.2904249,0.18318878,-9.820831,0.078991555,-0.027157636,-0.044519745,-0.027468266,0.068622686,0.07624833,0.039983035073426605,-0.5633850659825954,91.49151663387406,0.7163956273263095,0.074889864340586,0.1998437979823111
1731602220375646,-0.289267,0.18298632,-9.821649,0.0788757,-0.026686262,-0.044060238,-0.014104764,0.057386663,0.055941943,0.045101992705573184,-0.5620463910653186,91.4928896360244,0.6231991273614051,0.1629747890524423,0.16715390191673182
1731602220383837,-0.2881212,0.18278722,-9.822451,0.07874864,-0.026223077,-0.043562982,-0.015511507,0.056548145,0.060707543,0.05008102600573529,-0.5602456960851808,91.49454968871927,0.6078663533344041,0.21983823466460578,0.20266789096192964
1731602220392014,-0.28698725,0.18259147,-9.823237,0.07860745,-0.025769359,-0.043031186,-0.01726745,0.055487096,0.065035634,0.05523169942503959,-0.5580484049752751,91.49623687507336,0.6298976909996695,0.2687160462156963,0.2063331728120639
1731602220408055,-0.28475377,0.18221016,-9.824775,0.07831641,-0.024849981,-0.041977864,-0.01814317,0.057314225,0.065664366,0.06612188454168706,-0.5527047048491244,91.49963137120851,0.6788968964932035,0.3331276183623655,0.21161374821660378
1731602220416299,-0.28365386,0.18202448,-9.825513,0.07817687,-0.024456277,-0.037198838,-0.016926482,0.047756378,0.57969743,0.07311225377645698,-0.5510206649382895,91.50029361381009,0.8479341623932459,0.20427461315319562,0.08033025249741098
1731602220424603,-0.2825641,0.18184043,-9.82614,0.07820103,-0.024358641,-0.01882628,0.0029097102,0.011757723,2.212495,0.10846260632845715,-0.5776522242179075,91.49579758968444,4.257027041425839,-3.207076021148615,-0.5414287241863918
1731602220440785,-0.2804368,0.18147962,-9.826904,0.07844937,-0.024367837,0.021316353,0.015346391,-0.0005682783,2.4806967,0.43108078139396533,-0.8749407361299428,91.46373886622172,19.936854224787307,-18.37155555011959,-1.9811348079796405
1731602220448838,-0.27939925,0.18130344,-9.827021,0.0783374,-0.0241387,0.043403853,-0.013903803,0.028453622,2.7427666,0.7568289801372843,-1.1660165068656656,91.43335169687104,40.450540015313415,-36.14501064643272,-3.7733974109877013
1731602220457054,-0.27837208,0.18112977,-9.826954,0.07786329,-0.0235667,0.06572544,-0.057705726,0.069620214,2.7168434,1.1974248554306115,-1.539337678384354,91.38555139164326,53.62656709996681,-45.43831201541973,-5.817953411364361
1731602220465273,-0.27735958,0.18096268,-9.826722,0.076623484,-0.022335548,0.08195596,-0.15084638,0.14979348,1.9747565,1.7173025412936915,-1.9631800565552067,91.31275964478232,63.25315559837936,-51.568606663931476,-8.856521092705064
1731602220473437,-0.27636772,0.18080723,-9.826361,0.07465944,-0.020532228,0.09672688,-0.24057418,0.22088681,1.8092747,2.290850299061341,-2.4159127667724207,91.21475862602266,70.2532775315592,-55.454766072662196,-12.004044434059907
1731602220489474,-0.27447045,0.1805506,-9.82531,0.06826076,-0.0150537435,0.119790524,-0.39899468,0.3416153,1.4381521,3.5450458550356427,-3.365591358350628,90.9346092234668,78.20637001772786,-59.21797041704852,-17.468940734293923
1731602220497695,-0.27357757,0.18045904,-9.824639,0.06376139,-0.011341119,0.12938432,-0.5473018,0.4516025,1.166987,4.212842335895134,-3.8533507361769423,90.75005985568889,81.23056572916819,-59.33090595138234,-22.44853032209044
1731602220505911,-0.27280095,0.17946558,-9.823503,0.058434654,-0.0075077913,0.13706042,-0.648337,0.46656862,0.9342861,4.896129816824283,-4.343317553256932,90.53409137776447,83.16546749381074,-59.635688544302546,-26.28632886129725
1731602220514118,-0.27207404,0.1785268,-9.822309,0.05228592,-0.0030606803,0.1451162,-0.74920595,0.54186803,0.9815738,5.591690470396875,-4.83190674335154,90.28758379736617,84.75212057665311,-59.533226525479265,-30.036259339380337
1731602220530173,-0.27080235,0.1768285,-9.819717,0.03764633,0.007547348,0.16374461,-0.91183996,0.66073054,1.1602877,7.035179821416567,-5.8045566235172785,89.70301222954609,89.90902217500417,-60.58236562851066,-36.4105616829702
1731602220538383,-0.2702673,0.17607856,-9.818323,0.028960247,0.0138488645,0.17253748,-1.0579884,0.76754165,1.0709943,7.7744029673995225,-6.285525456347916,89.36691967914564,90.03936004664493,-58.58329267121032,-40.93697325218542
1731602220546569,-0.26980603,0.1753989,-9.816845,0.01981147,0.02051636,0.18406989,-1.1176125,0.8144998,1.4087968,8.531984349465395,-6.762913170903078,89.00043169137348,92.54597875224434,-58.31758057111678,-44.77009379088232
1731602220554747,-0.26942617,0.1747948,-9.815288,0.009401676,0.028135348,0.19324245,-1.2729021,0.9316444,1.1216139,9.303822738763161,-7.23528609570856,88.60200090722412,94.37984706502404,-57.76142391849872,-48.719831761966134
1731602220570786,-0.26894733,0.17383873,-9.811979,-0.014674814,0.045811746,0.20873462,-1.5011216,1.1020885,0.96590626,10.877167915559022,-8.158503940910524,87.70874752701495,98.09496706751433,-57.56081084867917,-55.69258558570838
1731602220578959,-0.26886478,0.17349829,-9.8102455,-0.028195975,0.05579579,0.21609552,-1.6543694,1.2215885,0.9006369,11.674354620097098,-8.607786077284493,87.21517299407607,97.53905598165609,-54.971508182303694,-60.39086417947809
1731602220587174,-0.26889488,0.17325883,-9.808428,-0.041053697,0.065278664,0.23114204,-1.5651518,1.1543367,1.8315912,12.481970410203711,-9.046503183819539,86.69422597827715,98.30989532642893,-53.40439519598844,-63.41412243443933
1731602220595369,-0.2690339,0.17311351,-9.80649,-0.055047832,0.0756661,0.24487627,-1.7076432,1.2675333,1.675927,13.302847261212673,-9.47226814843427,86.14299190203961,100.16801110542549,-51.9542360725727,-67.26468288438528
1731602220611403,-0.26966172,0.17312281,-9.802243,-0.08234354,0.09604899,0.2854488,-1.7023643,1.2712291,2.5304058,14.99310314417039,-10.275749246258254,84.96913587107998,105.41698159895957,-50.11108256355138,-73.210429771712
1731602220619617,-0.27013263,0.17326331,-9.799811,-0.09417991,0.10487899,0.31727204,-1.4409999,1.0749943,3.8742695,15.884901555810433,-10.635804603290017,84.35894988848183,108.5705395227711,-43.83435074650161,-74.28609478915908
1731602220627773,-0.2695546,0.17283855,-9.7972,-0.10394908,0.11204866,0.35700914,-1.1977887,0.8790671,4.872132,16.8252791735595,-10.955333780342437,83.73770272182436,115.29887417227404,-39.17719188970328,-76.17056972259338
1731602220635929,-0.26909092,0.17250328,-9.79428,-0.11503391,0.120216645,0.39421183,-1.3591017,1.0014691,4.561389,17.81297750759119,-11.232579306393317,83.10327432542636,121.10082565371378,-33.99283056043148,-77.78670872952452
1731602220651959,-0.26858845,0.1721603,-9.787731,-0.14791334,0.1443281,0.44183457,-2.0511184,1.5041457,2.9708507,19.889033473402385,-11.686373559663274,81.77126884744762,129.51066536563908,-28.309061339360934,-83.0945401109632
1731602220660094,-0.26861244,0.17218845,-9.784217,-0.1685078,0.15927766,0.4577347,-2.5315871,1.837684,1.954534,20.954898125057245,-11.876656911807721,81.06710298407314,131.02208379285327,-23.390700939698636,-86.56003237547255
1731602220668211,-0.26883605,0.17236608,-9.780582,-0.19096185,0.17544132,0.47167632,-2.7662997,1.9913346,1.7175825,22.03067234156237,-12.047210014180031,80.33715180023286,132.53347499139122,-21.011839641777613,-89.92869087597475
1731602220676329,-0.26926193,0.17269419,-9.776812,-0.21203327,0.19052629,0.492169,-2.5956416,1.8582122,2.52435,23.124796793571644,-12.18991036135769,79.58771429688676,134.77758709155898,-17.578264003160875,-92.31799745578994
1731602220692355,-0.27072796,0.17380366,-9.768798,-0.25984094,0.22438747,0.52748233,-2.9831314,2.11289,2.203503,25.37105751912992,-12.382974542171674,78.02413403076022,140.16352961177327,-12.04693503144784,-97.56522314529761
1731602220700478,-0.27180064,0.17460597,-9.764597,-0.28656578,0.24314389,0.5427949,-3.2900214,2.3090508,1.8850858,26.50927997501313,-12.443066841961683,77.20527247623397,140.1234095633641,-7.397796354796158,-100.80777477856066
1731602220708601,-0.27311632,0.17558388,-9.760273,-0.31467265,0.26279405,0.55787414,-3.4601586,2.419077,1.8563658,27.652643021229228,-12.48109777298997,76.36056197248509,140.75625338127512,-4.681882436081233,-103.98996722256312
1731602220716714,-0.27468455,0.17674349,-9.755825,-0.34396878,0.28321707,0.5731226,-3.6110108,2.517321,1.8795117,28.798623286365284,-12.49792952135335,75.49075923309317,141.25234378602943,-2.074663917586599,-107.21098722937516
1731602220732801,-0.27850997,0.17957868,-9.746433,-0.39647898,0.31981668,0.62267584,-3.264139,2.2751045,3.0803268,31.159870289068348,-12.420632998322436,73.74738085532408,146.77982238472458,4.804906012986565,-108.37187653192572
1731602220740961,-0.28075966,0.18123768,-9.741399,-0.42103782,0.33691648,0.6537518,-3.0096622,2.0955634,3.808328,32.40996736152572,-12.29714501391661,72.89480583338401,153.19817064428608,15.133331422282385,-104.48223308089045
1731602220749105,-0.28323847,0.18305974,-9.736126,-0.44904104,0.3562501,0.6808508,-3.438509,2.3739724,3.3274822,33.701307097970414,-12.117501897380068,72.04490995405824,158.56332716658807,22.05833945684472,-104.35853135139577
1731602220757223,-0.2860191,0.18488781,-9.730811,-0.4763289,0.3750265,0.7109907,-3.3614032,2.3129327,3.7127278,35.0256405520651,-11.889600019034887,71.19888928075316,163.1354341087317,28.073648478095674,-104.21540691119476
1731602220773253,-0.29224285,0.18902951,-9.719339,-0.52628183,0.4088936,0.78493047,-3.1162148,2.1127317,4.612585,37.80683100959025,-11.261204521859762,69.53547536040462,173.49909279632863,39.20121629289615,-103.76880351519365
1731602220781402,-0.2957022,0.19134998,-9.713169,-0.5575999,0.4297245,0.81559443,-3.8431795,2.5562558,3.7629118,39.25128029503284,-10.868398232322175,68.715179484281,177.2547902126147,48.20300521997628,-100.66215193565053
1731602220789559,-0.29944465,0.19386819,-9.706762,-0.593039,0.45301887,0.84289193,-4.344621,2.8557508,3.3465118,40.70842733835327,-10.437955569565064,67.89054401537271,178.63761717793585,52.76972695318274,-101.09543568815498
1731602220797697,-0.30352527,0.19659594,-9.700137,-0.63126,0.47800142,0.868907,-4.6966085,3.0698626,3.1967366,42.168324991893165,-9.97572131213201,67.05673543146993,179.3926829122508,56.79949096007068,-102.4586610841467
1731602220813732,-0.3126842,0.20273495,-9.686246,-0.71341115,0.5311641,0.9211544,-5.1232414,3.3154159,3.2583354,45.07432069715214,-8.949625127141077,65.31414927403327,181.22829468406456,63.99103118122426,-108.67391066022188
1731602220821883,-0.31778812,0.20616011,-9.678978,-0.75660896,0.55896014,0.9483945,-5.2996945,3.4101372,3.341933,46.515399688767545,-8.394864910491615,64.42295023529408,176.7978151902106,68.06038727143448,-109.33615982568983
1731602220830019,-0.323255,0.20983,-9.671482,-0.80097914,0.5874929,0.97667223,-5.453562,3.5069745,3.4756339,47.94536398390647,-7.812124181678666,63.51854894916347,175.75765672798929,71.6249666682583,-111.16043339855025
1731602220838153,-0.32909346,0.21375011,-9.66375,-0.8463785,0.61674094,1.0061064,-5.581432,3.595778,3.6186557,49.36243864711202,-7.201033596761242,62.60108082013308,174.21621136040767,75.12793028244697,-112.79421306004313
1731602220854254,-0.3419147,0.22236198,-9.647539,-0.93992156,0.67736137,1.0686858,-5.8097663,3.7650099,3.8866773,52.15317513126519,-5.893449019118765,60.726705150805074,173.32690417695605,81.21138920827761,-116.41361836705845
1731602220862400,-0.3489109,0.22706483,-9.639041,-0.98792815,0.7088114,1.1018986,-5.893272,3.8607945,4.077189,53.52478398819792,-5.195635063519566,59.77061431523669,168.37820487757506,85.66338762573028,-117.36936356105838
1731602220870562,-0.3563357,0.23205271,-9.630267,-1.0363642,0.7414316,1.1364528,-5.934335,3.9965928,4.233551,54.87853099672744,-4.46750429060011,58.80281618729776,165.8597168009706,89.20984720895066,-118.57364958820511
1731602220878707,-0.36415848,0.23732483,-9.621207,-1.0854276,0.7748789,1.1723417,-6.0237503,4.106486,4.4062505,56.20560063122674,-3.689408355297986,57.784404989338015,162.93058741550635,95.5305015717771,-125.03513787105565
1731602220894742,-0.38160405,0.24926588,-9.602247,-1.1857986,0.8445275,1.2481232,-6.2594953,4.343534,4.7260036,58.79506632341399,-2.0442294731873685,55.718783123935076,161.4883499960868,102.59924428504007,-128.81957377006148
1731602220902898,-0.3909348,0.25568032,-9.592294,-1.2366264,0.8807018,1.2880541,-6.231945,4.435299,4.895898,60.05558644199823,-1.1757390700868133,54.67145888250939,154.55126515255506,106.48484589266246,-128.4115058148217
1731602220911051,-0.40067464,0.26240054,-9.582011,-1.2877653,0.91785264,1.3293636,-6.2724004,4.5567102,5.0667825,61.290560809664754,-0.2759133881147018,53.61343016313328,151.47483965000885,110.3674330886927,-129.77170604392344
1731602220927199,-0.42128366,0.27671102,-9.560345,-1.3744133,0.9829528,1.4265848,-5.365865,4.0314674,6.020638,63.735253462161644,1.6306682489298656,51.51719342979004,151.3929063968845,118.06921210332966,-129.81401618424817
1731602220935238,-0.43209994,0.28427446,-9.548906,-1.418741,1.0174104,1.4764997,-5.5140853,4.286307,6.209085,64.95872276710544,2.6452251436393643,50.487889859139386,152.19172844182103,126.20436555659894,-128.03875738906004
1731602220943393,-0.44326907,0.29213428,-9.53707,-1.4668008,1.0550978,1.5256435,-5.893295,4.621388,6.0262156,66.16875320974508,3.696707910092284,49.459581862647354,148.37896292331482,128.9371877931232,-126.09540116395266
1731602220951551,-0.45483416,0.3003161,-9.524837,-1.5167824,1.095218,1.5750823,-6.126697,4.917887,6.060166,67.36283300962648,4.773691402357776,48.446627505547106,146.36918360890053,132.01562788250692,-124.16699645749594
1731602220959701,-0.46680647,0.30883682,-9.5122,-1.567737,1.1371659,1.625395,-6.2520957,5.146989,6.1733446,68.52957281640626,5.8849741289684685,47.42631418750608,143.15825850058621,136.35370878658813,-125.19181816454305
1731602220975738,-0.49199042,0.32694507,-9.485688,-1.6705629,1.2253059,1.7294719,-6.41179,5.496041,6.489796,70.76620762517749,8.206260992616189,45.35475432466313,139.46715774591422,144.74570453624244,-129.17377706821387
1731602220983892,-0.5052036,0.33655357,-9.471793,-1.721882,1.2712387,1.7834325,-6.293736,5.6331577,6.6176796,71.83153947109234,9.415742059070073,44.30017919837056,130.65144050954717,148.32978494651522,-129.33224506899333
1731602220992053,-0.5188289,0.34654456,-9.457458,-1.7728978,1.3183604,1.8386925,-6.251177,5.7740183,6.771237,72.85913247979144,10.657827753943554,43.232219957908654,125.91508500172873,152.19773249276807,-130.86132097315337
1731602221000204,-0.53286344,0.35692737,-9.442673,-1.8234909,1.3666357,1.8952507,-6.2069707,5.9226146,6.9387965,73.84642071119225,11.93269492973927,42.15034866461418,121.12479835612983,156.40622939464066,-132.72865823757542
1731602221016242,-0.56614906,0.37870276,-9.410821,-1.9279057,1.4631002,2.0123777,-6.5104637,6.014747,7.3030963,75.71911090510427,14.545749046479019,40.01953024333911,116.76581830103619,162.9289260967545,-132.86060738714696
1731602221024397,-0.58339214,0.3901635,-9.39419,-1.973166,1.5080884,2.0747378,-5.5500073,5.5166345,7.646848,76.5959646653133,15.878750511642188,38.964077970213516,107.52345312189154,163.45818089064005,-129.42394520240367
1731602221032559,-0.60095495,0.40199304,-9.377066,-2.0187273,1.5551956,2.1377332,-5.582126,5.7715287,7.718137,77.4012055653885,17.2569336776071,37.841629647095615,98.65730214104265,168.85361014027353,-137.52123537342538
1731602221040712,-0.61884964,0.41421783,-9.359444,-2.0654676,1.6055771,2.201027,-5.732895,6.1795096,7.76324,78.15008449451595,18.66449968526111,36.69510266066185,91.85317418465074,172.6439356867423,-140.62639352799752
1731602221056750,-0.6556532,0.4399332,-9.322696,-2.1587114,1.7126054,2.3295722,-5.8139315,6.6734157,8.015044,79.47252667603145,21.568556292796988,34.32758932218297,82.45680144129543,181.07348843595696,-147.61898855710675
1731602221064905,-0.6745544,0.45344654,-9.303561,-2.2025254,1.7660621,2.3954918,-5.372648,6.555093,8.08334,80.03702491120869,23.059978294889806,33.09915816661468,69.22112019340757,182.88436567661762,-150.63533483363506
1731602221073062,-0.6937503,0.46736985,-9.283897,-2.2418425,1.8160081,2.4631326,-4.820048,6.1230783,8.29236,80.50793684232015,24.573420572252626,31.817435047564008,57.73102011909584,185.53908022101513,-157.13168064860503
1731602221081143,-0.7132352,0.48171386,-9.263701,-2.2824616,1.8703089,2.5306392,-5.0264983,6.7195625,8.353737,80.88938815776646,26.110582080999887,30.48634611417312,47.203479203849504,190.21921900102222,-164.71834344646572
1731602221089143,-0.73301536,0.49650663,-9.242973,-2.3231056,1.9274529,2.598287,-5.080491,7.1430054,8.455992,81.18455307415785,27.670375692938737,29.109109086545804,36.89561454892447,194.97420149235643,-172.15462845341452
1731602221105143,-0.7733979,0.52733845,-9.199893,-2.3958602,2.0347762,2.7363389,-4.5471635,6.707705,8.628234,81.41883842137446,30.838065377320817,26.138123830570418,14.642834201038005,197.9806052738799,-185.68657849846167
1731602221113143,-0.7939951,0.54337335,-9.177536,-2.4327414,2.092561,2.8050265,-4.610151,7.223099,8.585959,81.37367086993856,32.43633369847613,24.585502944538963,-5.645943929487851,199.78354014441473,-194.07761075393182
1731602221121143,-0.8148664,0.5598728,-9.154637,-2.4689672,2.1526253,2.873532,-4.5282245,7.508039,8.56319,81.21425861473911,34.04961916766204,22.96269068012197,-19.926531899930524,201.66068364823815,-202.85153305212393
1731602221137143,-0.8606779,0.5948664,-9.107072,-2.5365016,2.2619662,3.012192,-4.220903,6.8338065,8.666246,80.40393289879894,37.28621899771559,19.38539942170101,-50.645357246260936,202.28748937834675,-223.58070365131013
1731602221145143,-0.88555557,0.6132638,-9.082397,-2.569484,2.314049,3.0815513,-4.1227937,6.510347,8.669912,79.7484592379907,38.88168659380067,17.49962101100297,-81.93420760102919,199.4334495106356,-235.72230133725492
1731602221153143,-0.91062814,0.6320442,-9.057181,-2.602787,2.37063,3.1497238,-4.1628776,7.072627,8.521557,78.89016862488172,40.47139665095163,15.469596304929626,-107.28632663862228,198.71375714387025,-253.75308825916798
1731602221161143,-0.9358978,0.65123576,-9.031432,-2.635516,2.4299026,3.2168562,-4.0911136,7.4090657,8.391559,77.84102527318795,42.052218011035244,13.303670465170086,-131.14291896172145,197.6026700104512,-270.7407299699424
1731602221177143,-0.98702663,0.6909533,-8.978364,-2.6969051,2.553747,3.3481193,-3.8368254,7.7402735,8.2039385,75.16294878448133,45.167006433668355,8.548069090552465,-167.37978054416422,194.67427641456933,-297.22508591360133
1731602221185143,-1.0128593,0.7115126,-8.951066,-2.7252214,2.6173348,3.412161,-3.5395322,7.9484878,8.005231,73.49529547535603,46.68663267831088,5.899277053704716,-208.4566636406628,189.95328058031578,-331.0990046059686
1731602221193143,-1.0388495,0.73253447,-8.923267,-2.7515688,2.6795077,3.4754694,-3.2934246,7.7716107,7.9135294,71.59524323886691,48.162119983481496,3.0700457582403375,-237.50652956113888,184.4359131463271,-353.6539119330472
1731602221201143,-1.0649793,0.7539906,-8.894968,-2.775475,2.7382543,3.5384314,-2.9882786,7.343322,7.8702564,69.39798302687188,49.574294616499095,0.004892537905494752,-274.6575264993792,176.52182912720028,-383.14415254185536
1731602221209143,-1.0912414,0.7758841,-8.866179,-2.7988126,2.7995987,3.599401,-2.9172,7.668048,7.6211987,66.90516178204493,50.91308335227394,-3.297323368320703,-311.6026556033696,167.34859197185443,-412.77698827827476
1731602221225143,-1.1441432,0.82102036,-8.80719,-2.841508,2.9206462,3.7174165,-2.6684551,7.5654683,7.3759704,61.021898420721875,53.30603963847256,-10.630631598240557,-367.70396008269074,149.5597678874145,-458.3317643699909
1731602221233143,-1.1707629,0.8442352,-8.777004,-2.8609798,2.980063,3.7742627,-2.4339855,7.427096,7.1057673,57.59033804077815,54.315958150044054,-14.698230661760087,-428.945047492965,126.23981394643631,-508.4498829399413
1731602221241143,-1.1974896,0.86789,-8.746379,-2.8799179,3.041128,3.8287156,-2.367258,7.6331196,6.8066115,53.85593356798369,55.182018542460995,-19.01195118042542,-466.80055909930746,108.25754905211764,-539.2150648331667
1731602221249143,-1.2243204,0.8919936,-8.715337,-2.8981931,3.102824,3.880964,-2.2844076,7.712006,6.5310593,49.84599462288894,55.889420045819534,-23.546422835856525,-501.24236813684394,88.4251879198172,-566.8089569288879
1731602221265143,-1.280502,0.9435024,-8.649529,-2.9330924,3.2281876,3.980249,-2.1812022,7.8352237,6.205305,41.141144030123584,56.769940059013805,-33.14268817692437,-544.0531620478347,55.032500824641744,-599.7665838167404
1731602221273143,-1.3097875,0.97088313,-8.614853,-2.9495363,3.2896879,4.0280585,-2.055496,7.6875386,5.9761996,36.53074807956631,56.89842503060883,-38.140608895884256,-576.2994938196599,16.060621449378257,-624.7400898699854
1731602221281143,-1.3391039,0.99866164,-8.579861,-2.9649575,3.3473148,4.0753703,-1.9276439,7.20337,5.9139724,31.805905741553076,56.79859280820276,-43.19533602614779,-590.6052922516537,-12.479027800758221,-631.8408912829426
