timestamp,x,y,z,vx,vy,vz,ax,ay,az,roll,pitch,yaw,roll_rate,pitch_rate,yaw_rate
1731602251668225,-0.28967887,0.091438204,-5.6059165,0.02124802,0.022155471,-1.4921454,0.0,0.0,0.0,0.3186012467479658,-0.06398382472113989,89.62951409280265,0.0,0.0,0.0
1731602251676225,-0.2895891,0.09153576,-5.617044,0.021005059,0.022184951,-1.4922961,-0.030370194,0.0036850104,-0.018835068,0.3215681344752222,-0.06453520276083786,89.62868419752333,0.3708609659070477,-0.0689222549622479,-0.10373690991507543
1731602251692225,-0.2901408,0.091375045,-5.6389585,0.020104889,0.021892166,-1.4926726,-0.05626061,-0.018299092,-0.023528932,0.32640358848754936,-0.06512234594125146,89.62706199433578,0.3022158757704461,-0.03669644877584936,-0.10138769922260757
1731602251700225,-0.2904042,0.091302715,-5.649962,0.019666474,0.021762632,-1.4927418,-0.05480181,-0.016191741,-0.008657575,0.32851813724789675,-0.06518124302070735,89.62610574309352,0.26431859504342253,-0.0073621349319858784,-0.1195314052821504
1731602251708225,-0.29066023,0.091235384,-5.6609936,0.019230828,0.021663109,-1.4926503,-0.054455824,-0.012440373,0.011444091,0.3302936169735151,-0.06537528988818597,89.62519390947763,0.2219349657022993,-0.024255858434828085,-0.11397920198629174
1731602251724225,-0.2911526,0.091114655,-5.683136,0.0183601,0.021463104,-1.4930832,-0.054420434,-0.012500327,-0.027060507,0.3319419665162382,-0.06621541705025502,89.62325064934211,0.10302184642019216,-0.052507947629315876,-0.1214537584698455
1731602251732225,-0.2913897,0.09106364,-5.694247,0.017948918,0.021384388,-1.4933134,-0.051397827,-0.009839422,-0.02877414,0.3314367876743267,-0.06727448395640173,89.62231488815799,-0.06314735523893314,-0.13238336326833797,-0.11697014801491978
1731602251740225,-0.2916211,0.09101671,-5.705382,0.017550012,0.021303128,-1.4934107,-0.04986324,-0.010157469,-0.012159347,0.33019118544950127,-0.0689562324650287,89.61951441184245,-0.15570027810318618,-0.21021856357837207,-0.3500595394433026
1731602251748225,-0.291847,0.090973854,-5.7165494,0.017149191,0.021256914,-1.4933646,-0.05010259,-0.0057767606,0.005766749,0.3282658973534994,-0.07111684169330221,89.61661153008411,-0.24066101200022888,-0.2700761535341885,-0.3628602197910241
1731602251756225,-0.29206774,0.09093498,-5.7277393,0.016752718,0.021189258,-1.4935962,-0.049559165,-0.0084571075,-0.028952954,0.3257902538431246,-0.07329268555866791,89.61370179550049,-0.3094554387968492,-0.2719804831707132,-0.3637168229525467
1731602251772225,-0.29249436,0.09086886,-5.750186,0.01600647,0.021119408,-1.4941008,-0.046640515,-0.0043655746,-0.031538308,0.31923191672402945,-0.07730659910203357,89.60763298306992,-0.4098960699434482,-0.2508695964603525,-0.37930077691055636
1731602251780225,-0.29270053,0.09084147,-5.7614408,0.015665425,0.021081092,-1.4942075,-0.04263059,-0.004789559,-0.013336538,0.3152459649802219,-0.07886556454751012,89.6044944183562,-0.49824396797594145,-0.19487068068456964,-0.392320589215135
1731602251788225,-0.2929021,0.09081774,-5.7727146,0.015318342,0.021055808,-1.4941264,-0.043385427,-0.003160443,0.010132789,0.3110261356346582,-0.08046296324354864,89.6014275687118,-0.5274786681954657,-0.19967483700481445,-0.3833562055508927
1731602251804225,-0.29330772,0.090771355,-5.7953296,0.014617148,0.02103103,-1.4946471,-0.043824606,-0.0015486729,-0.032544136,0.302166984959174,-0.08445742075638152,89.59756497265894,-0.5536969172177623,-0.24965359455205552,-0.24141225330288196
1731602251812225,-0.29423738,0.090640165,-5.8061132,0.013931749,0.021014858,-1.49477,-0.08567481,-0.0020214356,-0.015363096,0.29756587818560437,-0.08674136786075073,89.59692290209607,-0.5751383466962049,-0.28549338804615126,-0.08025882035961399
1731602251820225,-0.29514757,0.09051554,-5.8169293,0.013251551,0.020991502,-1.4947697,-0.085024744,-0.0029194632,4.470348e-05,0.2936199272350247,-0.08915144697144603,89.59662569976089,-0.49324386882245036,-0.30125988883691235,-0.03715029189694577
1731602251828225,-0.29603893,0.09039737,-5.8277755,0.01259832,0.020996403,-1.4946102,-0.08165394,0.0006125774,0.019937752,0.289547627746281,-0.09160811699408425,89.59653344628548,-0.5090374360929659,-0.3070837528297777,-0.011531684427464807
1731602251844225,-0.29776707,0.090180196,-5.8495564,0.011335169,0.02101732,-1.4949132,-0.07894693,0.001307344,-0.018939376,0.2801354202243954,-0.09605066074938415,89.5963592324375,-0.5882629701178516,-0.27765898470624323,-0.010888365497899559
1731602251852225,-0.298605,0.09008105,-5.860492,0.010729126,0.021046018,-1.4950455,-0.0757554,0.0035872215,-0.016540289,0.2745989061925817,-0.09766942456595373,89.59627041799337,-0.6920642539767107,-0.20234547707119915,-0.011101805518196029
1731602251860225,-0.29942605,0.08998826,-5.8714557,0.010133846,0.021090502,-1.4950429,-0.07440999,0.005560461,0.00032782552,0.26835567121985865,-0.09905669539365912,89.59623968286039,-0.7804043715903846,-0.17340885346317253,-0.003841891622663792
1731602251868225,-0.3002313,0.089904204,-5.8824573,0.009558822,0.02114859,-1.4949148,-0.07187796,0.007261056,0.016018748,0.2615888904830767,-0.10039327339133215,89.59623970692621,-0.8458475920977407,-0.16707224970912946,3.008229048267142e-06
1731602251884225,-0.30179414,0.089754686,-5.9045386,0.008479341,0.02124541,-1.4952549,-0.06746756,0.006051268,-0.021256505,0.2454855088367367,-0.1029836200438501,89.59326501214868,-1.0064613528962498,-0.16189666578237222,-0.18591842359646812
1731602251892225,-0.30255225,0.08968893,-5.915619,0.00798898,0.021300595,-1.4954413,-0.061295107,0.006898073,-0.023305414,0.23638166901579413,-0.10445696896717016,89.59177255403007,-1.1379799776178225,-0.1841686154150057,-0.18655726482426743
1731602251900225,-0.30329525,0.08962912,-5.926723,0.007517266,0.021359928,-1.4954809,-0.05896424,0.007416587,-0.004947185,0.22678812503671678,-0.10617716568790408,89.59039284001221,-1.1991929973846704,-0.2150245900917406,-0.17246425223341788
1731602251908225,-0.30402353,0.0895752,-5.9378495,0.0070620263,0.021423291,-1.4953784,-0.05690497,0.007920433,0.012814998,0.21672378026336309,-0.10788687707816128,89.58912238203249,-1.2580430966692095,-0.2137139237821497,-0.1588072474663958
1731602251916225,-0.30473724,0.08952703,-5.948999,0.0066624642,0.021479242,-1.4955754,-0.049945254,0.0069937664,-0.024631618,0.20642384807999678,-0.10923795628836008,89.58795771568857,-1.2874915229207888,-0.16888490127485004,-0.1455832929874237
1731602251932225,-0.30656412,0.08968759,-5.9718866,0.0057678493,0.021819381,-1.4963044,-0.055913433,0.021258717,-0.045560297,0.18526996316980052,-0.1110673764797039,89.58580271999901,-1.3221178068872657,-0.11433876195898905,-0.13468723059808388
1731602251940225,-0.30766708,0.08989228,-5.9835987,0.0052920277,0.022081468,-1.4966173,-0.05947769,0.0327609,-0.039115548,0.17441898348554233,-0.11211361136643763,89.58506502810255,-1.3563724605322764,-0.13077936084171546,-0.09221148705833423
1731602251948225,-0.3087403,0.09009952,-5.99532,0.0048610596,0.022352247,-1.4967811,-0.053871013,0.033847287,-0.020474194,0.1634084676600397,-0.11313273892442988,89.58434438644858,-1.376314478187828,-0.1273909447490309,-0.0900802067457413
1731602251964225,-0.31081682,0.09051962,-6.0187926,0.004062192,0.02291207,-1.4976385,-0.04992922,0.034988973,-0.053584572,0.14065661500851517,-0.11409182209939372,89.58199131976268,-1.4219907907202818,-0.059942698435240326,-0.14706666786906605
1731602251972225,-0.31182113,0.09073265,-6.0305448,0.0037025572,0.023180833,-1.4980378,-0.044954356,0.033595365,-0.049918886,0.12893878326561073,-0.11399225055066198,89.58078572135842,-1.4647289678630568,0.012446443591467862,-0.15069980053070942
1731602251980225,-0.31280336,0.0909477,-6.042307,0.0033562668,0.023451366,-1.4982873,-0.0432863,0.033816554,-0.031188129,0.11694475617100022,-0.11375851621314363,89.57972704332663,-1.4992533868263138,0.029216792189792836,-0.13233475397530522
1731602251988225,-0.31376395,0.09116478,-6.0540843,0.0030373903,0.023716765,-1.4983767,-0.039859556,0.033174872,-0.01117587,0.10467943652624999,-0.11331939555231094,89.57849420001904,-1.5331649555937787,0.054890082604087786,-0.1541054134480646
1731602252004225,-0.31562153,0.09160557,-6.0776653,0.0024905838,0.024270207,-1.4991463,-0.034175403,0.034590133,-0.048100945,0.07902673867122191,-0.1117789648088904,89.5762368042926,-1.603293615939255,0.09627692146378367,-0.14108723290241595
1731602252012225,-0.31651878,0.09182578,-6.0894694,0.002243837,0.024526851,-1.4994348,-0.030843336,0.03208057,-0.03606081,0.06552528179716446,-0.11042154220066193,89.57518490628358,-1.6876821092571812,0.1696778260285585,-0.13148725112815668
1731602252020225,-0.3173958,0.09204824,-6.1012816,0.0020198394,0.02479505,-1.4995613,-0.027999718,0.03352482,-0.015810132,0.05175577512320109,-0.10846531642457348,89.57588159301105,-1.7211883342454206,0.244528222011055,0.08708584093383087
1731602252028225,-0.31825292,0.09227302,-6.1131005,0.0018290374,0.025040498,-1.499547,-0.023850238,0.030681023,0.0017881392,0.03783772718566237,-0.10611091807535972,89.5766295805994,-1.73975599219234,0.294299793651721,0.09349844854367441
1731602252036225,-0.3190903,0.092499994,-6.1249266,0.0016790951,0.02528654,-1.4998391,-0.018742792,0.030755296,-0.036507845,0.02409837502849082,-0.10349785941797844,89.57739464300988,-1.7174190196464443,0.32663233217266013,0.0956328013102563
1731602252044225,-0.31990826,0.09272926,-6.1367693,0.001539137,0.025526963,-1.5001827,-0.017494762,0.030052846,-0.042960044,0.010762843884961371,-0.10103952100903307,89.57817672995525,-1.6669413929411807,0.30729230111817063,0.09776086817010043
1731602252060225,-0.32109177,0.09323456,-6.160865,0.0014833893,0.025947591,-1.5007584,-0.0034842305,0.026289256,-0.035978854,-0.01502782137401632,-0.09647810846477405,89.57978876395924,-1.6119165786861056,0.2850882840161887,0.10075212525061521
1731602252068225,-0.32146725,0.09350861,-6.173106,0.001552261,0.026134001,-1.5008829,0.008608956,0.023301223,-0.015556811,-0.027894291808393853,-0.09387455548873419,89.58067676595209,-1.6083088042971918,0.3254441220049829,0.11100024910579132
1731602252076225,-0.32183343,0.09378306,-6.185345,0.0016522687,0.02632518,-1.5012769,0.012500968,0.02389727,-0.049248334,-0.04053301752389705,-0.09101529050583462,89.58162962792554,-1.5798407144378994,0.3574081228624451,0.11910774668067907
1731602252084225,-0.32219023,0.09405784,-6.1975827,0.0017769939,0.026485767,-1.5016747,0.015590644,0.020073492,-0.04972517,-0.05321033889909822,-0.08800110567039046,89.58248003955767,-1.5846651719001466,0.37677310443051976,0.10630145401522219
1731602252100225,-0.3228863,0.09461526,-6.222053,0.0020893896,0.026881827,-1.5022473,0.019524733,0.024753738,-0.03579259,-0.07797565255258605,-0.08203015972842882,89.58243571912371,-1.5478321033429898,0.37318412137260276,-0.0027700271224459718
1731602252108225,-0.32321987,0.09489466,-6.234288,0.0022811324,0.027051559,-1.5022986,0.023967847,0.021216458,-0.006407499,-0.0896990579066529,-0.07899837316627357,89.58164002256426,-1.4654256692583558,0.3789733202694061,-0.09946206993000725
1731602252124225,-0.32385808,0.0954546,-6.258752,0.0027031852,0.027393673,-1.5029156,0.0263783,0.021382118,-0.038564205,-0.11154125619967278,-0.07209294585708309,89.5801510050057,-1.365137393313743,0.4315892068244048,-0.09306359741045614
1731602252132225,-0.32416278,0.09573509,-6.2709813,0.002929138,0.02754703,-1.5032105,0.028244102,0.019169645,-0.036865473,-0.12161591347963556,-0.06819835439866676,89.57947824894877,-1.2593321599953462,0.48682393230204224,-0.08409450711448302
1731602252140225,-0.32445776,0.096015945,-6.2832093,0.0032007485,0.027720846,-1.5033213,0.033951305,0.021727055,-0.013843178,-0.1310053560784872,-0.06435929859800546,89.57885332817294,-1.1736803248564556,0.4798819750826631,-0.07811509697921847
1731602252148225,-0.3247429,0.096297264,-6.295433,0.0034892752,0.027889429,-1.5032593,0.036065843,0.021072801,0.0077486034,-0.139635654836267,-0.0609143732371514,89.57827275234509,-1.0787873447224734,0.4306156701067576,-0.07257197848298809
1731602252164225,-0.3252876,0.096861966,-6.319877,0.0040922216,0.02819435,-1.5037203,0.037684146,0.019057536,-0.028811393,-0.15466301063291027,-0.05430692559857503,89.57691358098481,-0.9392097372902052,0.41296547741102296,-0.0849482100172471
1731602252172225,-0.32554537,0.09714482,-6.3320985,0.004397884,0.028343357,-1.5039222,0.0382078,0.018625986,-0.025242565,-0.16115071898778996,-0.05079144776500263,89.57623397022495,-0.8109635443599592,0.43943472919654947,-0.08495134498185777
1731602252180225,-0.3257934,0.09742803,-6.3443174,0.0047409404,0.028495044,-1.5039592,0.042882048,0.018960796,-0.00461936,-0.16692979696585483,-0.04695946345175063,89.57545876475209,-0.7223847472581102,0.4789980391564998,-0.09690068410793697
1731602252188225,-0.32558182,0.09823199,-6.3568463,0.0052317637,0.028814789,-1.5038347,0.06135291,0.03996817,0.015556811,-0.1720899341284854,-0.04296470869097574,89.57467326372907,-0.6450171453288202,0.49934434509686204,-0.09818762787758756
1731602252204225,-0.3251609,0.0998047,-6.3818703,0.0062449626,0.029419273,-1.5042467,0.06332493,0.037780263,-0.025749205,-0.1808542348417931,-0.035157540515159166,89.5731432924967,-0.5477687945817331,0.48794801098853563,-0.09562320202330761
1731602252212225,-0.32495096,0.10057398,-6.394367,0.006750061,0.029695904,-1.504458,0.06313732,0.03457884,-0.026404856,-0.18421389278288242,-0.031071139037002312,89.57235445295059,-0.41995724263616296,0.5108001847696065,-0.09860494326349659
1731602252220225,-0.32474118,0.101332285,-6.406854,0.0072583095,0.029969137,-1.5045162,0.06353104,0.034154158,-0.0072866674,-0.18703139350581027,-0.026745440945801658,89.57163047310381,-0.35218759036598046,0.5407122614000821,-0.09049748084805057
1731602252228225,-0.32453132,0.10207998,-6.4193296,0.007771146,0.03023908,-1.5043969,0.06410456,0.03374275,0.014916061,-0.18926653013383982,-0.022083002649379155,89.57080738169923,-0.2793920785036929,0.5828047870528125,-0.10288642557144069
1731602252244225,-0.32412168,0.1035385,-6.4442506,0.008788879,0.030746913,-1.5047704,0.06360831,0.03173959,-0.023342667,-0.19162985403859326,-0.011965951234211982,89.57059223677892,-0.14770774404708997,0.6323157134479483,-0.013446557519073268
1731602252252225,-0.32391605,0.10425294,-6.456698,0.009301045,0.03096346,-1.5049434,0.06402074,0.027068423,-0.021621583,-0.19157796089873716,-0.006555180688727885,89.57119671714425,0.006486642482011709,0.676346318185512,0.07556004566435175
1731602252260225,-0.32370958,0.10495774,-6.469136,0.009816064,0.031169577,-1.5049777,0.06437732,0.025764572,-0.0042915344,-0.19089644182142776,-0.0006747679951386447,89.5718592780406,0.08518988466367361,0.7350515866986551,0.08282011204521708
1731602252268225,-0.32350236,0.105653085,-6.4815645,0.010290207,0.031338867,-1.5048516,0.059267968,0.021161277,0.015765429,-0.18954204611656203,0.005540110518733089,89.5724330743964,0.16929946310821611,0.7768598142339666,0.07172454447417477
1731602252284225,-0.32308483,0.10701624,-6.5063953,0.011321771,0.03168045,-1.5052195,0.06447272,0.021348938,-0.02299249,-0.1847337472498886,0.018954995922055115,89.57374443425873,0.3005186791670883,0.8384303377076265,0.08195999139615771
1731602252292225,-0.32287416,0.10768452,-6.5187993,0.011823403,0.03182479,-1.5054289,0.06270397,0.018042512,-0.026181338,-0.181321169274612,0.025913485130425077,89.57443428973113,0.42657224690957773,0.8698111510462453,0.08623193404937284
1731602252300225,-0.32266757,0.10833813,-6.531195,0.012310162,0.03195209,-1.5054674,0.06084493,0.015912578,-0.004813075,-0.17739881303343932,0.03283510903571108,89.57526418560576,0.4902945301465847,0.8652029881607509,0.10373698432892303
1731602252308225,-0.32222646,0.10951441,-6.5440755,0.012967602,0.0324177,-1.5055356,0.082180016,0.058201138,-0.008523464,-0.17308205183133826,0.039810968070119794,89.57830022318761,0.539595150262633,0.8719823793010889,0.37950469773106615
1731602252324225,-0.32135087,0.111813836,-6.56978,0.014275647,0.033290356,-1.5063006,0.08175277,0.05454104,-0.047810372,-0.16414462793193257,0.05219957454048697,89.58366885945384,0.5585889937128554,0.7742879043979485,0.3355397666392577
1731602252332225,-0.32091618,0.112937994,-6.582606,0.01487568,0.03372056,-1.5066406,0.075004175,0.053775493,-0.042498108,-0.15909828092267003,0.05834481999504965,89.58638388834206,0.6307933761578189,0.7681556818203353,0.33937861102814093
1731602252340225,-0.32048345,0.11404581,-6.5954146,0.0154762985,0.03412426,-1.5067886,0.07507729,0.050462313,-0.018507242,-0.1538799475770363,0.06475042722784602,89.58904764367695,0.6522916682042161,0.8007009040995464,0.332969416861144
1731602252348225,-0.32005262,0.1151377,-6.6082044,0.016057355,0.03452927,-1.5067803,0.0726321,0.050626226,0.0010430813,-0.14864241192570482,0.07185120766255393,89.59174213524999,0.6546919564164354,0.8875975543384873,0.3368114466296101
1731602252364225,-0.31919625,0.11727522,-6.6337337,0.017200235,0.035277836,-1.5073271,0.07142999,0.04678545,-0.034175813,-0.1375475765811696,0.08790205447051183,89.59713795190336,0.6934272090334517,1.0031779254973692,0.3372385408360331
1731602252372225,-0.3187729,0.118317224,-6.6464753,0.017761521,0.03561067,-1.5075616,0.07016072,0.04160404,-0.029310582,-0.13170905407732122,0.09702109593770696,89.5998632536313,0.7298153129810443,1.1398801833993903,0.3406627159921203
1731602252380225,-0.31835106,0.11934471,-6.659201,0.018300923,0.035934098,-1.5076164,0.06742519,0.04042871,-0.0068545337,-0.1256609692287268,0.10701845435060302,89.6043267759799,0.756010606074303,1.2496698016120085,0.5579402935753752
1731602252388225,-0.31793058,0.12035799,-6.67191,0.01884031,0.036227092,-1.5074826,0.06742333,0.03662426,0.016719103,-0.11921531512403873,0.1176800799921734,89.6087356140174,0.8057067630860095,1.3327032051962977,0.5511047546869438
1731602252396225,-0.31751132,0.12135727,-6.6846023,0.019368092,0.03648836,-1.5076499,0.06597279,0.03265869,-0.020906327,-0.11240891692102518,0.12898064083175706,89.61329130171484,0.8507997753766928,1.4125701049479586,0.5694609621803257
1731602252412225,-0.31667638,0.123314805,-6.7099447,0.020373296,0.03697814,-1.508068,0.06282527,0.030611174,-0.026129184,-0.09789905706632417,0.15279738254060796,89.62226599714441,0.9068662409188135,1.4885463568031811,0.5609184643479378
1731602252420225,-0.3162607,0.1242738,-6.722595,0.020852234,0.037197936,-1.5081061,0.059867274,0.02747448,-0.0047683716,-0.09042278979776473,0.16503368684752898,89.62656891765228,0.9345334085699307,1.5295380383651256,0.5378650634833729
1731602252428225,-0.3158461,0.12521979,-6.735231,0.021319328,0.03736667,-1.5079579,0.058386706,0.02109166,0.018522143,-0.08287780829480235,0.17728220503510422,89.63086155376281,0.9431226878702971,1.5310647734469076,0.5365795138176308
1731602252436225,-0.31553242,0.125808,-6.7479396,0.021660347,0.03720832,-1.5081156,0.04262733,-0.019793862,-0.019714234,-0.07549084561250252,0.1895272094890537,89.6350687759594,0.9233703352874777,1.5306255567436802,0.5259027745714706
1731602252452225,-0.3149063,0.12696448,-6.7733135,0.02230268,0.03688168,-1.5084472,0.040145822,-0.020414822,-0.020720063,-0.06043823774319007,0.2147278030165781,89.64265340329473,0.9407879918320284,1.575037095470277,0.4740392084588463
1731602252460225,-0.31459323,0.12753174,-6.785978,0.022614038,0.036685683,-1.5083739,0.038919736,-0.024499835,0.009164214,-0.05280449494904716,0.22676791508081753,89.6460887565427,0.9542178492678637,1.505014008029929,0.4294191559961989
1731602252468225,-0.31428012,0.12809153,-6.798626,0.022908082,0.036481764,-1.5081463,0.036755577,-0.025489831,0.028446315,-0.04499673881854462,0.23811185876221966,89.64932606343359,0.9759695163128175,1.4179929601752632,0.4046633613618534
1731602252484225,-0.31365445,0.12918842,-6.8238792,0.023459397,0.036003053,-1.5083386,0.034457188,-0.029919434,-0.012017786,-0.02913588389358768,0.25839883171242545,89.65560607536727,0.9913034328098087,1.2679358093878617,0.3925007458550161
1731602252492225,-0.31334195,0.1297254,-6.8364863,0.023717746,0.035759777,-1.5084336,0.03229361,-0.030409543,-0.011876225,-0.02146561132539603,0.2676650948318726,89.65858724688117,0.9587840710239565,1.1582828899308977,0.37264643923726753
1731602252500225,-0.3130297,0.13025472,-6.849079,0.023977557,0.035490453,-1.5083728,0.03247638,-0.03366545,0.0075995917,-0.013996554867161346,0.27645343290044705,89.66149335231898,0.9336320572793354,1.098542258571802,0.3632631797258853
1731602252508225,-0.31271762,0.13077629,-6.8616576,0.024255268,0.035222776,-1.5081332,0.034713883,-0.033459626,0.029951332,-0.006853152158306252,0.28470162555880657,89.66428328890309,0.8929253386068867,1.0310240822949441,0.3487420730131098
1731602252516225,-0.31240577,0.13129017,-6.8742223,0.024492338,0.034937307,-1.508181,0.029633751,-0.035683624,-0.005975365,-3.5618832128986963e-06,0.2924100987290104,89.66688208475776,0.8561987843866693,0.9635591462754817,0.324849481833723
1731602252532225,-0.31179467,0.13229871,-6.8993163,0.024902899,0.034355313,-1.5083544,0.02566003,-0.036374666,-0.010840594,0.013595364795547021,0.3056420095711492,89.67039251414629,0.849932917422495,0.8269944276336713,0.21940183678322184
1731602252540225,-0.31148982,0.1327914,-6.911846,0.025121698,0.03406611,-1.5083057,0.027349915,-0.036150217,0.0060945745,0.02038722911132247,0.3117408433686018,89.67116071259409,0.8489830394719312,0.7623542246815814,0.09602480597559354
1731602252548225,-0.3111854,0.13327648,-6.924363,0.025318377,0.033772297,-1.5081168,0.024584819,-0.036726706,0.023603437,0.027095418135176675,0.31767548682885605,89.6717684027866,0.8385236279817757,0.7418304325317734,0.07596127406389715
1731602252564225,-0.31052023,0.13427696,-6.949182,0.025732975,0.033088543,-1.5081756,0.025912419,-0.042734664,-0.003673136,0.039911095799719576,0.3284567116288839,89.67254335529684,0.8009798540339313,0.6738265500017412,0.048434531889566965
1731602252572225,-0.31016034,0.13478974,-6.961489,0.025960296,0.032699145,-1.5081496,0.028415116,-0.04867464,0.003248453,0.04577837689812411,0.33361799287033983,89.67236557509406,0.7334101373005671,0.6451601551819973,-0.02222252534662451
1731602252580225,-0.3098017,0.13529216,-6.9737883,0.026208904,0.03228739,-1.5079715,0.031075904,-0.05146954,0.022262333,0.05141427408212815,0.3385297304314613,89.6720068140231,0.7044871480005039,0.6139671951401809,-0.044845133868879984
1731602252588225,-0.30944416,0.13578437,-6.986079,0.02646428,0.031884007,-1.5076364,0.031922013,-0.05042273,0.04188716,0.05692922910835814,0.34314152374249157,89.67144314661668,0.6893693782787487,0.5764741638787804,-0.070458425804544
1731602252604225,-0.30871913,0.13673429,-7.0106387,0.026923925,0.031057602,-1.5076087,0.028727807,-0.051650334,0.0017359852,0.0671320494552479,0.35168494011472273,89.67083837973857,0.6376762716806103,0.5339635232644501,-0.03779792988141432
1731602252612225,-0.30835843,0.13719457,-7.0229096,0.027138783,0.0306421,-1.5076143,0.026857246,-0.051937763,-0.0007003545,0.07206095480191566,0.3553633604882244,89.67055818427598,0.6161131683334695,0.4598025466877057,-0.035024432823904605
1731602252620225,-0.30799893,0.13764529,-7.035174,0.027350463,0.030214066,-1.5074731,0.026460037,-0.053504247,0.017642975,0.07696498381979626,0.35874687778748826,89.67021316053774,0.6130036272350757,0.42293966240798603,-0.043127967279763466
1731602252628225,-0.3076406,0.13808647,-7.0474305,0.027545884,0.029770019,-1.5071963,0.024427658,-0.05550589,0.034600496,0.0822974988059567,0.3616653739091334,89.66973830356667,0.6665643732700549,0.3648120152056375,-0.05935712138432832
1731602252636225,-0.30728343,0.13851827,-7.0596805,0.027738152,0.029334866,-1.5072398,0.024033476,-0.054394126,-0.0054389234,0.08790864123039314,0.36420969710131884,89.66912350569146,0.7013928030545554,0.31804039902318093,-0.07684973440058823
1731602252652225,-0.3065726,0.13935421,-7.0841656,0.028092409,0.028430691,-1.5073562,0.022141028,-0.056510907,-0.007271766,0.09948507106981698,0.3686456755203507,89.66744307556004,0.7235268649639894,0.2772486511894913,-0.10502688321394898
1731602252660225,-0.30622584,0.139757,-7.0964003,0.028263103,0.027982043,-1.507277,0.021336831,-0.056080982,0.00989437,0.10519342792206111,0.3702743893335828,89.66641498928715,0.7135446065305172,0.20358922665401386,-0.12851078411194528
1731602252668225,-0.30588004,0.14015096,-7.1086283,0.028428553,0.027534906,-1.5070473,0.02068118,-0.05589216,0.028714536,0.11093538479894081,0.3712707640410201,89.66643202506054,0.7177446096099628,0.12454683842966627,0.0021294716742705595
1731602252684225,-0.3041518,0.14070438,-7.1328135,0.029109813,0.026614413,-1.507137,0.042578787,-0.05753082,-0.005602836,0.12238296863743738,0.37237533027426406,89.66624754954647,0.7154739899060347,0.06903538957774612,-0.01152971962947353
1731602252692225,-0.30279297,0.14086922,-7.1447783,0.029634178,0.026129648,-1.5069772,0.06554555,-0.06059557,0.019967554,0.1272287885384822,0.37293117535513964,89.66544156404713,0.6057274876306054,0.06948063510944623,-0.10074818741699604
1731602252700225,-0.30145806,0.1410309,-7.1567426,0.030141026,0.02565429,-1.5065113,0.06335601,-0.059419774,0.058233734,0.13184734631271477,0.37326121922766636,89.6645672164464,0.5773197217790684,0.04125548406584336,-0.10929345009125609
1731602252708225,-0.30014643,0.1411895,-7.1687036,0.030621763,0.025190338,-1.5057012,0.06009219,-0.05799392,0.101268284,0.13607527683888504,0.37337101151298585,89.6636416820535,0.528491315771285,0.01372403566493037,-0.11569179911384461
1731602252724225,-0.29759046,0.14149766,-7.192607,0.03156189,0.024281282,-1.503428,0.058757838,-0.05681603,0.14207512,0.14435847952810807,0.37282309065875113,89.6614832938045,0.5177001680764381,-0.034245053389668705,-0.13489926556223178
1731602252732225,-0.29634133,0.14164536,-7.2045455,0.032007873,0.023823816,-1.5017724,0.055748034,-0.057183202,0.20694731,0.14911106823594053,0.37210182345066856,89.66034264817546,0.5940735884790604,-0.09015840101031887,-0.14258070363033581
1731602252740225,-0.29511306,0.14179002,-7.2164702,0.032441627,0.023364043,-1.4996923,0.05421927,-0.05747168,0.26001036,0.15453640606157315,0.3711214038793043,89.65920881271354,0.6781672282040759,-0.12255244642053645,-0.1417294327387089
1731602252748225,-0.29390505,0.14193173,-7.2283783,0.03286069,0.022918265,-1.4971892,0.0523827,-0.055722192,0.31289458,0.1608289605518102,0.3699572058062691,89.65817403580617,0.7865693112796316,-0.14552475912939725,-0.12934711342241462
1731602252764225,-0.29154754,0.14220665,-7.2521334,0.03366159,0.02208284,-1.4913325,0.050056256,-0.05221413,0.36603954,0.1755257279625355,0.3674021552325754,89.6558108248036,0.9185479631703296,-0.15969066085585662,-0.14770068766062788
1731602252772225,-0.29039714,0.14234005,-7.263975,0.034026675,0.021668406,-1.4878201,0.045635734,-0.051804118,0.43904778,0.18413503553530447,0.36614951022569203,89.65457795224755,1.0761634465961243,-0.15658062586041982,-0.15410906950521264
1731602252780225,-0.28926498,0.14247082,-7.275789,0.034380585,0.021269213,-1.4838555,0.04423875,-0.049899098,0.4955828,0.1935399715138412,0.36510406979004734,89.65337246265902,1.175616997317091,-0.13068005445558767,-0.15068619856578783
1731602252788225,-0.28815064,0.14259891,-7.287571,0.034712385,0.020855235,-1.4795455,0.04147505,-0.051747307,0.5387515,0.20379271146062036,0.3640013988061148,89.6521668907338,1.281592493347394,-0.13783387299156807,-0.15069649065308433
1731602252804225,-0.2859645,0.14284268,-7.311033,0.035334315,0.020053547,-1.470629,0.03887061,-0.0501055,0.5572811,0.2266574034825556,0.361344295266376,89.64958849061996,1.4290432513709541,-0.16606897123367512,-0.16115000711454627
1731602252812225,-0.28498518,0.1432213,-7.322105,0.03560973,0.019844867,-1.4656607,0.034426805,-0.026084946,0.6210357,0.23905194525606432,0.35988759517120883,89.64832836134748,1.5493177216885903,-0.1820875118958946,-0.15751615906028008
1731602252820225,-0.28401947,0.14359273,-7.3331532,0.035871234,0.019620808,-1.4603937,0.032688025,-0.02800743,0.65837795,0.25198280593902256,0.3581201956683857,89.64751217419271,1.61635758536978,-0.2209249378528922,-0.10202339434669858
1731602252828225,-0.28306714,0.14395712,-7.3441753,0.036092114,0.019404719,-1.4549522,0.027609987,-0.027011147,0.68017834,0.26525548267778354,0.3563560249003719,89.64664817593987,1.6590845923451207,-0.22052134600172452,-0.10799978160487028
1731602252844225,-0.28120178,0.14466545,-7.366142,0.036500115,0.018955369,-1.4447619,0.025500076,-0.02808438,0.6368979,0.2924886482300545,0.35287010705872357,89.64485189951687,1.702072847016936,-0.2178698651030204,-0.1122672764376307
1731602252852225,-0.28028837,0.1450096,-7.3770866,0.036669154,0.018727437,-1.4396516,0.021129845,-0.028491484,0.6387829,0.30627922026769344,0.35117989682227385,89.64400497758874,1.7238215047048635,-0.2112762795562187,-0.10586524101699278
1731602252860225,-0.27938768,0.14534725,-7.3880053,0.036815733,0.018489437,-1.4343809,0.018322375,-0.029749934,0.6588399,0.319965164540195,0.3497734918715597,89.64311368099385,1.7107430340626968,-0.17580061883926565,-0.11141207436133417
1731602252868225,-0.27849683,0.14568181,-7.3988957,0.036944468,0.018270709,-1.4290265,0.016091857,-0.027341068,0.6693005,0.3335421800422723,0.3487731440560046,89.64210281394672,1.697126937759663,-0.12504347694438733,-0.1263583808896852
1731602252884225,-0.2767526,0.14633238,-7.4205976,0.037121672,0.01780732,-1.4193567,0.011075287,-0.028961802,0.6043613,0.3600929399863803,0.3477742904781717,89.63818218332997,1.6594224965067512,-0.06242834861455557,-0.2450394135467743
1731602252892225,-0.27589896,0.1466488,-7.4314113,0.03718807,0.017579501,-1.4145772,0.008299947,-0.028477281,0.59743226,0.3729416328311001,0.3478143652170032,89.63621159062367,1.6060866055899734,0.005009342353936381,-0.24632408828804153
1731602252900225,-0.2750574,0.1469593,-7.442199,0.037241906,0.017323798,-1.4096907,0.006729271,-0.03196299,0.6108135,0.3856379018218657,0.34830804225666734,89.63425461458853,1.587033623845698,0.06170962995801506,-0.24462200439334245
1731602252908225,-0.27422777,0.147264,-7.4529595,0.037277743,0.017066741,-1.4047452,0.0044796616,-0.032132026,0.6181896,0.3982581557364208,0.3489760257797096,89.63223960343397,1.5775317393193917,0.0834979403802839,-0.25187639431899694
1731602252916225,-0.27341005,0.14756285,-7.463694,0.037268028,0.016791688,-1.4002053,-0.0012144446,-0.034381635,0.5674958,0.41052139968021223,0.3496730115137917,89.63025534981081,1.5329054929739268,0.08712321676026286,-0.24803170289539428
1731602252924225,-0.2726043,0.14785603,-7.474405,0.03724033,0.016538838,-1.3958453,-0.0034621914,-0.031606294,0.54499507,0.42234834568347046,0.3502094581734359,89.62829502388743,1.4783682504072773,0.06705583245552327,-0.24504074042329854
1731602252940225,-0.27235916,0.14848885,-7.4945807,0.03636834,0.016383484,-1.3865012,-0.054499365,-0.00970962,0.5840063,0.4454868588558399,0.3503032149438194,89.62274524278057,1.4461570732730904,0.005859798148968208,-0.34686131917872176
1731602252948225,-0.2722348,0.14880043,-7.504651,0.035911735,0.016289052,-1.3817263,-0.057075635,-0.011804047,0.596866,0.45705180637977305,0.34999062123038954,89.61910462840147,1.4456184404916392,-0.03907421417872957,-0.4550767973875566
1731602252956225,-0.2721097,0.14910877,-7.51471,0.03544407,0.0161747,-1.3773321,-0.058458183,-0.014293938,0.5492717,0.468310599149558,0.34970649607262044,89.61534448666744,1.4073490962231263,-0.035515644721141076,-0.47001771675281867
1731602252972225,-0.27185825,0.14971559,-7.534798,0.034489337,0.01593037,-1.3687922,-0.059670765,-0.0152706625,0.5337447,0.4890400608400481,0.34978880672172286,89.60779332914417,1.295591355655627,0.0051444155689029,-0.4719473452049033
1731602252980225,-0.27173248,0.15001419,-7.5448256,0.0339961,0.015810875,-1.3643496,-0.061654482,-0.014936783,0.5553216,0.49810439136894025,0.3502020942381808,89.60401950414266,1.1330413161115196,0.05166093955724377,-0.4717281251896189
1731602252988225,-0.27160704,0.15030949,-7.55484,0.03349384,0.015644627,-1.3598679,-0.06278278,-0.020781064,0.56020916,0.5061942356165828,0.3509590321060966,89.60042663076821,1.0112305309553298,0.0946172334894704,-0.4491091718053311
1731602252996225,-0.27148217,0.15060125,-7.5648417,0.032979004,0.015480721,-1.3557596,-0.06435439,-0.020488163,0.5135387,0.5133806703530972,0.3521127421410174,89.59676543116115,0.898304342064295,0.14421375436510223,-0.4576499508834623
1731602253004225,-0.2713655,0.15088919,-7.574833,0.032436386,0.015304737,-1.3518054,-0.06782729,-0.02199807,0.4942715,0.5198175860196649,0.35342536396051016,89.5930325139419,0.804614458320952,0.16407772743659793,-0.46661465240438804
1731602253020225,-0.2711357,0.15145455,-7.5947814,0.031333487,0.014931989,-1.343683,-0.06893114,-0.023296742,0.50765276,0.5303687575934055,0.35658019818195547,89.58576470129248,0.6594482233587923,0.19717713884033036,-0.4542382905890433
1731602253028225,-0.27102295,0.15173203,-7.6047363,0.030778812,0.014759385,-1.3395207,-0.0693344,-0.021575483,0.52028894,0.5343059871112505,0.35827219702822993,89.58210008207698,0.4921536897306321,0.21149985578431113,-0.45807740193698854
1731602253044225,-0.27080253,0.1522766,-7.6246104,0.029663615,0.014351519,-1.3319988,-0.06969983,-0.025491636,0.4701167,0.5396854952549547,0.3618358919132403,89.57496549971405,0.3362192589815073,0.22273093031314714,-0.4459113976827214
1731602253052225,-0.27069536,0.15254357,-7.6345305,0.029091546,0.014137691,-1.3282406,-0.07150857,-0.02672849,0.46977398,0.5410923106929366,0.36393485647995594,89.57147838453487,0.17585192974774694,0.26237057083945514,-0.4358893973989741
1731602253060225,-0.2705364,0.15290388,-7.6442943,0.028560812,0.013942315,-1.3242888,-0.06634183,-0.024421955,0.49397346,0.542010342032524,0.36608456874190165,89.56804934901797,0.11475391744840892,0.26871403274321465,-0.4286294396117873
1731602253068225,-0.27038088,0.15325819,-7.654047,0.028018817,0.013753183,-1.3202906,-0.06774929,-0.023641506,0.49978492,0.5424248939572607,0.36808865674533936,89.56460326230918,0.05181899059208651,0.2505110004297127,-0.43076083860041703
1731602253076225,-0.27023435,0.15360612,-7.6637893,0.027466709,0.013536861,-1.3166586,-0.06901356,-0.02704025,0.45399365,0.5423234476833229,0.369976843009515,89.56128697286981,-0.01268078424222698,0.23602328302195558,-0.414536179920464
1731602253092225,-0.26995236,0.15428361,-7.683249,0.02638106,0.013033975,-1.309621,-0.06785302,-0.03143039,0.43985245,0.5401098571403598,0.37344747923912397,89.5526086352766,-0.1383494089351934,0.21691476435056098,-0.5423960995755913
1731602253100225,-0.26981673,0.15461318,-7.6929646,0.02584959,0.012793467,-1.3058969,-0.066433795,-0.030063441,0.46551225,0.5378894665200823,0.37507408613941556,89.54832916071568,-0.27754882753467264,0.20332586253644958,-0.5349343201149012
1731602253108225,-0.26968455,0.15493672,-7.702668,0.025332859,0.0125366775,-1.3020881,-0.06459141,-0.03209873,0.47609207,0.5347371593181005,0.37672753443117385,89.54419317042262,-0.39403840024773173,0.2066810364697836,-0.5169987866334149
1731602253124225,-0.26943016,0.15556589,-7.7220445,0.024309097,0.012041736,-1.2953055,-0.06398512,-0.03093382,0.42391565,0.5269221215644547,0.37921068239020905,89.53636861274563,-0.4884398596028626,0.15519674743969997,-0.4890348548111098
1731602253132225,-0.26930782,0.15587157,-7.7317185,0.023815725,0.011770977,-1.2918986,-0.06167148,-0.03384496,0.42586026,0.5228157510988594,0.38052258779143244,89.53257412356147,-0.5132963081994117,0.16398817515292596,-0.4743111480198539
1731602253140225,-0.2691879,0.15617213,-7.7413816,0.023340087,0.011485368,-1.2883406,-0.059454698,-0.035701085,0.44475493,0.5187085343861099,0.382062456020904,89.52897437499523,-0.5134020890936893,0.19248352868394314,-0.4499685707809673
1731602253148225,-0.26907095,0.15646665,-7.7510324,0.022860095,0.011202568,-1.2847041,-0.059999056,-0.035349976,0.4545599,0.5145444568054639,0.3836682533379599,89.52567509404308,-0.5205096975807402,0.20072466463198718,-0.4124101190189644
1731602253156225,-0.26895702,0.15675516,-7.760671,0.022396808,0.010902709,-1.2813911,-0.0579108,-0.037482355,0.41411814,0.510503242774422,0.38548234975741485,89.52242367919811,-0.5051517538802395,0.22676205243186712,-0.40642685561943936
1731602253172225,-0.2687375,0.15731402,-7.7799177,0.021496344,0.010291852,-1.274838,-0.056279007,-0.038178578,0.4095733,0.5024013332197156,0.3892237514182702,89.51640914176514,-0.5063693471691538,0.23383760380345955,-0.3759085895613795
1731602253180225,-0.26863176,0.1575844,-7.789523,0.021062614,0.009981048,-1.2713301,-0.054216243,-0.038850468,0.43848154,0.49824458960591017,0.3908278158209921,89.51359140644671,-0.5195929517256741,0.2005080503402323,-0.35221691480284206
1731602253188225,-0.26831654,0.15817164,-7.7993536,0.020773767,0.009822997,-1.2677643,-0.03610598,-0.019756377,0.4457235,0.4939503057350839,0.39231984679230164,89.51089669906139,-0.5367854838532836,0.18650387141369704,-0.33683842316569634
1731602253204225,-0.26770514,0.15930799,-7.818958,0.020201212,0.009488603,-1.2613894,-0.035784673,-0.020899635,0.39843467,0.48464619327972397,0.39466972740827183,89.50661037306185,-0.5815070284599969,0.14686753849813902,-0.26789537497127736
1731602253212225,-0.26740655,0.15985742,-7.8287334,0.019911835,0.009322552,-1.2581435,-0.036172103,-0.020756384,0.4057288,0.4799875863331675,0.39587435064783255,89.50458151000839,-0.5823258683195532,0.15057790494508871,-0.2536078816815736
1731602253220225,-0.26711395,0.16039495,-7.838489,0.019639961,0.009170576,-1.2547187,-0.03398419,-0.018997,0.42811033,0.47536966691944355,0.3972870063458273,89.50296948890383,-0.5772399267154994,0.1765819622493443,-0.20150263807132635
1731602253228225,-0.26682708,0.1609207,-7.848224,0.019376535,0.008964657,-1.2511562,-0.032928307,-0.025739891,0.44530627,0.4709791675188008,0.39881732581556384,89.50157246724152,-0.5488124250803433,0.19128993371706682,-0.1746277077893697
1731602253244225,-0.26626977,0.16193692,-7.867635,0.018872868,0.008532255,-1.244678,-0.03147917,-0.027025117,0.40488687,0.46353596937710484,0.40258813602048477,89.4988912671629,-0.4651998838559984,0.23567563780755604,-0.16757500491308538
1731602253252225,-0.26599896,0.16242796,-7.877311,0.018626953,0.008329029,-1.2413594,-0.030739464,-0.025403218,0.4148334,0.46074847156602977,0.4048575227099335,89.49775384678371,-0.34843722638438107,0.28367333618109564,-0.14217754739959104
1731602253260225,-0.2657332,0.16290788,-7.886967,0.018382965,0.008102744,-1.2378801,-0.030498484,-0.028285662,0.43490526,0.4585929751828929,0.40715487182740995,89.49672567740984,-0.26943704789211104,0.2871686396845551,-0.12852117173356276
1731602253268225,-0.26547238,0.16337684,-7.8966017,0.018153755,0.007878466,-1.2342898,-0.028651206,-0.028034788,0.44879314,0.45695880977395,0.40922319097394033,89.49591957573921,-0.2042706761178617,0.2585398933162958,-0.10076270882779688
1731602253276225,-0.26521617,0.16383496,-7.906215,0.017934728,0.0076271174,-1.2309823,-0.02737832,-0.031418514,0.4134327,0.45577823534595174,0.41091071780565397,89.49522952529,-0.14757180349977864,0.2109408539642035,-0.08625630615168176
1731602253292225,-0.26470944,0.16471992,-7.925383,0.017497502,0.007138182,-1.2244419,-0.027326632,-0.030558467,0.40877607,0.4543230151942762,0.41467910567848654,89.49444040781502,-0.09095125947972096,0.2355242420520384,-0.049319842186613345
1731602253300225,-0.26446265,0.16514683,-7.9349356,0.017280681,0.006878636,-1.2209438,-0.02710265,-0.03244326,0.43725964,0.4539606450351498,0.41691335674104674,89.49433094535478,-0.04529626989079888,0.2792813828200185,-0.013682807530535038
1731602253308225,-0.26422212,0.1653023,-7.943628,0.01699096,0.006340251,-1.2158225,-0.036215175,-0.06729812,0.6401687,0.4583775691396664,0.4147998377711309,89.49192671957944,0.5521155130645687,-0.2641898712394748,-0.3005282219159084
1731602253324225,-0.2637532,0.16559112,-7.9608393,0.017032964,0.004966516,-1.1864059,0.0026252817,-0.08585842,1.838535,0.6472833574109753,0.23364242257001963,89.46630419412261,11.80661176695681,-11.322338450069454,-1.6014078410520822
1731602253336225,-0.26352298,0.16572419,-7.969275,0.017022187,0.0043926556,-1.1659515,-0.0008981054,-0.047821708,1.7045339,0.8897565372964588,0.0012887713191254563,89.44028101859529,20.206098323790282,-19.362804270907844,-2.1685979606108274
1731602253340225,-0.2632965,0.16585158,-7.977563,0.01683255,0.004123322,-1.1429288,-0.047409438,-0.06733334,5.7556624,1.244993031065339,-0.32874457148394715,89.40282955844312,88.80912344222006,-82.50833570076816,-9.36286503804074
1731602253348225,-0.26307556,0.16597615,-7.985682,0.016345736,0.00425192,-1.1174284,-0.060851682,0.016074743,3.187552,1.714371901741573,-0.7426612343100616,89.3506298528244,58.67235883452927,-51.7395828532643,-6.524963202339645
1731602253356225,-0.26286724,0.16611052,-7.9936266,0.015259029,0.004926093,-1.0938861,-0.13583829,0.084271595,2.9427855,2.2829149950016734,-1.2158982304684252,89.27720794706894,71.06788665751253,-59.15462451979544,-9.177738219430921
1731602253372225,-0.26250064,0.16640097,-8.00907,0.010624322,0.008206926,-1.0545408,-0.2896692,0.20505208,2.4590864,3.6267582238648597,-2.2520327930845925,89.05173708502326,83.99020180394913,-64.75841016351046,-14.091928877855214
1731602253380225,-0.26235637,0.1665678,-8.016612,0.006960842,0.010873534,-1.0380472,-0.457935,0.33332592,2.0616949,4.367530318944897,-2.7905532311884396,88.89836435883623,92.5965118850046,-67.31505476298085,-19.171590773379304
1731602253388225,-0.26224712,0.16675606,-8.024043,0.0025112566,0.0141579155,-1.0214465,-0.5561982,0.4105477,2.075091,5.146172672442069,-3.337727966051759,88.71634455919666,97.33029418714662,-68.39684185791494,-22.752474954946273
1731602253404225,-0.2621674,0.16722208,-8.038639,-0.010047527,0.023364637,-0.99785626,-0.7849239,0.5754201,1.4743879,6.783396056896916,-4.4412427176927345,88.25846061957984,102.32646152842794,-68.96967197756098,-28.617746226051704
1731602253412225,-0.26221198,0.16751097,-8.045811,-0.01710029,0.028586188,-0.9809788,-0.88159525,0.65269387,2.109684,7.641421504526364,-4.993538514016276,87.9875419029251,107.25318095368098,-69.03697454044263,-33.8648395818413
1731602253420225,-0.2623184,0.1678416,-8.052862,-0.024934985,0.034383025,-0.96309304,-0.97933686,0.72460455,2.235718,8.53138181377072,-5.545644107217335,87.6878555505336,111.24503865554435,-69.01319915013237,-37.460794048937714
1731602253428225,-0.2624981,0.16822626,-8.059797,-0.034094747,0.040998876,-0.94740266,-1.1449703,0.82698137,1.9612982,9.437881429121465,-6.112007194758159,87.35437686608512,113.31245191884327,-70.79538594260302,-41.68483555606112
1731602253444225,-0.26187494,0.16727763,-8.072922,-0.05581943,0.05651562,-0.9255537,-1.3577926,0.9697964,1.365561,11.265245205099404,-7.287991367825642,86.57620321828533,114.21023599862116,-73.49901081671767,-48.635852987486544
1731602253452225,-0.26172203,0.16693139,-8.079379,-0.067256965,0.064966105,-0.9098785,-1.4296918,1.0563107,1.9593983,12.196637878826483,-7.872515485219785,86.13965414800985,116.4240842158849,-73.06551467426799,-54.56863378443487
1731602253460225,-0.26167932,0.16667508,-8.085736,-0.08008779,0.07454771,-0.8960018,-1.6038529,1.1977004,1.7345845,13.146540769465268,-8.442743933186904,85.669771007362,118.73786132984809,-71.27855599588987,-58.7353925809809
1731602253468225,-0.26176,0.1665189,-8.092015,-0.09461038,0.08545198,-0.8848281,-1.8153236,1.3630342,1.3967155,14.108958183463717,-8.999726637781274,85.16564124314527,120.30217674980612,-69.62283807429621,-63.01622052709129
1731602253484225,-0.26233602,0.16654141,-8.10439,-0.12695827,0.10998764,-0.8626635,-2.0217428,1.5334784,1.3852863,16.066333019466615,-10.076771010143775,84.05708273548979,122.33592725018123,-67.31527327265633,-69.28490672846799
1731602253492225,-0.2628278,0.16671984,-8.110413,-0.14058645,0.12074241,-0.8369685,-1.703523,1.3443464,3.211878,17.092821990294293,-10.570013044183442,83.46891780843607,128.31112135345947,-61.655254254958294,-73.5206158817136
1731602253500225,-0.26344404,0.16700217,-8.116239,-0.1543213,0.13168164,-0.8086512,-1.7168559,1.3674031,3.539659,18.174772299509772,-11.010884364882044,82.86630247173132,135.24378865193492,-55.108915087325244,-75.3269170880953
1731602253508225,-0.26418132,0.1673872,-8.121844,-0.16747811,0.1422025,-0.7756376,-1.644602,1.3151075,4.1266975,19.318812017399793,-11.393067640970745,82.25617486852346,143.00496473625245,-47.77290951108761,-76.26595040098124
1731602253524225,-0.2660317,0.16847193,-8.132341,-0.2002371,0.16756114,-0.71959555,-2.0474362,1.5849154,3.5026295,21.783292994184446,-11.981774353699713,80.99611552217236,154.030061049041,-36.79416954556051,-78.75370914694436
1731602253532225,-0.26719844,0.16920707,-8.137337,-0.2209272,0.18303752,-0.6986004,-2.5862622,1.9345468,2.6243923,23.067032617242994,-12.217995581018748,80.3373426624848,160.4674528823181,-29.527653414879456,-82.3466074609448
1731602253540225,-0.26853636,0.17007601,-8.142158,-0.24061361,0.19766904,-0.67191494,-2.4608018,1.8289405,3.3356843,24.389795554525183,-12.412112841345238,79.66553337338891,165.34536716027384,-24.26465754081113,-83.97616113698513
1731602253548225,-0.2700426,0.17107525,-8.146772,-0.2612103,0.2127369,-0.6443981,-2.5745852,1.8834825,3.439605,25.758404595493953,-12.555788279571043,78.98204497521085,171.07613012109616,-17.95942977822572,-85.43604977225806
1731602253556225,-0.27173743,0.1722167,-8.151204,-0.28462785,0.22948326,-0.6201956,-2.927195,2.0932946,3.0253081,27.159814634849464,-12.657155376031934,78.28622540811897,175.17625491943886,-12.6708870576114,-86.97744588648547
1731602253572225,-0.27312705,0.17236131,-8.1598625,-0.33444715,0.2636419,-0.5718993,-3.1137056,2.1349144,3.0185206,30.060507506692954,-12.724610506552288,76.86397200031561,181.29330449021805,-4.215945657522078,-88.89083798770992
1731602253580225,-0.27421114,0.17272137,-8.163949,-0.36418355,0.28346422,-0.55227757,-3.7170498,2.477791,2.452716,31.53653149873271,-12.70882987421641,76.12649814677819,184.5029990049699,1.9725790419847917,-92.18423169217752
1731602253588225,-0.2755802,0.1732854,-8.167893,-0.39613286,0.3044189,-0.5333551,-3.9936638,2.6193335,2.365306,33.022844057994945,-12.664091023421117,75.36147112885861,185.78906990777926,5.592356349411482,-95.62837723994643
1731602253596225,-0.27724925,0.17406043,-8.171696,-0.4299021,0.32628673,-0.5142895,-4.221156,2.73348,2.3832023,34.514865160446085,-12.592425619413307,74.57346204056968,186.50263780639264,8.958175500976255,-98.50113603611659
1731602253612225,-0.28153557,0.17626531,-8.178866,-0.50197583,0.37229726,-0.47423646,-4.5046077,2.8756576,2.503315,37.502238063328804,-12.367686825521993,72.92810471215795,186.71080643016973,14.046174618207107,-102.83483302573342
1731602253620225,-0.28417373,0.17770493,-8.182219,-0.54002947,0.39638025,-0.452832,-4.756704,3.0103734,2.6755555,38.9941647526347,-12.216645933879947,72.07080047816143,186.49083616323773,18.88011145525573,-107.16302924956544
1731602253628225,-0.2871379,0.1793659,-8.185384,-0.5739237,0.4179825,-0.42336038,-4.2367797,2.7002802,3.6839542,40.50628696264756,-12.02586337742679,71.21167256256535,189.01527625160676,23.847819556644815,-107.3909894495082
1731602253636225,-0.29039347,0.18122706,-8.188299,-0.60663944,0.43884447,-0.39004666,-4.089467,2.6077478,4.164215,42.06988736237994,-11.767562206704545,70.37034409037595,195.45004996654703,32.2876463402806,-105.16605902367566
1731602253644225,-0.29396155,0.18330005,-8.190971,-0.6439928,0.46237308,-0.36006027,-4.669167,2.9410756,3.7482975,43.66321957527618,-11.455503154594668,69.53458340515041,199.16652661203068,39.0073815137345,-104.47008565319334
1731602253660225,-0.3020827,0.18809755,-8.195646,-0.7275764,0.51376146,-0.30243307,-5.223974,3.2117739,3.6016998,46.877787883285286,-10.739395334446641,67.90183122409802,200.91051925056922,44.75673875925173,-102.04701131577453
1731602253668225,-0.30670753,0.19085848,-8.19765,-0.77231294,0.5410321,-0.27291983,-5.59207,3.4088268,3.6891549,48.48605013341077,-10.345463765667485,67.09502469927818,201.03278126568577,49.2414460973943,-100.85081560247924
1731602253676225,-0.3117261,0.19386962,-8.199422,-0.81852984,0.56913877,-0.24234882,-5.777113,3.513336,3.8213766,50.09084441660728,-9.919535000905109,66.273946998293,200.59928539956348,53.24109559529711,-102.63471262314715
1731602253692225,-0.32476577,0.20096505,-8.202344,-0.91513324,0.62738925,-0.17739244,-6.0377116,3.6406553,4.0597734,53.27916387991787,-8.971617804644284,64.59758807747052,199.26996645691162,59.2448247663016,-104.77243255140533
1731602253700225,-0.33188078,0.20489933,-8.203415,-0.9650159,0.65757245,-0.1427485,-6.235331,3.7728994,4.3304915,54.856996272183956,-8.449119907153966,63.742670194898885,197.22904903326133,65.31223718628975,-106.86473532145443
1731602253708225,-0.3394032,0.20909786,-8.20421,-1.0158283,0.6884867,-0.10658522,-6.3515453,3.8642807,4.5204105,56.42237265679456,-7.893584226244256,62.874220621333265,195.67204807632504,69.44196011371372,-108.55619669570217
1731602253716225,-0.34734026,0.2135658,-8.204719,-1.0674644,0.72012883,-0.06886709,-6.454512,3.9552672,4.7147665,57.97515598831576,-7.30404938653164,61.99315511034617,194.0979164401504,73.69185496407705,-110.13318887338713
1731602253732225,-0.36449793,0.22334595,-8.204815,-1.1708846,0.7849245,0.012599822,-6.4637656,4.0497293,5.091682,61.0370373783668,-6.005706816123082,60.18297626902702,191.3675868781896,81.14641065053485,-113.13617758244669
1731602253740225,-0.37366375,0.22863156,-8.204344,-1.213377,0.8121463,0.062018394,-5.311548,3.4027247,6.1773214,62.58745620286074,-5.279828902313258,59.29881824856335,193.80235306174345,90.73473922622796,-110.51975255795949
1731602253748225,-0.38318703,0.23416275,-8.203485,-1.2599468,0.84226364,0.110685594,-5.8212276,3.7646666,6.0834,64.16520884996844,-4.500496048023913,58.446797846501035,197.2190808884608,97.41660678616819,-106.50255025778868
1731602253764225,-0.40334576,0.24599303,-8.200572,-1.3500178,0.9013198,0.2151183,-5.629435,3.69101,6.527044,67.38289433593212,-2.8036067602087344,56.82604678701774,201.1053428727306,106.05558048844864,-101.29694121770622
1731602253772225,-0.41396925,0.25228757,-8.1984825,-1.3947694,0.9311283,0.270112,-5.593955,3.726065,6.8742127,69.02071113644996,-1.8870596656424,56.056682163700124,204.72710006473042,114.5683868207918,-96.17057791470174
1731602253780225,-0.42497933,0.25885385,-8.195964,-1.4449738,0.96500015,0.32438543,-6.2755494,4.2339783,6.784178,70.66211952386249,-0.928251361781346,55.30336199396879,205.17604842656513,119.85103798263174,-94.16502121641666
1731602253788225,-0.43640578,0.2657147,-8.193014,-1.4960487,0.99987704,0.38018128,-6.3843575,4.35961,6.9744806,72.29780317970742,0.06685902941138856,54.560131974798196,204.46045698061664,124.38879889909182,-92.90375239632412
1731602253796225,-0.44823533,0.27284983,-8.189609,-1.5443367,1.0330328,0.43900347,-6.0359983,4.1444674,7.3527727,73.93418560681987,1.099808248815824,53.83140758894229,204.5478033890557,129.11865242555442,-91.09054823198878
1731602253804225,-0.460454,0.28026262,-8.185731,-1.5904073,1.0650765,0.50033385,-5.7588215,4.0054617,7.666297,75.57570878445047,2.1620886692709593,53.12989593549975,205.19039720382645,132.78505255689194,-87.68895668031647
1731602253820225,-0.48936713,0.29731336,-8.176609,-1.695948,1.1385522,0.624967,-6.596297,4.592232,7.7895703,78.85700428367302,4.389492599133381,51.78822313942873,205.08096870140875,139.21274561640135,-83.8545497544391
1731602253828225,-0.5044377,0.30628985,-8.1713,-1.7525274,1.1791807,0.6891319,-7.0724187,5.078569,8.020617,80.47913681193978,5.555044686322192,51.13742974044045,202.76656603334632,145.69401089860136,-81.34917487353495
1731602253836225,-0.5199381,0.31558907,-8.165475,-1.810038,1.2213838,0.75508714,-7.1888266,5.2753835,8.244402,82.07903303828304,6.760546268767865,50.48739336831968,199.987028292907,150.68769780570906,-81.25454651509618
1731602253844225,-0.53587437,0.32522202,-8.159119,-1.867847,1.2648202,0.82296,-7.2261243,5.4295506,8.48411,83.65452858153078,8.006379457132438,49.836646436825035,196.936942905967,155.72914854557163,-81.3433664368304
1731602253860225,-0.5690385,0.34550586,-8.144751,-1.9768193,1.3495575,0.9651531,-6.810769,5.296081,8.887067,86.72497774383717,10.614451891943608,48.53093297224409,191.90307264414977,163.00452717569817,-81.60709153630918
1731602253868225,-0.58621097,0.35612166,-8.1367035,-2.0289383,1.3914167,1.0391983,-6.514877,5.2323933,9.255648,88.2130856902618,11.977380772191703,47.87311103686434,186.01349330307923,170.36611003101186,-82.2277419224691
1731602253876225,-0.60378796,0.36707297,-8.128062,-2.0827193,1.4361562,1.1148885,-6.7226286,5.5924354,9.461284,89.67149009245955,13.374801261699876,47.22278676345688,182.30055027471747,174.67756118852148,-81.29053417593235
1731602253884225,-0.6217537,0.37835515,-8.1188135,-2.1288145,1.475186,1.1923294,-5.7618914,4.8787293,9.680107,91.08536846674023,14.806135108564886,46.55927952616184,176.7347967850853,178.9167308581264,-82.93840466188036
1731602253900225,-0.6586802,0.4017952,-8.098441,-2.2184145,1.5556397,1.3516344,-5.600005,5.0283594,9.95656,93.73895019406535,17.78920348894157,45.15793550109951,165.84885795782014,186.44177377354274,-87.58400156639524
1731602253908225,-0.6776853,0.41402262,-8.087293,-2.2674913,1.603023,1.4336728,-6.134599,5.922913,10.2548,94.99063576375583,19.34492971966044,44.43742661865583,156.46069621130982,194.46577883985853,-90.06361030546074
1731602253924225,-0.71683556,0.4396295,-8.063009,-2.3659537,1.705046,1.6022807,-6.1538963,6.3764377,10.537996,97.35280702379292,22.587202876417255,42.97468480192557,147.6357037523181,202.64207229730098,-91.42136354564106
1731602253932225,-0.7401255,0.45379826,-8.050069,-2.4175453,1.7562116,1.6886674,-6.448954,6.395697,10.798334,98.4632041171369,24.274105565317168,42.232493906353945,138.79963666799677,210.8628361124893,-92.77386194645308
1731602253940225,-0.76374584,0.46832407,-8.03643,-2.4663937,1.806637,1.7759964,-6.1060486,6.303176,10.916128,99.56183929251513,25.957674234613254,41.5686529606457,137.3293969222791,210.44608366201078,-82.98011821353047
1731602253948225,-0.78766435,0.48318318,-8.02209,-2.510895,1.8541814,1.8637686,-5.5626626,5.9430447,10.971516,100.56736263421007,27.68930308186357,40.8644528355048,125.690417711867,216.4536059062895,-88.02501564261264
1731602253956225,-0.81187344,0.49838552,-8.00704,-2.5559092,1.9054354,1.9528786,-5.6267676,6.406754,11.138752,101.48889988472416,29.468712860890076,40.12927278175696,115.19215631426273,222.42622237831293,-91.89750671848023
1731602253972225,-0.86116636,0.52991194,-7.974776,-2.6436522,2.0146723,2.1339061,-5.48394,6.827302,11.31422,103.11140892970707,33.16635820590159,38.58962629768971,101.40681531143132,231.1028340632197,-96.227905254203
1731602253980225,-0.8862372,0.5462658,-7.957549,-2.6854315,2.0715554,2.2253802,-5.2224097,7.110387,11.434257,103.81785828980532,35.08307419103858,37.787371306948614,88.30617001228153,239.58949814212343,-100.28187384263659
1731602253988225,-0.9115768,0.56302583,-7.9395876,-2.7249904,2.1285672,2.317127,-4.944861,7.12648,11.46835,104.43640344049916,37.0429420764748,36.949232799036125,77.31814383672976,244.98348567952775,-104.7673134890616
1731602253996225,-0.93716514,0.5801843,-7.9208913,-2.7618487,2.1847417,2.408858,-4.60729,7.0218143,11.466383,104.87877023824517,39.05874625252739,36.00926536363132,55.295849718251894,251.97552200657432,-117.49592942560025
1731602254004225,-0.9629899,0.5977882,-7.9014583,-2.7973287,2.244308,2.5008066,-4.435003,7.445782,11.493563,105.15596406249509,41.12565349136235,34.9754079193531,34.64922803124017,258.3634048543697,-129.23218053477746
1731602254020225,-1.0153013,0.63432324,-7.860386,-2.863543,2.3683426,2.6839495,-4.138395,7.752165,11.446431,105.23470096261646,45.40110033020853,32.59809488744718,4.921056257585022,267.21542742788586,-148.58206449412012
1731602254028225,-1.0417645,0.65327686,-7.8387537,-2.8938992,2.4320185,2.7746594,-3.7945209,7.9594846,11.33874,105.04659428028776,47.59259726485506,31.269598147189814,-23.513335291086076,273.937116830817,-166.06209253217085
1731602254036225,-1.0684154,0.672699,-7.816398,-2.9223604,2.49657,2.8645658,-3.557652,8.068949,11.238306,104.69127189468234,49.814293260748634,29.83184027381038,-44.415298200676986,277.71199948669624,-179.71973417242947
1731602254052225,-1.122213,0.7129281,-7.769553,-2.9710464,2.619139,3.0402174,-3.0428765,7.6605525,10.978221,103.27353029508195,54.33154613275885,26.444633076698647,-88.60884997502465,282.3283045006387,-211.70044981948328
1731602254060225,-1.1528188,0.73500687,-7.74249,-2.9968607,2.6767426,3.1271398,-3.2267866,7.2004495,10.8653,102.08218496143179,56.61712071469421,24.375535460786207,-148.91816670627037,285.6968227419202,-258.63720198905486
1731602254068225,-1.1835151,0.7574261,-7.7148046,-3.0203521,2.7317507,3.2123513,-2.9364226,6.8760214,10.651439,100.56794397748915,58.899485412168794,22.108365887423176,-189.28012299283097,285.2955871843226,-283.39619667037874
1731602254076225,-1.2142938,0.78022426,-7.6865077,-3.0410275,2.782899,3.2957635,-2.5844274,6.393522,10.42652,98.54235590630182,61.172624333233664,19.411852642677463,-253.1985088984157,284.14236513310914,-337.0641555932141
1731602254084225,-1.2451297,0.8033179,-7.657615,-3.0601218,2.8326275,3.3774846,-2.3867786,6.2160788,10.215133,95.8298770507087,63.42148766892446,16.110455482583163,-339.0598569491391,281.10791696134993,-412.67464501178773
1731602254100225,-1.3069663,0.8504932,-7.5980844,-3.0961843,2.9379382,3.535741,-2.2539048,6.5819173,9.891033,87.91885696889271,67.69271753565651,7.265478172667811,-494.43875511349967,266.9518666707526,-552.8110818697095
1731602254108225,-1.3379532,0.8745579,-7.5674725,-3.1125479,2.9891505,3.6118522,-2.0454526,6.4015384,9.513885,82.34058334087189,69.61787410047454,1.3351391964137573,-697.2842035026033,240.6445706022535,-741.2923720317566
1731602254116225,-1.3689853,0.8989749,-7.536319,-3.1291537,3.0472054,3.685377,-2.0757318,7.256865,9.190589,75.4554748193913,71.31362384424115,-5.830427994920985,-860.6385651850737,211.9687179708265,-895.6958989168428
1731602254132225,-1.4311953,0.9490213,-7.4724665,-3.1617699,3.1725724,3.8239214,-2.0385087,7.8354325,8.659035,57.48938089127399,73.65770093486836,-24.147530160498686,-1122.8808705073316,146.50481816420105,-1144.8188853486063
1731602254140225,-1.4623744,0.9746826,-7.4398108,-3.1774113,3.2345345,3.8892882,-1.9551812,7.7452655,8.170843,46.79552555942655,74.10935586863063,-34.91503152137631,-1336.7319164809298,56.45686672028331,-1345.9376701097024
1731602254148225,-1.4935833,1.0007501,-7.4066925,-3.192195,3.291991,3.952812,-1.8479525,7.182061,7.9404707,35.71371048940757,73.98493958869447,-46.00526472109133,-1385.2268837523725,-15.552034992020324,-1386.2791499643783
1731602254164225,-1.556146,1.054103,-7.339151,-3.2229447,3.4142077,4.0696125,-1.9218622,7.6385436,7.300034,15.36810676671175,72.06859469390659,-66.17799617351875,-1271.6002326684888,-119.77155592424268,-1260.795715776714
1731602254172225,-1.5875114,1.0814152,-7.304777,-3.238976,3.4761095,4.1233625,-2.0039082,7.7377257,6.7187543,6.9806303010006125,70.4251374155163,-74.3786570797516,-1048.4345582138922,-205.43215979878494,-1025.0826132791062
1731602254180225,-1.6189412,1.109151,-7.270031,-3.2553108,3.5355499,4.1749544,-2.0418465,7.4300466,6.4489837,-0.11922809655379245,68.44146962656275,-81.22379200532575,-887.4822996943007,-247.95847361919502,-855.641865696767
1731602254188225,-1.6503301,1.1416469,-7.231075,-3.262558,3.5982442,4.2292066,-0.90590113,7.8367887,6.781518,-6.0726136223667195,66.18742769102285,-86.8624369993174,-744.1731907266158,-281.7552419424865,-704.8306242489571
1731602254204225,-1.712938,1.2079738,-7.152413,-3.282951,3.7370226,4.3206816,-1.2745707,8.673653,5.717188,-14.663583823943112,61.02640033603575,-95.16418997303587,-536.9356375985245,-322.56420968669386,-518.8595608574043
1731602254212225,-1.7442274,1.2418574,-7.112815,-3.2982612,3.8166018,4.354765,-1.913756,9.947389,4.260421,-17.64272898874784,58.460320885393266,-98.40092518553114,-372.39314560059137,-320.7599313303107,-404.59190156190846
