timestamp,x,y,z,vx,vy,vz,ax,ay,az,roll,pitch,yaw,roll_rate,pitch_rate,yaw_rate
1731217629062140,-0.17974669,0.1335782,-6.293971,-0.038973104,0.027587464,0.8711306,0.0,0.0,0.0,0.14845925352047445,0.4251817908014858,89.59087743359918,0.0,0.0,0.0
1731217629070140,-0.18067682,0.13378894,-6.2868924,-0.03957192,0.027264552,0.8695446,-0.07485179,-0.040363982,-0.19824503,0.1344456099122729,0.4266407168278354,89.58926533467675,-1.751705451025195,0.18236575329369656,-0.20151236530324335
1731217629078140,-0.18159838,0.1339987,-6.2798285,-0.040138617,0.02694819,0.8680888,-0.07083733,-0.03954535,-0.18198042,0.12028914509976509,0.42774270243070717,89.58784455444949,-1.7695581015634765,0.13774820035897004,-0.17759752840682433
1731217629086140,-0.18251143,0.13420743,-6.2727785,-0.040678486,0.026624221,0.86671174,-0.067483634,-0.040496,-0.17213075,0.10596647266006246,0.42860274331160103,89.58646473061069,-1.7903340549628288,0.10750511011173956,-0.17247797985092297
1731217629102140,-0.18432204,0.13461988,-6.258784,-0.041697703,0.025982691,0.8637475,-0.06370106,-0.040095646,-0.18526612,0.07700374512238964,0.4299600947439261,89.58372896279806,-1.8101704711045508,0.08483446452031566,-0.17098548828856738
1731217629110140,-0.18521953,0.1348235,-6.251808,-0.042147562,0.025648847,0.86204356,-0.056232322,-0.041730467,-0.21298973,0.062420713768503944,0.4306645579111118,89.58235943294157,-1.8228789192357122,0.08805789589821099,-0.17119123206228104
1731217629118140,-0.18610859,0.13502581,-6.244847,-0.04257887,0.025313728,0.8604903,-0.05391333,-0.041889954,-0.19415466,0.047709443919096026,0.4314639261105963,89.58102063896924,-1.8389087311759897,0.09992102493556745,-0.16734924654169167
1731217629126140,-0.18698935,0.1352266,-6.2378993,-0.042981237,0.024957206,0.8590019,-0.050296072,-0.04456518,-0.18605588,0.0329729175488892,0.43205736900512437,89.57973987661065,-1.8420657962758533,0.07418036181600757,-0.16009529482490975
1731217629142140,-0.18858874,0.13547719,-6.2218747,-0.043387547,0.024198629,0.8563703,-0.02539437,-0.04741107,-0.16447528,0.0034670202947408055,0.4328572442936132,89.57913530372946,-1.8441185783842748,0.04999220553055173,-0.037785805073430524
1731217629150140,-0.18937531,0.13560246,-6.2139626,-0.04356147,0.02381793,0.85484064,-0.021740327,-0.04758732,-0.19120423,-0.011227484546053742,0.43332952801450975,89.57971587070982,-1.8368131050993184,0.05903546511206473,0.0725708725436948
1731217629158140,-0.19015317,0.13572751,-6.2060905,-0.04370433,0.02343607,0.8534305,-0.017857645,-0.047732607,-0.17626582,-0.02565140394293877,0.4337170456209463,89.58030329299413,-1.8029899246106287,0.0484397008045715,0.07342778554054197
1731217629166140,-0.19092233,0.13585238,-6.1982565,-0.043825667,0.023067085,0.85207,-0.015167053,-0.04612305,-0.17006694,-0.03975073596251684,0.43402822835658844,89.58102390422846,-1.7624165024472591,0.03889784195526937,0.09007640429084185
1731217629182140,-0.19243768,0.13610673,-6.1827025,-0.044019368,0.02230929,0.8489337,-0.012106261,-0.047362175,-0.19601731,-0.0665153167073569,0.4336225141622457,89.58235928357871,-1.672786296552504,-0.025357137146425634,0.08346120939073315
1731217629190140,-0.19318257,0.1362331,-6.174984,-0.04409263,0.021932539,0.8470335,-0.009157695,-0.047093954,-0.2375245,-0.07926680688210504,0.4331361427553697,89.58302874293064,-1.5939362718435173,-0.06079642585949087,0.0836824189892763
1731217629198140,-0.19391894,0.1363589,-6.1673045,-0.044141065,0.021557404,0.84523255,-0.0060545276,-0.046891857,-0.22511928,-0.0916116039181084,0.4326161797651922,89.58371178804143,-1.5430996295004185,-0.06499537377219486,0.0853806388487665
1731217629206140,-0.19464684,0.13648403,-6.1596627,-0.044168286,0.021175953,0.84347457,-0.0034025868,-0.047681384,-0.21974741,-0.1035828443034984,0.4320139587171859,89.58439490750656,-1.4964050481737503,-0.0752776310007876,0.08538993314358026
1731217629222140,-0.19607699,0.13673185,-6.144571,-0.04414452,0.02039004,0.83946353,0.0014854594,-0.04911958,-0.2506897,-0.12601244923065705,0.4301939819511793,89.58616066330582,-1.4018503079474165,-0.11374854787540867,0.11035973745305873
1731217629230140,-0.19677924,0.1368542,-6.1370816,-0.044106476,0.019991,0.8371461,0.004755333,-0.049880005,-0.28967857,-0.13636869303820628,0.4290438097944842,89.58714775085011,-1.2945304759436518,-0.14377151958689452,0.12338594303672067
1731217629238140,-0.19750573,0.13696688,-6.1296306,-0.04410375,0.01956572,0.8349414,0.00034086403,-0.05315989,-0.27558953,-0.1463081134975818,0.42785364273622617,89.58812115309547,-1.2424275574219403,-0.14877088228225344,0.12167528066920552
1731217629246140,-0.19822355,0.13707832,-6.1222157,-0.044080555,0.019132068,0.83282626,0.002899207,-0.054206464,-0.2643913,-0.15565646018890641,0.4265199045085044,89.58845937081048,-1.1685433364155762,-0.1667172784652199,0.04227721437645253
1731217629262140,-0.1994317,0.13706152,-6.1074038,-0.043871097,0.018221132,0.8283644,0.013091135,-0.056933492,-0.27886778,-0.1730279306419495,0.4234384972947873,89.5892791419707,-1.0857169033151934,-0.1925879508573184,0.051235697514611586
1731217629270140,-0.19992602,0.1369385,-6.1000514,-0.04368662,0.017708108,0.8258793,0.023059545,-0.06412808,-0.31063706,-0.1812409261109651,0.42192311455895737,89.59071367950501,-1.0266244336269488,-0.18942284197873854,0.1793171917886158
1731217629278140,-0.2004156,0.1368191,-6.0927367,-0.04347958,0.017198622,0.8235422,0.025880056,-0.0636857,-0.29213727,-0.1891309845796527,0.4201757662498398,89.59217548836266,-0.9862573085859513,-0.21841853863969357,0.18272610720470925
1731217629286140,-0.20090038,0.13670318,-6.0854583,-0.04327576,0.016698187,0.8213159,0.025477724,-0.062554374,-0.27828664,-0.19665904704024784,0.41819992106955894,89.59378421864221,-0.9410078075743915,-0.2469806475351108,0.2010912849436815
1731217629302140,-0.2018555,0.13648155,-6.0710077,-0.042818885,0.015768724,0.8167005,0.028554581,-0.058091477,-0.2884604,-0.21107359101723722,0.41322453090710354,89.597220242249,-0.9009089985618357,-0.3109618851534624,0.21475147542424475
1731217629310140,-0.20232171,0.13637698,-6.063837,-0.042556137,0.015319544,0.81416976,0.032843556,-0.056147456,-0.31634417,-0.2178219042259092,0.4102876604885118,89.59896559706534,-0.8435391510839964,-0.3671088023239732,0.21816935204361157
1731217629318140,-0.20278305,0.13627556,-6.056702,-0.042302467,0.014880451,0.81179476,0.03170874,-0.05488656,-0.29687583,-0.22427600196701367,0.4070826994519264,89.60080998837334,-0.8067622176380608,-0.40062012957317666,0.23054891349935128
1731217629326140,-0.20323953,0.13617714,-6.0496016,-0.042034827,0.014449781,0.8095313,0.03345497,-0.05383382,-0.2829358,-0.23049491582656245,0.403694654056309,89.60268169908638,-0.7773642324435999,-0.4235056744521714,0.2339638391301124
1731217629342140,-0.20413792,0.13598855,-6.035585,-0.04148717,0.013567224,0.8049168,0.034228664,-0.05515979,-0.28840452,-0.2414609449044342,0.3965544509792755,89.6064798048082,-0.6853768173669847,-0.4462626923145939,0.23738160761380062
1731217629350140,-0.20457987,0.13589808,-6.028626,-0.04119949,0.013147423,0.80242723,0.03595976,-0.052475136,-0.31119585,-0.24619694778161602,0.39285074638016504,89.60834131253245,-0.5920003596477244,-0.46296307488880645,0.23268846553139316
1731217629358140,-0.205017,0.13581005,-6.0217,-0.040911622,0.012732588,0.8001005,0.03598351,-0.05185441,-0.29084086,-0.2506938329694895,0.3891180678112451,89.61030522478195,-0.5621106484841883,-0.466584821114994,0.24548903118831286
1731217629366140,-0.2054493,0.1357244,-6.014805,-0.040615976,0.012337018,0.79787666,0.03695581,-0.04944624,-0.27798116,-0.25505014825262834,0.385295795995578,89.6122896954985,-0.544539410392349,-0.47778397695838326,0.24805883956763788
1731217629382140,-0.20660439,0.13559663,-6.0018535,-0.040049493,0.011530129,0.79311675,0.03540516,-0.050430533,-0.29749423,-0.2631526931553262,0.3772534170198328,89.61629610501102,-0.506409056418616,-0.5026486859840769,0.2504005945326339
1731217629390140,-0.20731929,0.1355529,-5.9958177,-0.039787617,0.011128834,0.79046327,0.03273459,-0.050161846,-0.33168492,-0.2667929890425079,0.3731197299249369,89.61947587443282,-0.45503698589771663,-0.5167108868619842,0.3974711777249434
1731217629398140,-0.20802148,0.1355098,-5.9897947,-0.039493874,0.010735394,0.78799045,0.03671786,-0.04918,-0.30910224,-0.26998895195284695,0.36899583669176156,89.62279226703308,-0.3994953637923787,-0.5154866541469213,0.414549075032552
1731217629406140,-0.20871112,0.13546737,-5.983783,-0.039189633,0.010362043,0.7856346,0.03803009,-0.04666892,-0.2944842,-0.27274582797596186,0.364674506213177,89.62615307469484,-0.3446095028893692,-0.5401663098230666,0.4201009577205474
1731217629422140,-0.21005349,0.13538459,-5.9717913,-0.038552295,0.009645275,0.78099376,0.039833594,-0.04479801,-0.2900511,-0.27759278013628674,0.35589866019544625,89.63274138054669,-0.3029345100203021,-0.5484903761081706,0.41176911574073843
1731217629430140,-0.21070673,0.13534425,-5.9658127,-0.038246408,0.009306946,0.7785956,0.038235914,-0.042291123,-0.29976666,-0.27990401244933394,0.35155545756691087,89.63603041738543,-0.2889040391309057,-0.542900328566928,0.41112960484078986
1731217629438140,-0.21134844,0.13530461,-5.959845,-0.03794327,0.008971521,0.77644706,0.037892256,-0.04192814,-0.26857108,-0.2822777185641419,0.34725918869046224,89.63941507364139,-0.2967132643509917,-0.5370336095560757,0.4230820319960343
1731217629446140,-0.211979,0.13526566,-5.9538875,-0.03765431,0.008639853,0.77447945,0.03611995,-0.041458406,-0.2459511,-0.28474368400839417,0.3429872013896047,89.64275530931097,-0.30824568053153584,-0.5339984126071955,0.4175294586967079
1731217629462140,-0.21319786,0.13519171,-5.9420767,-0.03702274,0.008005339,0.7707236,0.039473172,-0.039657168,-0.2347417,-0.28927142468631867,0.33469307225713013,89.64970902127497,-0.28298379237027965,-0.5183830707796607,0.4346069977506129
1731217629470140,-0.21379139,0.1351556,-5.936183,-0.036706034,0.00769628,0.7688566,0.03958819,-0.038632363,-0.23337452,-0.2914171814013942,0.33092068980269473,89.65327124964953,-0.26821958938444423,-0.47154780680442476,0.4452785468205432
1731217629478140,-0.21437459,0.13512015,-5.9302964,-0.036383018,0.0073987176,0.7672116,0.04037702,-0.037195276,-0.20562111,-0.29334330255543595,0.32728870347631095,89.6567958474178,-0.24076514425521736,-0.45399829079797266,0.4405747210323219
1731217629486140,-0.2149477,0.13508525,-5.9244156,-0.036069106,0.0071024853,0.76571465,0.039238945,-0.037029035,-0.18712132,-0.295024077581562,0.323771953066111,89.6602760470028,-0.2100968782657564,-0.4395938012749899,0.4350249481239273
1731217629502140,-0.21606457,0.13501728,-5.912669,-0.03542768,0.0065463227,0.76281846,0.040089242,-0.03476016,-0.18101184,-0.2976758698115453,0.3163661515390318,89.66717502787976,-0.1657370143739553,-0.4628625954424518,0.4311863048105062
1731217629510140,-0.21632658,0.13513422,-5.90692,-0.035103384,0.0064243223,0.76128525,0.040536743,-0.015250057,-0.19165127,-0.29894293408600076,0.31279513607773185,89.67053231666453,-0.15838303430693243,-0.44637693266248946,0.4196610980971049
1731217629518140,-0.2165691,0.13523598,-5.9011726,-0.034747887,0.006270892,0.759961,0.04443712,-0.019178784,-0.16552953,-0.3003337859610854,0.30915360443765294,89.67258498044909,-0.17385648438558374,-0.45519145500986713,0.2565829730697186
1731217629526140,-0.21681029,0.13533624,-5.8954268,-0.034368314,0.006112993,0.75880057,0.04744669,-0.019737344,-0.14505535,-0.3019394144997678,0.3056699176943295,89.67627348898276,-0.20070356733529585,-0.435460842915432,0.4610635667077361
1731217629542140,-0.21728835,0.13553284,-5.8839383,-0.033642616,0.0058394955,0.7564169,0.045356106,-0.01709361,-0.14897808,-0.3054577514743757,0.29902994755186213,89.68364366938154,-0.21989606091299563,-0.4149981339042086,0.46063627492446124
1731217629550140,-0.21752527,0.13562928,-5.8781967,-0.03328775,0.0057071387,0.7551041,0.044358425,-0.016544595,-0.16409902,-0.30749854405969784,0.29623115973643316,89.68734237935665,-0.25509907316526786,-0.34984847692862364,0.4623387468889738
1731217629558140,-0.21776071,0.13572456,-5.872457,-0.032917466,0.0055682473,0.7539801,0.04628533,-0.017361423,-0.14050305,-0.30965279908360976,0.29385694382982896,89.69093523861044,-0.26928187798899095,-0.29677698832551946,0.44910740672152455
1731217629566140,-0.21799451,0.13581866,-5.8667183,-0.032547463,0.005441082,0.7529746,0.046250407,-0.015895639,-0.12568384,-0.31169758364259986,0.2917618093033205,89.6942958334725,-0.2555980698737568,-0.2618918158135602,0.4200743577573646
1731217629582140,-0.21845692,0.13600342,-5.855321,-0.031799633,0.0051611103,0.75092894,0.04673935,-0.01749824,-0.12785569,-0.31468845315400645,0.28837908808516627,89.70070622876125,-0.18692934446291365,-0.21142007613463878,0.4006497055478424
1731217629590140,-0.2186801,0.13609585,-5.8496227,-0.03142462,0.0050243316,0.7497607,0.04687672,-0.017097335,-0.14603138,-0.3157632793130299,0.28690422888642014,89.70381750108662,-0.13435326987792767,-0.18435739984326693,0.38890904067029997
1731217629598140,-0.21890156,0.13618721,-5.8439255,-0.0310545,0.00490116,0.74876887,0.046264842,-0.01539645,-0.12397765,-0.3166194518531507,0.2856063700244969,89.70692194237849,-0.10702156751510361,-0.16223235774040878,0.3880551614837024
1731217629606140,-0.21912117,0.1362776,-5.8382273,-0.030671269,0.0047813444,0.74789125,0.04790397,-0.014976947,-0.10970234,-0.3172698198222369,0.2843117930419776,89.70990000709166,-0.08129599613577546,-0.16182212281490946,0.3722580891469398
1731217629622140,-0.21955478,0.13645546,-5.8268294,-0.029931994,0.004543644,0.74613655,0.046204656,-0.014856283,-0.10966881,-0.3185784716508072,0.28214483569110277,89.71564438206283,-0.0817907392856446,-0.1354348344296789,0.35902343569787676
1731217629630140,-0.21976887,0.136543,-5.821171,-0.029567914,0.004417371,0.7451068,0.045510005,-0.015784113,-0.12871623,-0.31896096862923845,0.28123176710246917,89.7184004472773,-0.04781212230390141,-0.11413357357920044,0.3445081518102337
1731217629638140,-0.21989498,0.13665436,-5.8158236,-0.02915907,0.00432268,0.7442321,0.05110539,-0.011836353,-0.10933726,-0.31923948463163854,0.2805621337121502,89.72093453098671,-0.034814500300010105,-0.08370417378986761,0.3167604636759233
1731217629646140,-0.22002102,0.13676462,-5.810466,-0.028761102,0.0042426526,0.7434672,0.049746126,-0.010003451,-0.09561329,-0.3193739344712587,0.28002398307124116,89.72371108604412,-0.0168062299525285,-0.06726883011362723,0.34706938217474254
1731217629662140,-0.22023289,0.1369998,-5.799721,-0.027901744,0.0040916195,0.74182206,0.053709835,-0.009439565,-0.10282173,-0.3190497837711434,0.27928647393852646,89.72868354783756,0.020259418757210088,-0.046094320794671254,0.3107788620907749
1731217629670140,-0.2203188,0.13712466,-5.7943354,-0.027462762,0.004040212,0.74086285,0.054872826,-0.0064259507,-0.119902186,-0.3189115339755564,0.2786251650507593,89.73045606386914,0.01728122444837823,-0.08266361097089212,0.22156450394645977
1731217629678140,-0.22040465,0.13724847,-5.788943,-0.027013682,0.003995003,0.7400651,0.056135,-0.0056510903,-0.09971856,-0.3185902304636135,0.2779905636213038,89.73220122665869,0.04016293899285555,-0.0793251786819396,0.21814534869322214
1731217629686140,-0.22049028,0.13737114,-5.783541,-0.02657066,0.0039211065,0.7393724,0.055377834,-0.00923709,-0.08659064,-0.31828702394135017,0.27736831540813817,89.7338576126399,0.0379008152829201,-0.0777810266457054,0.207048247651136
1731217629702140,-0.22066075,0.13761295,-5.772788,-0.02569979,0.0038124498,0.7379923,0.05442928,-0.006791044,-0.086255364,-0.31739109510016345,0.2761997257748353,89.73662393653785,0.05599555257416993,-0.07303685208142766,0.17289524362279066
1731217629710140,-0.22074553,0.13773221,-5.767399,-0.025271907,0.0037542584,0.7371749,0.053485386,-0.00727392,-0.102169804,-0.31687331777030614,0.27579052332694226,89.73792513585255,0.06472216623216219,-0.0511503059866298,0.16264991433654097
1731217629718140,-0.22082992,0.13785037,-5.7620006,-0.024852278,0.0037047104,0.7365578,0.052453715,-0.0061934986,-0.07714331,-0.3162690961847536,0.27556984696540127,89.73923653363813,0.0755276981940687,-0.02758454519262455,0.16392472319756127
1731217629726140,-0.22091387,0.13796754,-5.756593,-0.02442419,0.003663141,0.73605645,0.053510997,-0.0051961686,-0.06266683,-0.3155370036472741,0.2754751570371289,89.74043186473094,0.09151156718493417,-0.011836241034047366,0.14941638660107484
1731217629742140,-0.22108303,0.1382064,-5.745751,-0.023599932,0.0035799015,0.7349827,0.051516104,-0.0052024694,-0.06710738,-0.31336593404974694,0.27597088510050605,89.74209843316089,0.13569184984544772,0.03098300396107219,0.10416052687195403
1731217629750140,-0.2211668,0.13832434,-5.7403574,-0.023208862,0.0035455464,0.73428124,0.04888372,-0.0042943866,-0.087685876,-0.31194460840457794,0.2766202942309414,89.74275074790181,0.1776657056461275,0.08117614130441979,0.08153934261480714
1731217629758140,-0.22052829,0.1387033,-5.734866,-0.022614805,0.0035792254,0.7337869,0.07425714,0.004209869,-0.06179511,-0.31039662293276227,0.2773836835138575,89.74321177106292,0.19349818397695998,0.09542366036451302,0.05762789513850524
1731217629766140,-0.21990715,0.13907483,-5.7293677,-0.02204288,0.0035996975,0.73339576,0.071490645,0.0025590123,-0.048890706,-0.3088863714820769,0.27814058942599357,89.74302047950927,0.18878143133566536,0.09461323901700558,-0.023911444206691678
1731217629782140,-0.21871507,0.13979611,-5.718349,-0.020952083,0.0036354354,0.73251426,0.06817479,0.002233617,-0.055093314,-0.3052972480072727,0.2799374040537303,89.74245014238478,0.2243202171752649,0.11230091423354706,-0.03564607028035552
1731217629790140,-0.21814302,0.14014633,-5.7128305,-0.020393057,0.0036632258,0.7319197,0.069878295,0.0034738039,-0.07431954,-0.30296305293174863,0.2807955902447808,89.74194809187023,0.29177438444050874,0.10727327388131193,-0.06275631431866317
1731217629798140,-0.21755889,0.14048173,-5.7073064,-0.019811913,0.0036605413,0.73150134,0.07264292,-0.00033556714,-0.05229562,-0.30016665523691427,0.2816844593600038,89.74134701877125,0.34954971185429234,0.1111086394028728,-0.07513413737226952
1731217629806140,-0.21698971,0.1408106,-5.7017756,-0.019246925,0.0036636614,0.7311457,0.070623584,0.0003900204,-0.04445761,-0.2968760028360226,0.2827940317167503,89.74150405176577,0.41133155011145567,0.13869654459332187,0.019629124315574988
1731217629822140,-0.21589445,0.14144924,-5.6907783,-0.018138746,0.0036595038,0.7302285,0.06926118,-0.00025985355,-0.057324763,-0.28858181451365467,0.28577784725696476,89.7413879074898,0.5183867701479996,0.18648847126339885,-0.007259017248664072
1731217629830140,-0.21536733,0.14175929,-5.6852713,-0.017573101,0.0036433882,0.7295566,0.07070554,-0.0020144507,-0.08398294,-0.28376142018611983,0.28751769963929114,89.7412717169236,0.6025492909418514,0.21748154779080278,-0.01452382077391155
1731217629838140,-0.21485332,0.14206325,-5.679759,-0.017044835,0.003616171,0.7290277,0.066033326,-0.0034021502,-0.06611645,-0.27866111952346934,0.28945082776058867,89.74109750039219,0.6375375828313121,0.2416410151621916,-0.021777066426637487
1731217629846140,-0.2143521,0.14236125,-5.6742415,-0.01652421,0.0035941636,0.7285944,0.06507803,-0.002750923,-0.054158267,-0.27323967446070563,0.29167635078975007,89.7408276763473,0.6776806328454641,0.27819037864517293,-0.033728005611853344
1731217629862140,-0.21338664,0.14293998,-5.6631904,-0.015515486,0.0035550862,0.7275579,0.06304529,-0.0024423352,-0.0647828,-0.26140744423907536,0.29691851009063325,89.74026747554933,0.739514388851891,0.3276349563051998,-0.03501254987325018
1731217629870140,-0.21293429,0.14322579,-5.657701,-0.015057396,0.0035255174,0.7268201,0.057261202,-0.003696099,-0.09222328,-0.2549703342894544,0.2996892032072759,89.73973118000974,0.8046387437026172,0.34633663958032257,-0.06703694244730035
1731217629878140,-0.2124933,0.14350599,-5.6522074,-0.014609273,0.003479913,0.7262419,0.056015443,-0.005700538,-0.07227808,-0.24802544866391793,0.3025998644930065,89.7384231009424,0.8681107031920618,0.363832660716336,-0.1635098834186524
1731217629886140,-0.21243817,0.14391018,-5.6475444,-0.014317626,0.0035588327,0.7255306,0.036455806,0.009864947,-0.08890777,-0.24064650806002735,0.3055656491044624,89.73717652447274,0.9223675754863204,0.37072307643197994,-0.1558220587061022
1731217629902140,-0.21233508,0.14469713,-5.6381416,-0.013787657,0.003696104,0.7239663,0.03312307,0.00857946,-0.09777024,-0.22450227538095083,0.3112899641779789,89.73335478274278,1.0090145424422836,0.35776969209478,-0.23885885812271634
1731217629910140,-0.21228716,0.14508013,-5.633405,-0.013547956,0.0037414588,0.7230573,0.029962625,0.0056693386,-0.11362135,-0.21620971114603488,0.31403936969996715,89.73131243654579,1.0365705293644947,0.34367569024853795,-0.2552932746232487
1731217629918140,-0.21224177,0.14545625,-5.6286464,-0.013329726,0.0037926391,0.72243375,0.027278787,0.0063975453,-0.077947974,-0.20776012617021944,0.31669630017396105,89.72930762324941,1.0561981219769296,0.3321163092492388,-0.250601662048914
1731217629926140,-0.21219887,0.14582571,-5.6238637,-0.013105099,0.0038358518,0.7220492,0.028078327,0.0054015834,-0.048071142,-0.19930465455722443,0.3194179590491805,89.72733359320702,1.0569339516243765,0.34020735940242863,-0.24675375529921578
1731217629942140,-0.21210195,0.14655766,-5.614293,-0.012683016,0.0039473674,0.7222814,0.026380176,0.0069697266,0.01451373,-0.18265695203630367,0.3251053020736214,89.72323180143802,1.0404814075575481,0.35545893902755904,-0.2563619855621526
1731217629950140,-0.21204802,0.14692026,-5.609464,-0.012461556,0.004002711,0.7226841,0.027682515,0.006917922,0.05033612,-0.17460411278185578,0.32822461478820764,89.72083086343056,1.0066049068059824,0.3899140893232736,-0.30011725093190855
1731217629958140,-0.21199673,0.14727664,-5.6046047,-0.012251597,0.004034493,0.72331274,0.026244901,0.0039727893,0.078581266,-0.16686166910221956,0.3315336828433707,89.71837864739756,0.9678054599545307,0.41363350689538203,-0.3065270041259185
1731217629966140,-0.21194816,0.14762674,-5.5997143,-0.012062808,0.0040596607,0.7240921,0.023598665,0.0031459492,0.097423784,-0.159442040493699,0.3349588938847212,89.71587863485732,0.9274535760650672,0.4281513801688155,-0.3125015675299942
1731217629982140,-0.21185906,0.14830862,-5.589841,-0.011673498,0.0040766327,0.7259454,0.024331849,0.0010607473,0.115830444,-0.14532872111207804,0.3423410432661606,89.71071804303091,0.8820824613513117,0.46138433633996107,-0.32253698915098705
1731217629990140,-0.21181849,0.14864054,-5.584895,-0.011507556,0.0040698424,0.7268344,0.020742765,-0.00084878405,0.1111254,-0.13865896681815718,0.34633421472295556,89.70813942548922,0.8337192867401052,0.4991464320993717,-0.32232719270972743
1731217629998140,-0.21178053,0.14896658,-5.579919,-0.011323601,0.00407401,0.727806,0.022994353,0.00052095857,0.12144446,-0.13229041989856638,0.35056941053746876,89.70563597303006,0.7960683649488487,0.5293994768141491,-0.31293155739609363
1731217630006140,-0.21174526,0.14928699,-5.5749116,-0.0111723365,0.004078983,0.7288454,0.01890806,0.00062159955,0.12993068,-0.12614015117354518,0.35502696720755017,89.70297535266802,0.7687835906276494,0.5571945837601763,-0.3325775452543119
1731217630022140,-0.21154082,0.14958811,-5.565729,-0.010822985,0.0038987657,0.73089576,0.02183445,-0.0112635745,0.12814626,-0.1147046516578491,0.36403194851095116,89.69793078095465,0.7147187197310056,0.5628113314625631,-0.31528573208600624
1731217630030140,-0.21144517,0.14973567,-5.561075,-0.010663574,0.0037956585,0.7317791,0.01992646,-0.012888398,0.1104176,-0.10925560070139764,0.3684813206930445,89.69528388483998,0.6811313695564333,0.5561715227616636,-0.33086201433223195
1731217630038140,-0.21135382,0.14988112,-5.556381,-0.010510011,0.0036836423,0.7327331,0.019195372,-0.014002027,0.119246535,-0.10401709006699278,0.37295662902118176,89.69265742261462,0.6548138293006078,0.5594135410171598,-0.3283077781712662
1731217630046140,-0.21126667,0.15002444,-5.5516477,-0.010361534,0.0035633612,0.7336764,0.01855963,-0.015035125,0.11791288,-0.09911451398328412,0.3773903172565215,89.69012659940236,0.6128220104635812,0.5542110294174644,-0.31635290153250745
1731217630062140,-0.21110447,0.15030424,-5.5421343,-0.010087348,0.003299799,0.735693,0.017136626,-0.016472636,0.12603775,-0.08972455672053017,0.3857529487710499,89.68501713407325,0.5868723289221214,0.5226644696580246,-0.3193415830690183
1731217630070140,-0.21102935,0.1504406,-5.5373197,-0.0099692475,0.0031674514,0.73661774,0.01476251,-0.016543461,0.11559575,-0.08535943685041035,0.38944867260602195,89.68259215347236,0.5456399837649795,0.46196547937150667,-0.30312257511279345
1731217630078140,-0.2109518,0.15057983,-5.532468,-0.009860616,0.0030163971,0.7375885,0.013578915,-0.01888178,0.1213476,-0.08124271374501546,0.39279252832139205,89.68015358602071,0.5145903881743612,0.41798196442126384,-0.3048209314546559
1731217630086140,-0.21087818,0.15071636,-5.5275793,-0.009750633,0.0028543477,0.7385732,0.01374795,-0.020256178,0.123083584,-0.0774240812606097,0.395933315797937,89.67758518484312,0.47732906055071794,0.3925984345681187,-0.32105014719837044
1731217630102140,-0.210742,0.15098158,-5.517695,-0.009513644,0.0025554367,0.7406297,0.014811812,-0.018681938,0.12852997,-0.07082443890032906,0.4013074173557524,89.67284121207508,0.4124776475175404,0.33588134736346376,-0.2964982980028231
1731217630110140,-0.21067916,0.15111017,-5.5127373,-0.00939696,0.0023904697,0.7415034,0.014585442,-0.020620877,0.10921805,-0.06776445745191093,0.40375076438606267,89.67042654412465,0.3824976810522671,0.3054183787887812,-0.30183349380366087
1731217630118140,-0.2106197,0.15123598,-5.5077457,-0.009291069,0.0022159708,0.7424429,0.013236421,-0.021812359,0.117436044,-0.06493896082330995,0.40604405766284085,89.66809385749112,0.3531870785751213,0.2866616595972749,-0.2915858291919558
1731217630126140,-0.2105636,0.15135893,-5.502721,-0.009192372,0.002034126,0.7433892,0.012337113,-0.022730585,0.11828541,-0.062315994958887067,0.4080233683640097,89.66583290723278,0.3278707330528613,0.2474138376461031,-0.28261878229184123
1731217630142140,-0.21127084,0.15158014,-5.492878,-0.009288693,0.0015167048,0.74517494,-0.0060200687,-0.032338828,0.11160969,-0.05777528116368593,0.4113393498910693,89.66088750880972,0.2837946122000712,0.20724884544122507,-0.30908740144113545
1731217630150140,-0.21160497,0.15169102,-5.4879045,-0.0093160765,0.0012368754,0.7458986,-0.0034229595,-0.03497867,0.09045749,-0.05567870349538964,0.41287756962566086,89.65820984991839,0.2620722085370357,0.1922774668239497,-0.33470736141605023
1731217630158140,-0.21193306,0.15179771,-5.4828978,-0.009347294,0.00095927063,0.74668485,-0.0039022414,-0.0347006,0.0982806,-0.0539017747997039,0.41426071896460687,89.6554298178048,0.22211608696071752,0.17289366736824838,-0.34750401419875365
1731217630166140,-0.21225521,0.15190022,-5.477858,-0.0093563115,0.00068611087,0.7475003,-0.0011271331,-0.034144968,0.101931386,-0.05220985161475934,0.4153418915384027,89.65274195219382,0.2114903981180698,0.13514657172447328,-0.3359832013731413
1731217630182140,-0.21288177,0.152093,-5.4677534,-0.009346661,0.00015944647,0.7491477,0.0006031478,-0.032916524,0.10296329,-0.04923611347852253,0.41689716129345783,89.64755415456253,0.18585863351480067,0.09720435969094905,-0.32423735195531195
1731217630190140,-0.21318662,0.15218337,-5.4626536,-0.009352537,-0.000117874224,0.7498458,-0.0007344642,-0.03466508,0.08726119,-0.04814114687904911,0.41707189603370104,89.64508487547285,0.13687082493417796,0.02184184253039944,-0.30865988621037677
1731217630198140,-0.21348616,0.15226969,-5.4575233,-0.009369452,-0.000395143,0.7505979,-0.002114335,-0.034658592,0.09401142,-0.047364899610892706,0.4170025784496132,89.64257465682165,0.09703090851954987,-0.008664698010983967,-0.3137773314002659
1731217630206140,-0.21378058,0.15235196,-5.452363,-0.009376664,-0.0006779942,0.751371,-0.0009015202,-0.035356402,0.09664147,-0.04696832192459574,0.4166613000835816,89.640129411086,0.04957221078712115,-0.0426597957539466,-0.30565571695727867
1731217630222140,-0.21435349,0.15249684,-5.4419527,-0.009384414,-0.0012613711,0.75295365,-0.00048440413,-0.03646105,0.0989139,-0.04728538140620332,0.4154454409948248,89.63560079442973,-0.01981621760047388,-0.0759911930473026,-0.2830385410156378
1731217630230140,-0.21463233,0.15255967,-5.4367423,-0.009389641,-0.0015435597,0.7535964,-0.0006533227,-0.035273578,0.08034705,-0.047926579198846186,0.41491317919370274,89.63375319564302,-0.08014972408035796,-0.06653272514025305,-0.2309498483400607
1731217630238140,-0.21490657,0.15261869,-5.4315042,-0.009386355,-0.0018208179,0.75429773,0.00041071323,-0.034657277,0.087663524,-0.048947555891333545,0.41429278967551947,89.63188164772411,-0.12762208656091967,-0.07754868977290566,-0.23394348986333682
1731217630246140,-0.21517633,0.1526739,-5.4262385,-0.009388958,-0.002112236,0.755007,-0.0003253808,-0.03642727,0.0886619,-0.050161193752125084,0.41354683884745835,89.63005449638254,-0.1517047325989424,-0.0932438535076425,-0.2283939176956509
1731217630262140,-0.21538977,0.15255524,-5.4158716,-0.009198978,-0.002833327,0.7563862,0.01187378,-0.045068182,0.086199485,-0.05384591518424739,0.41180370801319455,89.62671793281511,-0.23029508950764416,-0.10894567714148806,-0.20853522296441038
1731217630270140,-0.2153395,0.15238556,-5.410766,-0.009003741,-0.0032452997,0.75691,0.024404608,-0.051496577,0.0654757,-0.05626654157188065,0.4109303284234387,89.62653349462734,-0.3025782984541579,-0.10917244871947862,-0.023054773472694606
1731217630278140,-0.215291,0.15221599,-5.4056306,-0.008816908,-0.0036751335,0.7574953,0.023354076,-0.053729217,0.07315725,-0.05886031093751586,0.4098794395079612,89.62643454550819,-0.32422117070440165,-0.1313611144346914,-0.01236863989373427
1731217630286140,-0.21524425,0.15204643,-5.4004645,-0.008640492,-0.0040801275,0.7580898,0.022051971,-0.050624248,0.07431209,-0.061685124333800016,0.40857657437244177,89.62635604254453,-0.35310167453551916,-0.1628581419399267,-0.009812870457328803
1731217630302140,-0.21517205,0.15170543,-5.390115,-0.008285361,-0.004898253,0.75933284,0.022195686,-0.05113284,0.07769093,-0.06731305246491967,0.4052818321355818,89.62631863226571,-0.35174550819497796,-0.20592138980374944,-0.002338142426582598
1731217630310140,-0.2151379,0.15153459,-5.384896,-0.0080984235,-0.0053206994,0.7598087,0.023367232,-0.05280581,0.05948543,-0.07011873739188514,0.4029575356518674,89.62618894732373,-0.35071061587068453,-0.29053706046429534,-0.016210617747596585
1731217630326140,-0.21507281,0.15119204,-5.3743744,-0.007709624,-0.006110796,0.76093817,0.024299981,-0.04938102,0.070590526,-0.07543824259114966,0.39710290697968403,89.62630872105647,-0.3324690749540324,-0.36591429201146203,0.007485858296774148
1731217630334140,-0.21504168,0.15102038,-5.3690724,-0.007517805,-0.0064947754,0.7615674,0.023977363,-0.047997452,0.07865577,-0.07794202168687352,0.39380112556382174,89.62647963210814,-0.3129723869654817,-0.4127226769827838,0.021363881458523873
1731217630342140,-0.21501143,0.15084836,-5.3637433,-0.007335538,-0.0068822852,0.7621428,0.02278335,-0.048438724,0.071920455,-0.08030181007513375,0.3903871516575375,89.62674962546212,-0.2949735485325295,-0.4267467382855266,0.033749169248523184
1731217630350140,-0.21498199,0.15067591,-5.3584256,-0.00714988,-0.0072661154,0.7626036,0.023207277,-0.04797877,0.057600435,-0.08246339664131062,0.38676626771352707,89.62702640427936,-0.2701983207721089,-0.4526104930013088,0.03459735215392236
1731217630358140,-0.21500245,0.1504976,-5.3530817,-0.007021591,-0.0076293433,0.7631283,0.016036093,-0.045403488,0.06558746,-0.0844032840084155,0.38293708657014114,89.62738514525216,-0.24248592088811002,-0.47864764292324263,0.04484262160121625
1731217630366140,-0.21502307,0.15031902,-5.347712,-0.0068881465,-0.007991383,0.76368594,0.016680568,-0.045254942,0.06970763,-0.08574901081667433,0.3789770901436874,89.62781566955773,-0.16821585103235348,-0.49499955330670986,0.053815538195912116
1731217630382140,-0.21504146,0.1499475,-5.337772,-0.0066390187,-0.008693132,0.7646596,0.015570491,-0.043859296,0.060852613,-0.0871276940242139,0.3703196936438441,89.62906262235315,-0.08616770047122291,-0.5410872812402087,0.07793454971315311
1731217630390140,-0.21503998,0.14975525,-5.333181,-0.0065195425,-0.009020855,0.7649254,0.014934514,-0.040965386,0.03322959,-0.0875789953809864,0.3656970009646852,89.62971166681834,-0.056412669596563096,-0.5778365848948636,0.0811305581492411
1731217630398140,-0.21503927,0.14956327,-5.3285446,-0.006406518,-0.009350152,0.7652769,0.014128046,-0.041162126,0.04393607,-0.08795495455789708,0.36098546308215934,89.63044956922575,-0.04699489711383491,-0.5889422353157288,0.09223780092585257
1731217630406140,-0.21503931,0.14937146,-5.3238645,-0.0062994105,-0.00966176,0.7656459,0.01338846,-0.03895105,0.04612654,-0.0879694751514916,0.3561856137222229,89.63118066259278,-0.001815074199315295,-0.5999811699920592,0.09138667088031889
1731217630422140,-0.21504138,0.14898852,-5.3144383,-0.0060528954,-0.010273903,0.76647866,0.015407189,-0.038258903,0.052046027,-0.08728250813022555,0.3465572138037746,89.63274179646746,0.04293543882912833,-0.6017749949030209,0.09757086716722001
1731217630430140,-0.21504514,0.14878623,-5.3096614,-0.0059532556,-0.010571033,0.7668324,0.012454984,-0.03714126,0.044219192,-0.0866272643679364,0.341857531959562,89.63347967365208,0.08190547028614403,-0.5874602305265713,0.09223464807698294
1731217630438140,-0.21504956,0.14858444,-5.304844,-0.0058393707,-0.010856538,0.76727194,0.014235614,-0.03568816,0.054940578,-0.08587852635758562,0.3371953390636838,89.63502348808694,0.09359225129384577,-0.5827741119847707,0.19297680435762257
1731217630446140,-0.21505465,0.14838307,-5.299986,-0.0057350025,-0.011137909,0.7677568,0.013046024,-0.035171397,0.06061047,-0.08506402590937945,0.3325217823473743,89.63653663063616,0.10181255602577362,-0.5841945895386895,0.18914281865245272
1731217630462140,-0.21506688,0.14798193,-5.290151,-0.00553041,-0.01164629,0.7688642,0.012787029,-0.031773813,0.06921217,-0.08319504161674285,0.3231135763727207,89.63964822333256,0.1168115182897871,-0.5880128734158501,0.19447454352509852
1731217630470140,-0.21507403,0.14778227,-5.285208,-0.0054354244,-0.011899338,0.7693348,0.011873198,-0.031630974,0.05882233,-0.0819666574771349,0.31839907114133686,89.64113399772224,0.1535480174509933,-0.5893131539229765,0.18572179870838726
1731217630478140,-0.21508192,0.1475831,-5.280227,-0.0053450726,-0.012154938,0.7699011,0.011293974,-0.031949952,0.070787966,-0.08056336845070822,0.3138214940672272,89.64258222625651,0.1754111283033348,-0.5721971342637082,0.18102856678485174
1731217630486140,-0.2150906,0.14738443,-5.2752085,-0.0052654506,-0.012389913,0.7705158,0.009952753,-0.029371934,0.07683784,-0.07911160638775597,0.3094151564687356,89.64414650236209,0.18147025786903154,-0.5507921998114553,0.1955345131976756
1731217630502140,-0.21509495,0.14701556,-5.265061,-0.0050673536,-0.012802279,0.7718338,0.01238106,-0.025772838,0.08237361,-0.07578403022150272,0.30068898586910453,89.64743905946843,0.2079735103908279,-0.5453856624769392,0.2057848191463388
1731217630510140,-0.21493344,0.14698733,-5.260173,-0.00487049,-0.012888894,0.7722981,0.024607928,-0.010826973,0.05804002,-0.07427146851640755,0.2963199000212042,89.64762703572022,0.18907021313689742,-0.5461357309875493,0.023497031474498817
1731217630518140,-0.21477579,0.14695686,-5.255245,-0.0046766647,-0.012968358,0.7728044,0.024228182,-0.009932904,0.06328523,-0.07307543290158078,0.291817465394618,89.64915032695876,0.14950445185334527,-0.5628043283232702,0.19041140481707897
1731217630526140,-0.21462186,0.14692429,-5.2502785,-0.0044912184,-0.013038353,0.77338445,0.023180792,-0.008749426,0.07250905,-0.07196086119246918,0.2874484363803699,89.65062930456916,0.13932146363894973,-0.5461286267810127,0.18487220130059212
1731217630542140,-0.21432468,0.1468532,-5.240293,-0.0041181184,-0.013184324,0.77461845,0.023318745,-0.009123177,0.077124685,-0.06973918849044544,0.2789938128676178,89.65364173081508,0.13885454387648427,-0.5284139695470034,0.1882766403698359
1731217630550140,-0.21418129,0.14681478,-5.2352433,-0.00394937,-0.013258839,0.7751364,0.021093583,-0.00931439,0.064745545,-0.0685961551098677,0.2750719577792618,89.65511724796767,0.1428791725722173,-0.4902318860445055,0.1844396440732608
1731217630558140,-0.21404117,0.14677455,-5.230158,-0.0037631388,-0.013328253,0.77570105,0.023278872,-0.008676783,0.07057935,-0.06738134873929698,0.2715018893468262,89.65661658744378,0.1518507963213394,-0.4462585540544545,0.1874174345135043
1731217630566140,-0.2139041,0.14673257,-5.2250366,-0.003570363,-0.01339385,0.7763016,0.02409698,-0.008199597,0.07507205,-0.06613159131393763,0.26817547028922833,89.658105721861,0.15621967816991894,-0.41580238219972726,0.18614180215280757
1731217630582140,-0.21361502,0.14664572,-5.2146893,-0.003194858,-0.013495047,0.7776108,0.023469051,-0.0063247858,0.08182227,-0.06365936997819509,0.26199376276134134,89.66102926588567,0.1545138334839087,-0.38635672049293635,0.1827215015420722
1731217630590140,-0.21347483,0.14660019,-5.209497,-0.0029938507,-0.013530456,0.7781598,0.025125917,-0.004426227,0.0686273,-0.06226909774700039,0.2591826039145576,89.6625457384599,0.17378402889933814,-0.35139485584797203,0.1895590717776259
1731217630598140,-0.21333732,0.14655335,-5.204272,-0.0027922888,-0.0135622695,0.778758,0.025195243,-0.003976631,0.07477403,-0.06070044575256115,0.25663899968928755,89.66404846950653,0.19608149930490446,-0.31795052815875235,0.18784138082954238
1731217630606140,-0.21320245,0.14650542,-5.1990047,-0.0026072126,-0.013572422,0.7839705,0.023134517,-0.0012690433,0.65156066,-0.058159873982365703,0.2534973750245339,89.66409296552254,0.3175714712744311,-0.39270308309420937,0.005562002001200456
1731217630622140,-0.21293779,0.14640482,-5.1880155,-0.0018454411,-0.01392454,0.8233906,0.047610722,-0.022007383,2.463758,0.07400147257089093,0.12172712265095344,89.64278485729747,8.26008415957854,-8.235640773348779,-1.3317567640668935
1731217630630140,-0.21280618,0.14635056,-5.182241,-0.0014394524,-0.014132221,0.8439686,0.05074858,-0.02596015,2.5722458,0.27886319792438646,-0.07822682786809705,89.6188074115173,25.60771566918694,-24.99424381488131,-2.9971807225211857
1731217630638140,-0.21273613,0.14673555,-5.176555,-0.0012934366,-0.013900286,0.8655199,0.018251972,0.028991954,2.6939137,0.5985724013142116,-0.37955107873286265,89.58407651588617,39.96365042372815,-37.66553135809569,-4.341361953891436
1731217630646140,-0.21266866,0.14711198,-5.17066,-0.001453705,-0.013352202,0.88811076,-0.020033548,0.06851041,2.8238592,1.0385855913748943,-0.7756769984693485,89.53511015898421,55.001648757585336,-49.515739967060725,-6.120794612744226
1731217630662140,-0.2125535,0.14785293,-5.15827,-0.0030937525,-0.010965343,0.9383468,-0.102502964,0.14917871,3.1397526,2.2780525573936448,-1.8051940613013029,89.39000604945028,77.46668537617191,-64.34481642699716,-9.069006845870913
1731217630670140,-0.2125133,0.14822507,-5.1517,-0.0046423557,-0.0091273,0.96907365,-0.19357538,0.22975528,3.840856,3.062064000081979,-2.4115954583303316,89.290072128155,98.00143033604176,-75.80017462862861,-12.491740161909847
1731217630678140,-0.21248975,0.14860307,-5.144836,-0.0066575627,-0.0069192844,1.0045329,-0.25190085,0.27600196,4.43241,3.937840054293179,-3.0598783276094137,89.16989623229274,109.4720067764,-81.03535865988526,-15.021986982783417
1731217630694140,-0.2125052,0.14938712,-5.130079,-0.011719431,-0.0017770758,1.0890223,-0.31636673,0.32138804,5.280584,5.910378249139337,-4.43466516091037,88.86594013028551,123.28363717788491,-85.9241770813098,-18.99725637545131
1731217630702140,-0.21254884,0.14979704,-5.1221185,-0.014623123,0.0010249388,1.1373425,-0.36296153,0.3502518,6.0400214,6.9838751173624765,-5.141865171699591,88.68135425412743,134.18710852789238,-88.40000134865247,-23.073234519760778
1731217630710140,-0.2126271,0.15021794,-5.1137624,-0.017697366,0.0038801432,1.1892462,-0.38428032,0.35690054,6.487965,8.102595495818019,-5.852592379348682,88.47540487650384,139.8400473069427,-88.84090095613638,-25.743672202947483
1731217630718140,-0.21273236,0.1506529,-5.104952,-0.02086488,0.00678045,1.2441703,-0.3959392,0.36253837,6.865516,9.259019517175911,-6.5614357239228855,88.24814042903265,144.5530026697366,-88.6054180717755,-28.408055933900222
1731217630726140,-0.21286535,0.15110263,-5.095666,-0.02412998,0.009750231,1.3013309,-0.40813744,0.3712226,7.1450768,10.449500574071124,-7.263445814969484,88.000361102208,148.81013211190145,-87.7512613808248,-30.972415853080683
1731217630742140,-0.21321806,0.15204966,-5.0756145,-0.03104815,0.015915643,1.420214,-0.43238568,0.38533825,7.4301953,12.935521597980998,-8.624696377087886,87.44755811796941,155.37631399436714,-85.07816013240013,-34.55018651491182
1731217630750140,-0.21344006,0.15254886,-5.0648293,-0.034756154,0.019146603,1.4812627,-0.46350035,0.40386987,7.631078,14.23577805862812,-9.273125418230052,87.14528661776237,162.5320575808905,-81.05363014277076,-37.78393752588097
1731217630758140,-0.21251208,0.15173799,-5.05369,-0.037714187,0.021639297,1.5431153,-0.36975414,0.31158677,7.731571,15.577545100682645,-9.893387644667733,86.82799666875195,167.7208802568154,-77.5327783047101,-39.66124362630229
1731217630774140,-0.21081614,0.15025046,-5.0298643,-0.04428094,0.027036902,1.6686792,-0.41042197,0.33735028,7.8477483,18.389927321715337,-11.033458776470075,86.17106373195682,175.7738888145433,-71.25444573764635,-41.05830854969508
1731217630782140,-0.21005832,0.14955463,-5.017169,-0.047913365,0.029873502,1.7322799,-0.45405325,0.35457498,7.950082,19.86679714612313,-11.546541055038691,85.82811490020366,184.6087280509738,-64.13528482107704,-42.86860396914651
1731217630790140,-0.2093565,0.1489042,-5.003937,-0.051790066,0.032800693,1.7963421,-0.4845876,0.36589894,8.007779,21.39222577511474,-12.019786971258435,85.47959740658142,190.67857862395152,-59.15573952746798,-43.564686702778914
1731217630798140,-0.20871197,0.14829923,-4.9901648,-0.055910494,0.035813257,1.8608623,-0.5150535,0.3765705,8.065015,22.967944308058854,-12.451607249202958,85.12603644982583,196.9648166180142,-53.97753474306544,-44.195119594448585
1731217630806140,-0.20812576,0.14773956,-4.97585,-0.0602657,0.038893107,1.9258147,-0.5444009,0.38498127,8.119061,24.594907877166573,-12.840827578652297,84.76954733391204,203.37044613846493,-48.652541181167294,-44.56113948922365
1731217630822140,-0.20713352,0.1467557,-4.945581,-0.069730364,0.045256764,2.056986,-0.59154135,0.3977285,8.198209,28.00314323052931,-13.486086050839582,84.05854306560013,213.0147095851712,-40.32865451170536,-44.43776676949409
1731217630830140,-0.20672992,0.14633098,-4.929653,-0.074827716,0.048493136,2.1231995,-0.63716894,0.40454647,8.27667,29.78221337602706,-13.741255165470236,83.70912098439071,222.38376818721832,-31.89613932883164,-43.677760151178624
1731217630838140,-0.20638977,0.14595051,-4.913172,-0.0801733,0.051756427,2.1898224,-0.6681978,0.40791136,8.327871,31.609115736285304,-13.952098606153031,83.3669143406174,228.36279503228056,-26.355430085349397,-42.775830471663966
1731217630846140,-0.20611414,0.14561394,-4.8961325,-0.08572348,0.0550439,2.2568657,-0.6937729,0.41093397,8.380413,33.481663834523644,-14.120040188977576,83.03363889546749,234.06851227979286,-20.992697853068304,-41.65943064373774
1731217630862140,-0.20575896,0.1450596,-4.8603716,-0.09752751,0.061548136,2.3921332,-0.7377518,0.40651482,8.454218,37.35799390725946,-14.337213306401937,82.40304735961361,242.27062954598858,-13.57331983902253,-39.411970990868355
1731217630870140,-0.20568298,0.14484566,-4.8416443,-0.10376245,0.06477533,2.460368,-0.779367,0.40339956,8.529335,39.35982828888003,-14.389610557967055,82.10922493598129,250.22929770257093,-6.549656445639591,-36.72780295403838
1731217630878140,-0.20567627,0.14467302,-4.8223495,-0.11021266,0.06799155,2.5290012,-0.8062766,0.4020268,8.5791645,41.40285066544868,-14.406088534711996,81.83105708052034,255.37779707108137,-2.059747093117787,-34.77098193261941
1731217630886140,-0.20427586,0.14418428,-4.801886,-0.115762964,0.07091497,2.5982113,-0.6937878,0.36542767,8.651257,43.48559502852041,-14.387966705429886,81.57066198677303,260.3430453839655,2.2652286602639355,-32.54938671841419
1731217630902140,-0.20176372,0.14334354,-4.7593555,-0.12760921,0.07665351,2.7377374,-0.74039024,0.35865882,8.720383,47.75801762853214,-14.266379748922992,81.12547083165892,267.026412500733,7.599184781680813,-27.824447194632175
1731217630910140,-0.20065302,0.14298947,-4.7372437,-0.13390009,0.07944854,2.808061,-0.7863603,0.34937912,8.790433,49.947267184681905,-14.163118255247197,80.9335329297426,273.6561945187217,12.907686709474397,-23.992237739539597
1731217630918140,-0.19963071,0.1426851,-4.7145634,-0.14043646,0.082224846,2.8787684,-0.8170455,0.3470378,8.838445,52.170559860165575,-14.035028759870945,80.76257013127683,277.9115844354586,16.01118692203134,-21.37034980822019
1731217630926140,-0.19870745,0.14242302,-4.691312,-0.1472349,0.084954955,2.9498122,-0.8498057,0.3412636,8.8804655,54.42756938914508,-13.875072812678258,80.60027783948767,282.12619112243715,19.994493399086025,-20.28653647364463
1731217630942140,-0.19716142,0.1420225,-4.6430845,-0.16155864,0.0902965,3.0929985,-0.8952338,0.33384654,8.949145,59.037510730190554,-13.493973977007307,80.34356563517113,288.12133381534244,23.81867722943439,-16.04451276978379
1731217630950140,-0.19654055,0.1418827,-4.61814,-0.16909914,0.092903644,3.1651332,-0.94256175,0.32589304,9.016841,61.388002920780146,-13.276567882499954,80.25107504993268,293.811523823699,27.17576181341931,-11.56132315480665
1731217630958140,-0.19602247,0.14178221,-4.5926123,-0.17690152,0.09547056,3.2376285,-0.9752977,0.32086483,9.061902,63.7662710194568,-13.043778885731998,80.18306627882701,297.2835123345824,29.098624595994504,-8.501096388208543
1731217630966140,-0.19560808,0.14172004,-4.5664988,-0.18492769,0.09793881,3.310503,-1.0032709,0.3085313,9.109318,66.17049179026205,-12.798063335879442,80.13910269478586,300.52759635065456,30.71444373156943,-5.495448005144132
1731217630982140,-0.19509436,0.14170644,-4.5125012,-0.20174138,0.102650195,3.4573894,-1.0508559,0.29446137,9.180396,71.05220826653799,-12.27775036566781,80.11878587601589,305.1072797672466,32.51956063822702,-1.2698011731227559
1731217630990140,-0.19500527,0.14173935,-4.4846115,-0.21052232,0.10487022,3.5314195,-1.0976176,0.27750337,9.25377,73.52909133908975,-12.007240032521858,80.14018677148802,309.61038406897023,33.81379164324386,2.6751119340147205
1731217630998140,-0.19502382,0.14180672,-4.4561234,-0.21953373,0.10703723,3.60586,-1.1264253,0.27087608,9.305059,76.03097723018557,-11.736655752711949,80.18678429782942,312.73573638697775,33.823034976238695,5.824690792676033
1731217631006140,-0.195151,0.14190768,-4.427034,-0.2287778,0.10912801,3.6807172,-1.1555086,0.26134774,9.357154,78.55787671634833,-11.462609899298794,80.25416445317074,315.8624357703444,34.25573167664443,8.422519417665413
1731217631022140,-0.19316861,0.14344081,-4.3684635,-0.24617818,0.113682345,3.8312943,-1.0875239,0.2846457,9.411066,83.68496661875456,-10.908240535556015,80.452734031758,320.4431189003899,34.64808523392367,12.410598661703107
1731217631030140,-0.19237834,0.14423433,-4.3382373,-0.25524366,0.11582001,3.9072635,-1.1331848,0.26720855,9.496152,86.28375298311465,-10.630714945940706,80.58507493675603,324.84829554501187,34.6906987019135,16.54261312475334
1731217631038140,-0.1917226,0.14504506,-4.3073797,-0.26457477,0.11788416,3.9836879,-1.1663884,0.25801826,9.553044,88.90539848255123,-10.355177261993157,80.73965184115559,327.7056874295723,34.4422104934437,19.32211304994644
1731217631046140,-0.1912021,0.14587252,-4.2758875,-0.27416512,0.11986166,4.0606303,-1.1987946,0.2471879,9.6178055,91.54956602590062,-10.082973794728552,80.91596019110516,330.5209429186718,34.02543340807569,22.038543743694667
1731217631062140,-0.19055557,0.14757232,-4.2109857,-0.2940895,0.12343747,4.2160835,-1.2452732,0.22348808,9.715825,96.90723241460456,-9.553718097684591,81.33116587857215,334.8541492939969,33.07848106524759,25.950355466687824
1731217631070140,-0.19043134,0.14844228,-4.1776,-0.30435845,0.12500061,4.2946177,-1.2836195,0.1953924,9.816766,99.62570600676904,-9.317072457984233,81.58553724128826,339.80919902055945,29.58070496254468,31.796420339513485
1731217631078140,-0.19044523,0.14932492,-4.1435647,-0.31483155,0.12642696,4.3737216,-1.3091377,0.17829424,9.887993,102.36978109200072,-9.089423484165454,81.86077918507561,343.00938565395984,28.456121727347302,34.4052429734182
1731217631086140,-0.19059752,0.15021926,-4.108875,-0.32545257,0.1277181,4.4534287,-1.3276263,0.1613926,9.963393,105.14046248194452,-8.873064311141528,82.15768164991837,346.3351737429755,27.044896627990806,37.11280810534625
1731217631102140,-0.1913175,0.15203899,-4.037515,-0.3471849,0.12988432,4.6147475,-1.3582705,0.13538823,10.082423,110.76399786209677,-8.481022939963264,82.81748877613902,351.47096125951566,24.502585698641468,41.23794538879004
1731217631110140,-0.19188549,0.15296222,-4.000836,-0.3582527,0.13073449,4.6964054,-1.3834759,0.10627135,10.207235,113.61958653258154,-8.309328252462405,83.18049854649011,356.9485838105957,21.461835937607336,45.3762212938874
1731217631118140,-0.19259204,0.15389279,-3.963484,-0.36945987,0.13142645,4.7787943,-1.4008954,0.086495645,10.298609,116.5070124936247,-8.156496901922793,83.56564548419585,360.9282451303957,19.10391881745167,48.14336721321623
1731217631126140,-0.19343705,0.15482934,-3.925454,-0.38077673,0.13192494,4.861945,-1.4146081,0.062311064,10.393857,119.42935794369264,-8.025265034845338,83.97377241200802,365.2931812584917,16.40398338468178,51.01586597652127
1731217631142140,-0.19904163,0.16050261,-3.8491993,-0.40555224,0.13466422,5.030067,-1.548469,0.17120501,10.507613,125.3906694961871,-7.821144443128899,84.8470895376162,372.58197203090396,12.757536982277447,54.58232035051116
1731217631150140,-0.20199783,0.16328834,-3.8099978,-0.4180035,0.13570613,5.1155047,-1.5564076,0.13023801,10.679721,128.43636130495074,-7.757792142760782,85.316317501509,380.7114760954538,7.919037546014652,58.653495486600114
1731217631158140,-0.20505765,0.16603953,-3.770071,-0.4305704,0.13649678,5.2020392,-1.5708617,0.098831944,10.816812,131.53173447394045,-7.735939290389662,85.81684769826539,386.92164612371556,2.731606546390021,62.56627459454916
1731217631166140,-0.20822212,0.16875535,-3.729411,-0.4431947,0.13700622,5.289727,-1.5780367,0.06368011,10.960996,134.68261487006586,-7.763394693061241,86.35053284693433,393.8600495156769,-3.4319253339474343,66.71064358361633
1731217631182140,-0.21487316,0.17407635,-3.6458502,-0.46946374,0.13709469,5.470043,-1.6418154,0.0055292617,11.269748,141.1968649462055,-8.01044378292691,87.52914335291352,407.1406297587261,-15.440568116604224,73.66315662369956
1731217631190140,-0.21836607,0.17667818,-3.602948,-0.4829118,0.13653634,5.5630016,-1.6810074,-0.069793314,11.619805,144.59271110457345,-8.262357654084697,88.18139471257625,424.4807697959955,-31.48923389472348,81.53141995784081
1731217631198140,-0.22197422,0.17923734,-3.5592644,-0.49559513,0.13555306,5.657039,-1.5854164,-0.12291036,11.754691,148.09298007025797,-8.618323515339439,88.87131473839895,437.5336207105648,-44.49573265684282,86.24000322783802
1731217631206140,-0.22568485,0.18175213,-3.5147932,-0.50717,0.13412495,5.751881,-1.4468617,-0.17851403,11.855244,151.69516185188485,-9.082156335764664,89.58689111568867,450.27272270335783,-57.97910255315308,89.44704716121475
1731217631222140,-0.2333777,0.18663679,-3.4234648,-0.5267576,0.12963735,5.944044,-1.2242235,-0.28047523,12.010186,159.17742194204092,-10.323586934173154,91.03301463003226,467.6412556347564,-77.58941240053062,90.38271964647441
1731217631230140,-0.23734117,0.18899931,-3.3765953,-0.5347304,0.12645803,6.0416946,-0.99659705,-0.39741394,12.206315,163.0463618474358,-11.08655762961109,91.73289242588294,483.61748817435677,-95.3713369297419,87.48472448133582
1731217631238140,-0.24136975,0.19130301,-3.32891,-0.5414234,0.12257877,6.1407843,-0.83662564,-0.48490798,12.386202,166.99551799476063,-11.937215191723286,92.40013255643537,493.6445184156062,-106.3321952640247,83.40501631905383
1731217631246140,-0.24545087,0.19354491,-3.280407,-0.54604965,0.11860561,6.238558,-0.57828426,-0.4966445,12.221693,171.02031815313362,-12.870098659250214,93.01941652011465,503.10001979662184,-116.610433440866,77.41049545990838
1731217631262140,-0.2589604,0.1990829,-3.1810632,-0.55246127,0.11256868,6.425306,-0.40072572,-0.37730855,11.671751,179.270470691295,-14.934237875182278,94.06792834560075,515.6345336350869,-129.00870099575403,65.531989092882
1731217631270140,-0.26826262,0.2023629,-3.1302307,-0.55514044,0.11017583,6.5159926,-0.33489612,-0.2991054,11.335849,-176.50505922781988,-16.037298327738537,94.47777786458853,528.0587601106345,-137.88255656953226,51.23118987347179
1731217631278140,-0.2774661,0.20556933,-3.0786529,-0.5567134,0.10786449,6.6055207,-0.1966208,-0.28891766,11.1910095,-172.21538805336965,-17.17795863981664,94.80628153483025,536.2088968062785,-142.58253900976285,41.06295878021558
1731217631286140,-0.28656605,0.20870431,-3.0263386,-0.5572841,0.105593346,6.6941595,-0.07133931,-0.2838932,11.079847,-167.85641366579304,-18.34384141218695,95.04694055416542,544.8717984470769,-145.73534654628867,30.08237741689498
1731217631302140,-0.3044377,0.21476595,-2.919527,-0.5556241,0.10108582,6.869397,0.10374933,-0.2817204,10.952353,-158.90880772554058,-20.723323650860266,95.24691717768934,559.2253712657792,-148.71763991708224,12.498538970245233
1731217631310140,-0.3132011,0.21769525,-2.865067,-0.55346346,0.098851636,6.956126,0.27008355,-0.27927288,10.84113,-154.3084657494739,-21.92416003258387,95.19687360575091,575.0427470083349,-150.10454771545056,-6.255446492303174
1731217631318140,-0.32184434,0.22055873,-2.8098931,-0.5504537,0.096646555,7.042277,0.37621704,-0.27563515,10.76883,-149.61678842518705,-23.122339611336567,95.04079053279307,586.459665535855,-149.77244734408723,-19.510384119729807
1731217631326140,-0.33036366,0.22335786,-2.7540104,-0.546636,0.09447102,7.127805,0.4772171,-0.2719415,10.691046,-144.82852331100278,-24.308894808515497,94.77525471359446,598.5331392730338,-148.31939964736617,-33.19197739982651
1731217631342140,-0.3470227,0.22876343,-2.6401424,-0.53676087,0.09022191,7.2968993,0.6171949,-0.26556942,10.568379,-134.94140701102248,-26.608067024496567,93.90729780277186,617.9447687487697,-143.69826349881686,-54.24730692641171
1731217631350140,-0.35515657,0.23137242,-2.582169,-0.5307893,0.08822495,7.380361,0.7464438,-0.24962051,10.432719,-129.83101189066915,-27.709475855116487,93.30410670652692,638.7993900441664,-137.67610382749,-75.39888703061794
1731217631358140,-0.36315438,0.23392323,-2.5235114,-0.52417105,0.08638567,7.46307,0.8272826,-0.22991,10.338604,-124.6019631203376,-28.760660090693356,92.5859471234003,653.6310962914433,-131.39802944710883,-89.76994789082835
1731217631366140,-0.37101382,0.23641823,-2.464176,-0.51697063,0.08471724,7.544982,0.9000524,-0.20855385,10.239004,-119.24940183608412,-29.75274185270676,91.75210680284218,669.070160531684,-124.01022025167528,-104.23004006976555
1731217631382140,-0.3916559,0.24106362,-2.340276,-0.50438064,0.081081346,7.707499,0.7868744,-0.22724317,10.157316,-108.16462644711008,-31.520636552490217,89.74108633288742,692.7984618108774,-110.49341873646605,-125.68877937217215
1731217631390140,-0.40433353,0.24320959,-2.2757702,-0.49909827,0.07916697,7.78796,0.6602965,-0.23929681,10.057628,-102.41590850973775,-32.339858916084815,88.56829132816472,718.5897421715424,-102.4027954493244,-146.5993755903379
1731217631398140,-0.416769,0.2453012,-2.210689,-0.49351984,0.07756351,7.8674507,0.69730353,-0.20043272,9.936333,-96.5446440543339,-33.05779811322678,87.2936878873186,733.9080569254804,-89.74239964274592,-159.3254301057646
1731217631406140,-0.42896608,0.24734204,-2.1450381,-0.48775524,0.07629068,7.945965,0.7205754,-0.15910341,9.814262,-90.55812718528318,-33.66440630730083,85.92972354702725,748.3146086313393,-75.82602425925592,-170.4955425364192
1731217631422140,-0.4527172,0.25132814,-2.0120509,-0.47608277,0.07509657,8.100151,0.72952914,-0.074632,9.636641,-78.28110547625568,-34.498658296980366,82.99948128485165,767.31385681422,-52.14074935497114,-183.14014138597432
1731217631430140,-0.46425235,0.25326234,-1.9447734,-0.47036216,0.07505053,8.175847,0.71507686,-0.0057546417,9.461999,-72.01409103643637,-34.71432580400764,81.46949302907665,783.3768049774117,-26.958438378409415,-191.24853197187676
1731217631446140,-0.4866702,0.2570316,-1.8085796,-0.45966318,0.07609156,8.324653,0.66868585,0.06506406,9.300351,-59.28853389561029,-34.736983984868246,78.37536572048653,795.34732130163,-1.4161363037879438,-193.38295678688243
1731217631454140,-0.49756634,0.25887415,-1.739673,-0.45487708,0.07717755,8.397871,0.59826297,0.13574864,9.152293,-52.86275821771915,-34.54276447367724,76.85312853070772,803.2219597363934,24.277438898876284,-190.27964872235128
1731217631462140,-0.5082639,0.2606935,-1.6702329,-0.45054138,0.07861034,8.470376,0.5419627,0.1790989,9.063125,-46.41822905824036,-34.2149848270745,75.37679872107644,805.5661449348494,40.9724558253419,-184.54122620390908
1731217631470140,-0.5187706,0.2624931,-1.600263,-0.4467169,0.08038862,8.542246,0.47805902,0.22228527,8.983731,-39.970846651355814,-33.76007660840931,73.96765697032794,805.9228008605677,56.86352733314971,-176.14271884356376
1731217631478140,-0.5291234,0.26427552,-1.5297664,-0.4435271,0.08245545,8.613555,0.39872524,0.25835353,8.913636,-33.533720441248924,-33.18732243342944,72.64487917440306,804.6407762633607,71.59427187248235,-165.34722449060914
1731217631486140,-0.53930223,0.26604438,-1.4587463,-0.4409635,0.084860325,8.684352,0.32044944,0.3006095,8.849621,-27.11355779068806,-32.510749002610964,71.42251630994753,802.5203313201083,84.57167885230994,-152.7953580569426
1731217631502140,-0.5591728,0.2695539,-1.315253,-0.4378038,0.09054185,8.824644,0.19748135,0.35509512,8.76826,-14.34913800786904,-30.883096418032856,69.32789391594105,797.7762364261887,101.72828653613193,-130.9138996254043
1731217631510140,-0.5653238,0.26820952,-1.2385527,-0.43538132,0.091052726,8.895828,0.30281022,0.06385986,8.89802,-8.007415959222492,-29.954207834892614,68.46999913406304,792.7152560808187,116.11107289253002,-107.23684773475156
1731217631518140,-0.5714094,0.26690888,-1.1614306,-0.43376744,0.09197342,8.966689,0.20173563,0.11508632,8.857608,-1.6132384742602788,-29.052411060171046,67.689116366447,799.2721856202767,112.72459684019596,-97.61034595200462
1731217631526140,-0.5774369,0.26565427,-1.0838848,-0.43299797,0.09329104,9.037297,0.09618326,0.16470252,8.826017,4.755529576758707,-28.098687322258673,67.04372108600032,796.0960063773732,119.21546723904677,-80.67441005583454
1731217631542140,-0.5893484,0.26329076,-0.9275114,-0.43412504,0.09692283,9.178218,-0.070441514,0.22698705,8.80754,17.419208954093605,-26.09203711005377,66.16256171889887,791.4799610834312,125.41563826280647,-55.07246044384076
1731217631550140,-0.5952791,0.2622159,-0.8487516,-0.43604657,0.09932411,9.2486725,-0.2401918,0.30015966,8.806825,23.71816122195884,-25.07034546766182,65.92374912248152,787.3690334831542,127.71145529899381,-29.851574552167705
1731217631558140,-0.60118055,0.26119572,-0.7695529,-0.43889225,0.10198212,9.3192215,-0.3557093,0.33225116,8.818626,29.987419219911796,-24.042823532952276,65.82269828209498,783.6572497441196,128.44024183869283,-12.631355048318712
1731217631566140,-0.60706025,0.2602314,-0.6899108,-0.44264272,0.10485642,9.389946,-0.46880913,0.35928747,8.840561,36.24758864085201,-23.035806327147043,65.84259794510648,782.5211776175262,125.87715072565408,2.487457876437725
1731217631582140,-0.6187845,0.25847387,-0.5292761,-0.4529605,0.11119355,9.532206,-0.64486074,0.396071,8.891225,48.76802124051418,-21.12285727793506,66.21622820751145,782.5270374788859,119.5593155757488,23.35189140031026
