timestamp,x,y,z,vx,vy,vz,ax,ay,az,roll,pitch,yaw,roll_rate,pitch_rate,yaw_rate
1731602292941784,0.05838608,0.12312365,-6.307078,-0.040010646,0.04640683,0.8176471,0.0,0.0,0.0,0.39869629308309673,0.4636783760503996,90.28447418284553,0.0,0.0,0.0
1731602292949784,0.057940528,0.12381067,-6.300225,-0.04059958,0.04620518,0.8158349,-0.073616855,-0.025206244,-0.22652744,0.39364367087636504,0.4679080571047846,90.28252080969831,-0.6315777758414638,0.5287101317981295,-0.24417164340369568
1731602292957784,0.057492,0.12449078,-6.293395,-0.04119657,0.045993675,0.8139424,-0.074623615,-0.026438383,-0.23656337,0.38839378907883,0.47212365296572134,90.2805674512207,-0.6562352246918777,0.5269494826170883,-0.24416980969942184
1731602292973784,0.056585893,0.12583055,-6.2798023,-0.042344447,0.045542978,0.8105385,-0.07174233,-0.028168548,-0.21274386,0.377027760887281,0.48107855422848766,90.27710474959699,-0.7103767619718118,0.5596813289228951,-0.21641885148258658
1731602292981784,0.05613221,0.1264774,-6.2730374,-0.042898536,0.045259003,0.80889845,-0.06926106,-0.035496894,-0.20500271,0.37080550277193486,0.48594016783865657,90.27547249300139,-0.7777822644182688,0.6077017012711139,-0.2040320744503368
1731602292989784,0.055675652,0.12711732,-6.2662935,-0.043428127,0.044959743,0.8071845,-0.06619887,-0.037407503,-0.21424143,0.3641966034801186,0.490936579408762,90.27493990549871,-0.8261124114770301,0.6245514462631822,-0.06657343783451578
1731602292997784,0.05521634,0.12775023,-6.259582,-0.043956198,0.0446299,0.8053292,-0.06600888,-0.041230112,-0.2319142,0.35739113625844865,0.4960775546795723,90.27442099433928,-0.8506834027087483,0.6426219088512833,-0.06486389492842215
1731602293013784,0.054289293,0.12899478,-6.24622,-0.044984605,0.043936938,0.80203205,-0.06427546,-0.04331022,-0.20607187,0.3431549232913385,0.5063786745388906,90.27372472114446,-0.8897633104443822,0.6438199912073982,-0.04351707467606361
1731602293021784,0.053821664,0.12960647,-6.239568,-0.045487963,0.043598495,0.8004733,-0.062919684,-0.042305324,-0.19484757,0.3356056380492919,0.5115120843880417,90.2735814788985,-0.9436606552558313,0.6416762311438827,-0.017905280745078182
1731602293029784,0.053351358,0.13021119,-6.2329364,-0.04597816,0.043237507,0.79879975,-0.061274502,-0.045123506,-0.20918994,0.32800732089505646,0.5164688133788604,90.27347240468397,-0.9497896442794258,0.6195911238523313,-0.013634276817469653
1731602293037784,0.052878425,0.13080885,-6.2263246,-0.046456683,0.042851944,0.7970076,-0.059815586,-0.048195474,-0.22401659,0.32056313567350764,0.5211294879704573,90.27345212541441,-0.930523152693603,0.582584323949614,-0.002534908695089883
1731602293053784,0.051093902,0.13162147,-6.2133446,-0.04768299,0.04190121,0.7938179,-0.07664412,-0.05942094,-0.1993589,0.3057705353914013,0.529518380094464,90.27449073781173,-0.9245375176316458,0.5243057577504155,0.06491327483288957
1731602293061784,0.050218016,0.13202207,-6.2068825,-0.048275005,0.041400112,0.7923006,-0.07400196,-0.06263703,-0.18966196,0.2983971670125296,0.5333571115342308,90.27541988584215,-0.9216710473589611,0.4798414299708544,0.11614350380355959
1731602293069784,0.049348686,0.1324193,-6.2004356,-0.04884679,0.040901173,0.7906991,-0.07147295,-0.06236741,-0.20018218,0.290909140280797,0.5371135593168929,90.2771276523611,-0.9360033414665764,0.4695559728327619,0.2134708148674021
1731602293077784,0.04848575,0.1328132,-6.194005,-0.04939843,0.04040727,0.7889974,-0.06895512,-0.061737835,-0.21271406,0.2831381761235914,0.5407820668050594,90.27893111267497,-0.9713705196507039,0.4585634360208112,0.22543253923402895
1731602293093784,0.04677846,0.13359046,-6.181191,-0.050448116,0.03940288,0.7860147,-0.06560539,-0.0627744,-0.18642096,0.2662240564869887,0.5475010348000077,90.28264044641622,-1.0571324772876658,0.41993549968426847,0.23183335882800446
1731602293101784,0.045933794,0.13397357,-6.174805,-0.050970238,0.03889081,0.7845832,-0.06526522,-0.06400887,-0.17893313,0.2569581135457606,0.5504110423945437,90.28472391018005,-1.1582428676535172,0.36375094931701474,0.26043297047911307
1731602293109784,0.045094732,0.13435283,-6.168434,-0.0514762,0.038366485,0.78311026,-0.063245185,-0.065540425,-0.18411873,0.24741604748257184,0.5529198124593953,90.28685515467892,-1.1927582578985931,0.31359625810643627,0.2664055623591195
1731602293117784,0.044261288,0.13472806,-6.1620874,-0.051950578,0.037839726,0.7815583,-0.059297305,-0.06584497,-0.1939982,0.23764631307894304,0.5551114985061081,90.28910251784576,-1.2212168004536006,0.27396075583910606,0.28092039585398015
1731602293125784,0.04343327,0.13509923,-6.155755,-0.0524276,0.03731726,0.78016484,-0.059627924,-0.065308064,-0.17417966,0.2275997781958952,0.5571604916961164,90.2915342865732,-1.255816860380982,0.2561241487510258,0.3039710909300317
1731602293141784,0.04179684,0.13580993,-6.1431284,-0.053275727,0.036243446,0.7775842,-0.053007852,-0.06711343,-0.16129015,0.20684015830041452,0.560737599963517,90.29720392395984,-1.2974762434675422,0.2235692667125457,0.3543523366651718
1731602293149784,0.040986583,0.13615903,-6.136834,-0.053676516,0.035699744,0.7762378,-0.05009863,-0.067962795,-0.16830115,0.19607009446104587,0.5624334359661879,90.30051002746517,-1.3462579799210805,0.2119795003338617,0.41326293816644355
1731602293157784,0.040181447,0.1365038,-6.1305532,-0.054051414,0.03514775,0.7747573,-0.046862286,-0.06899936,-0.1850575,0.1851334647030397,0.5640743081192141,90.30385709734372,-1.3670787197507683,0.20510901912826993,0.41838373481811997
1731602293173784,0.038653348,0.13715029,-6.1185613,-0.054669384,0.034014005,0.7720557,-0.03862311,-0.07085898,-0.1688525,0.16284099761675624,0.5666727879962202,90.31074249345683,-1.393279192892717,0.162404992312883,0.4303372570693516
1731602293181784,0.037929345,0.13745227,-6.1128354,-0.054926883,0.033425797,0.77069616,-0.03218744,-0.073526055,-0.16994028,0.1513443059359578,0.5675486425778471,90.31475889278546,-1.437086460099805,0.1094818227033642,0.5020499160802337
1731602293189784,0.037209384,0.13774997,-6.107109,-0.05517495,0.032829322,0.76926166,-0.031008383,-0.07455935,-0.17931311,0.13986845867582268,0.5679053773918272,90.31867289262881,-1.4344809075168912,0.044591851747513754,0.48924998041804374
1731602293197784,0.036493327,0.13804337,-6.101383,-0.05541709,0.032259453,0.7677802,-0.030267516,-0.0712336,-0.18518417,0.12846881398683377,0.5679118343722084,90.32261417690279,-1.424955586123612,0.0008071225476362811,0.4926605342475827
1731602293213784,0.03505773,0.1386183,-6.08993,-0.05587473,0.031123511,0.76531047,-0.028602544,-0.070996344,-0.1543574,0.10598711903197762,0.5676029132280086,90.3305513697022,-1.4051059346785095,-0.01930757151248267,0.4960745499629967
1731602293221784,0.03434597,0.13889928,-6.084202,-0.05605568,0.030539786,0.76417893,-0.022618564,-0.07296563,-0.14144182,0.09479695585808179,0.567002894386676,90.33451995600635,-1.3987703967369802,-0.07500235516658874,0.49607328801749634
1731602293229784,0.0336383,0.13917582,-6.0784726,-0.05624433,0.02996329,0.76302934,-0.023581086,-0.072062016,-0.14369935,0.08379399991983166,0.5662068182575496,90.338495311813,-1.3753694922812656,-0.09950951614079245,0.4969194758325063
1731602293237784,0.03293457,0.13944794,-6.072749,-0.05643682,0.029384272,0.76181895,-0.024061648,-0.072377264,-0.15129894,0.0728963063027919,0.5653332585070855,90.34237510142961,-1.3622117021299696,-0.10919496880800462,0.48497370207641943
1731602293253784,0.03153901,0.13997893,-6.061298,-0.056728832,0.028263178,0.7599189,-0.018250663,-0.0700684,-0.11875107,0.051631396404264056,0.563437575600539,90.3502370519258,-1.3290568686579902,-0.11848018165916245,0.4913719060116451
1731602293261784,0.030847475,0.14023787,-6.055569,-0.056828167,0.027696755,0.75904566,-0.012416857,-0.07080287,-0.10915845,0.041191738270962355,0.5624950707211422,90.35415775836687,-1.3049572666627132,-0.11781310992458877,0.49008830513377716
1731602293269784,0.030160176,0.14049235,-6.0498385,-0.056929182,0.027131267,0.7581479,-0.012626871,-0.07068598,-0.11222064,0.03102311637157429,0.5614043224265418,90.3579897105982,-1.2710777374235078,-0.13634353682504904,0.47899402891723414
1731602293277784,0.029479751,0.140741,-6.044107,-0.057005245,0.026571505,0.7572024,-0.009507872,-0.069970265,-0.11818855,0.021035639386101656,0.5599669256695362,90.36169867195541,-1.2484346231840788,-0.1796745946257069,0.4636201696498431
1731602293293784,0.028131774,0.14122476,-6.032645,-0.05710082,0.02542204,0.75570863,-0.0059735025,-0.07184152,-0.09335949,0.0019206545991121236,0.5570071787190435,90.37005232808866,-1.194686549186846,-0.18498418440579562,0.5221035083283806
1731602293301784,0.027431985,0.141671,-6.0274177,-0.057110414,0.02497799,0.7549607,-0.0011990778,-0.055506356,-0.09348988,-0.007244983161505172,0.5553468309169837,90.37417798018181,-1.145704720077162,-0.20754347525747543,0.5157065116434516
1731602293309784,0.026737781,0.14210862,-6.022175,-0.057124417,0.024545345,0.7541338,-0.0017504207,-0.0540805,-0.1033619,-0.01627747452727154,0.5535341312345021,90.37747021440322,-1.1290614207207956,-0.22658746031019633,0.4115292776755683
1731602293317784,0.026049202,0.14253782,-6.0169177,-0.057112742,0.024116188,0.75322723,0.0014593824,-0.053644642,-0.11332332,-0.02526388004103063,0.5516462965422678,90.3807556838654,-1.1233006892198865,-0.2359793365292836,0.41068368277320094
1731602293333784,0.024688616,0.14337128,-6.0063615,-0.057057403,0.023249995,0.751789,0.003458699,-0.05413708,-0.08989125,-0.04283360159020945,0.5481909154425995,90.38690987535254,-1.0981075968236762,-0.21596131872927246,0.3846369679467109
1731602293341784,0.024016714,0.14377591,-6.001062,-0.05699216,0.022827016,0.75121135,0.008155592,-0.052872345,-0.07220358,-0.05123305204007076,0.5464259247086525,90.3898469463077,-1.0499313062326634,-0.22062384174337552,0.36713386939466247
1731602293349784,0.023346351,0.14418885,-5.995748,-0.056938995,0.022417113,0.7505591,0.0066454518,-0.051237874,-0.081531696,-0.05911217905914004,0.5448162215934785,90.39266792323609,-0.9848908773836602,-0.20121288939673249,0.35262211604914284
1731602293357784,0.022681473,0.14459376,-5.9904246,-0.056875464,0.021991588,0.74986047,0.007941388,-0.053190622,-0.08732825,-0.06676568933111875,0.5432848027982696,90.39535224512029,-0.9566887839973381,-0.19142734940111705,0.3355402355245803
1731602293373784,0.021368036,0.14537998,-5.9797378,-0.056710552,0.021145763,0.7489915,0.010306946,-0.05286408,-0.054311004,-0.081792259307578,0.5413616982345675,90.40052292362466,-0.9391606235287032,-0.12019403523138429,0.3231674065230702
1731602293381784,0.020719387,0.14576147,-5.974373,-0.056614414,0.020717304,0.74863017,0.01201732,-0.053557333,-0.045165416,-0.08906513644684771,0.5408442883312968,90.40284533014481,-0.9091096424087145,-0.06467623790882727,0.2903008150187124
1731602293389784,0.020076098,0.14613539,-5.968995,-0.056508075,0.020298777,0.7482171,0.0132923005,-0.05231588,-0.05163252,-0.09608396382623555,0.5406067152345485,90.40511309386973,-0.8773534224234784,-0.029696637093552615,0.28347046561553535
1731602293397784,0.019438084,0.14650182,-5.9636045,-0.0563979,0.019870225,0.7477272,0.013771932,-0.053568974,-0.06123632,-0.1025418161347553,0.5404409690499138,90.40729886928564,-0.8072315385649692,-0.020718273079339395,0.27322192698899406
1731602293413784,0.018177774,0.14721256,-5.952789,-0.056141503,0.018989721,0.7471794,0.016024802,-0.0550315,-0.034239143,-0.11398011524489995,0.540453295955312,90.41129482510838,-0.7148936943840409,0.0007704315873913245,0.24974723892146936
1731602293421784,0.017521521,0.14758235,-5.9472523,-0.0559958,0.018554134,0.7470072,0.018212944,-0.054448374,-0.021524725,-0.1194732019833862,0.5403285860953584,90.41318694555683,-0.6866358423107831,-0.015588732494204982,0.2365150560557204
1731602293429784,0.016883112,0.14794576,-5.9417057,-0.055823084,0.018117478,0.74678653,0.021589452,-0.05458202,-0.027582048,-0.12502003101948844,0.5401010986680698,90.41527024077078,-0.693353629512779,-0.028435928411068737,0.26041190174224355
1731602293437784,0.016250834,0.1483013,-5.93615,-0.055638313,0.017666345,0.7464721,0.023096332,-0.05639158,-0.03930181,-0.13062508593991687,0.5398499179788643,90.41733309420503,-0.7006318650535527,-0.03139758615068708,0.25785667928172945
1731602293453784,0.015004724,0.14898923,-5.925011,-0.055217523,0.0167767,0.7462245,0.026299383,-0.055602867,-0.015474855,-0.14205243516683397,0.5391203894202704,90.42107625336884,-0.7142093266823188,-0.045595534912116265,0.23394744773842618
1731602293461784,0.014390718,0.14932185,-5.919427,-0.05502775,0.016331026,0.74612164,0.023721715,-0.055709153,-0.012859701,-0.14750434509531246,0.5389664899096054,90.42285903864656,-0.6814887410598117,-0.01923743883313798,0.22284815971434038
1731602293469784,0.0137825385,0.14964704,-5.913834,-0.054817047,0.015893461,0.7459092,0.0263378,-0.05469564,-0.026553867,-0.15243914481498977,0.5388925818588824,90.42446426116318,-0.616849964959665,-0.009238506340365975,0.20065281457857248
1731602293477784,0.013180259,0.14996487,-5.9082384,-0.054586805,0.01545455,0.7456063,0.028780194,-0.054863863,-0.03786385,-0.1569907936534511,0.538842847344388,90.42602159548018,-0.568956104807664,-0.006216814311801168,0.1946667896242786
1731602293493784,0.011993061,0.15057877,-5.897023,-0.054121397,0.014557537,0.74535316,0.029087996,-0.056063347,-0.015821308,-0.16572177824908607,0.5389849002184087,90.42884271338687,-0.5456865372271864,0.008878304626293328,0.17631986916847978
1731602293501784,0.011396561,0.15086551,-5.8914027,-0.05387768,0.014088308,0.745228,0.03046449,-0.05865353,-0.01564622,-0.1699948493324936,0.5389139271441976,90.43014740293945,-0.5341338854259403,-0.00887163427638819,0.16308619407234928
1731602293509784,0.010805881,0.1511451,-5.885774,-0.05364306,0.013612389,0.7450051,0.029327812,-0.059489973,-0.02786517,-0.17395467944787957,0.5386958850582224,90.43141781260019,-0.49497876442324684,-0.02725526074690425,0.15880120759146543
1731602293517784,0.010220972,0.15141758,-5.8801394,-0.05338745,0.0131478105,0.7447118,0.03195135,-0.05807227,-0.036656857,-0.177713304301615,0.5384446510637911,90.43261316581612,-0.46982810671692954,-0.03140424930391014,0.1494191519915926
1731602293533784,0.009067935,0.15194152,-5.8688526,-0.05291843,0.012184802,0.7444649,0.029313609,-0.060188,-0.015433877,-0.1850229605967215,0.5379379674127989,90.4347374905688,-0.45685351844415545,-0.031667728187013064,0.13277029704296528
1731602293541784,0.008499658,0.15219288,-5.8632,-0.052659485,0.011694552,0.7443051,0.032368116,-0.061281256,-0.019975005,-0.18874432397077393,0.5376375859401492,90.4357620862736,-0.46517042175655204,-0.03754768408120891,0.12807446309889833
1731602293549784,0.0077215373,0.151957,-5.8575196,-0.052496277,0.011152516,0.74402833,0.020401085,-0.06775453,-0.034593046,-0.1925434501693823,0.5373844842772959,90.43675253049109,-0.47489077482604686,-0.03163770785666766,0.12380552718702703
1731602293557784,0.006953485,0.15172702,-5.851834,-0.052327115,0.010586479,0.7436487,0.021145212,-0.07075467,-0.047452744,-0.19597656165436644,0.537055980426915,90.43675245239099,-0.4291389356230179,-0.04106298129760257,-9.762512219807333e-06
1731602293573784,0.005448302,0.15127976,-5.840447,-0.051928215,0.009474883,0.7433197,0.02493127,-0.06947474,-0.0205636,-0.20213048081178217,0.5363777875921583,90.43635626957584,-0.38461994733848415,-0.04238705217229636,-0.02476142594714857
1731602293581784,0.0047108373,0.15106213,-5.8347445,-0.05171263,0.008934819,0.74317515,0.026948282,-0.06750796,-0.018067658,-0.2052252837823222,0.5359329520463432,90.43591910502589,-0.38685037131750066,-0.05560444322689058,-0.05464556874384166
1731602293589784,0.00398292,0.15084934,-5.8290367,-0.05149332,0.008396686,0.7429199,0.027413478,-0.067266636,-0.031903386,-0.208710329573882,0.5352538521618968,90.43552972654983,-0.4356307239449764,-0.08488748555579918,-0.048672309507129745
1731602293597784,0.0032644705,0.15064096,-5.8233304,-0.051243927,0.007835976,0.74253976,0.031174159,-0.070088774,-0.0475198,-0.2124930853226229,0.5341365873340689,90.43501052075756,-0.4728444685926119,-0.13965810347849278,-0.06490072403413397
1731602293613784,0.0018555762,0.15023665,-5.811905,-0.0507271,0.006770053,0.7421019,0.032301757,-0.06662018,-0.02736598,-0.22082461544814502,0.5301154068416837,90.43388993934393,-0.5207206328451333,-0.2513237807740718,-0.07003633835176241
1731602293621784,0.001164795,0.15004022,-5.806185,-0.050456576,0.0062232595,0.74190176,0.03381539,-0.068349175,-0.025019048,-0.22512159536527282,0.5273503431547004,90.43315886642726,-0.5371224896409739,-0.3456329608729143,-0.0913841145842367
1731602293629784,0.000482985,0.14984721,-5.8004603,-0.05018065,0.0056838575,0.7415471,0.0344906,-0.06742525,-0.04433095,-0.2294671445739346,0.5243779650965686,90.43243465021001,-0.5431936510827229,-0.3715472572664734,-0.09052702715622914
1731602293637784,-0.00019007178,0.14965743,-5.7947335,-0.04989835,0.0051479014,0.7410719,0.035287812,-0.06699451,-0.059403475,-0.23407926253639047,0.5212525965514314,90.43168306196871,-0.5765147453069855,-0.390671068142153,-0.09394853016134934
1731602293653784,-0.0015278806,0.14929472,-5.783276,-0.04930723,0.004116563,0.7404965,0.036944866,-0.06445864,-0.035960227,-0.24323157835057285,0.5147459351210536,90.42974272465872,-0.5720197383863987,-0.4066663393986106,-0.12127108187490007
1731602293661784,-0.0021838348,0.14911729,-5.777544,-0.04900469,0.0035810252,0.74024016,0.03781775,-0.066942245,-0.032044947,-0.2476948927911218,0.5110399821263703,90.42859493210639,-0.557914305068618,-0.46324412433542134,-0.14347406904072052
1731602293669784,-0.0028313245,0.14894225,-5.771809,-0.048686866,0.0030710069,0.739831,0.03972789,-0.063752286,-0.051148232,-0.2518325962266361,0.5069816757546106,90.42735832190631,-0.5172129294392925,-0.5072882964699509,-0.15457627500983429
1731602293677784,-0.003709292,0.14859715,-5.7666035,-0.048449308,0.0024314106,0.7390649,0.029694753,-0.07994953,-0.095762305,-0.2558028815428462,0.5026497269367967,90.42608070624513,-0.4962856645262541,-0.5414936022267514,-0.15970195764869566
1731602293693784,-0.005424483,0.14792196,-5.7561517,-0.047964167,0.0012088624,0.73793334,0.0303213,-0.07640926,-0.07072091,-0.2630531638886704,0.49359378115064856,90.42512375973423,-0.453142646614015,-0.5659966116342537,-0.059809156930448894
1731602293701784,-0.006262246,0.14759153,-5.750905,-0.04771793,0.00060767186,0.73738694,0.030779744,-0.07514881,-0.06829947,-0.2666584999969833,0.48888339217720606,90.42453602891045,-0.45066701353911215,-0.5887986216803106,-0.07346635297364411
1731602293709784,-0.007080485,0.14726174,-5.7456455,-0.04745102,2.2359745e-06,0.73673135,0.0333637,-0.07567948,-0.08194893,-0.2701509966914439,0.483926844109067,90.4238458704936,-0.4365620868075733,-0.6195685085173867,-0.08626980210712552
1731602293717784,-0.007886151,0.14693618,-5.7403765,-0.04718405,-0.00058859086,0.73599964,0.03337115,-0.07385335,-0.09146332,-0.27364022743470995,0.4784402478105601,90.42309411466691,-0.43615384290825476,-0.6858245373133559,-0.09396947833452284
1731602293733784,-0.009460629,0.14629728,-5.7298055,-0.046616085,-0.0017216906,0.7349311,0.035497826,-0.07081873,-0.06678328,-0.28054344113637864,0.46627606791015025,90.42188438242106,-0.43145085635429287,-0.7602612437756171,-0.07560826536608246
1731602293741784,-0.010229787,0.1459837,-5.7245016,-0.04631647,-0.0022602635,0.7345084,0.03745174,-0.067321606,-0.052839514,-0.28400551264660734,0.45969320481628034,90.42133070684535,-0.43275893877859245,-0.8228578867337382,-0.06920944696280003
1731602293749784,-0.0109871905,0.14567386,-5.7191863,-0.046026148,-0.0027929735,0.73405355,0.03629038,-0.066588745,-0.056855377,-0.28758948268202655,0.45287048326024953,90.42073607608484,-0.4479962544274,-0.8528401945038545,-0.07432884506574272
1731602293757784,-0.011733105,0.14536762,-5.7138605,-0.045731936,-0.0033074615,0.73352,0.03677653,-0.06431099,-0.0666976,-0.29148265864608325,0.44626692779323424,90.420141421325,-0.48664699550708723,-0.8254444333769063,-0.07433184497923077
1731602293773784,-0.013190953,0.14476542,-5.703176,-0.045085877,-0.004318588,0.7328942,0.040378653,-0.0631954,-0.039111823,-0.3001537617827112,0.43313355468005327,90.41889066831214,-0.5419439460392471,-0.8208358195738128,-0.07817206330333012
1731602293781784,-0.01390749,0.1444747,-5.697817,-0.044751424,-0.004805274,0.7326408,0.0418066,-0.060835734,-0.031672418,-0.30495959576715076,0.42652294616139713,90.41828243131985,-0.6007292480549394,-0.826326064832013,-0.07602962403610601
1731602293789784,-0.014612994,0.14418699,-5.692447,-0.044403024,-0.005275962,0.73227966,0.043550037,-0.05883601,-0.045143064,-0.3098716108476811,0.4200083687548583,90.41744186919271,-0.6140018850662945,-0.8143221758173543,-0.1050702658923389
1731602293797784,-0.014886493,0.1437665,-5.687252,-0.04400924,-0.0058204387,0.7317445,0.04922319,-0.06805959,-0.06689131,-0.3148689076124968,0.41325270617024196,90.41664921932087,-0.6246620956019662,-0.844457823077042,-0.09908123397962836
1731602293813784,-0.015435547,0.1429415,-5.6768208,-0.043190483,-0.0068675946,0.7311696,0.051172215,-0.06544723,-0.03593415,-0.32433632706942284,0.39948680732163105,90.41233843549423,-0.5917137160578743,-0.8603686780381832,-0.26942398916499727
1731602293821784,-0.015710728,0.14253667,-5.6715837,-0.042773712,-0.0073832856,0.7309292,0.05209632,-0.06446137,-0.03004819,-0.32903283544634926,0.39247408995484667,90.41019329441173,-0.5870635471158054,-0.8765896708480453,-0.26814263531482085
1731602293829784,-0.015986113,0.1421367,-5.666333,-0.04234459,-0.007886523,0.73056924,0.05364045,-0.06290472,-0.044994052,-0.33391721331525737,0.38537615925747015,90.40812328890819,-0.6105472336135176,-0.8872413371720659,-0.25875068794180545
1731602293837784,-0.016261486,0.14174126,-5.66107,-0.04191997,-0.008401475,0.7301115,0.053077467,-0.06436894,-0.057220455,-0.3384613460732342,0.3783500330671466,90.40606016560045,-0.5680165947471014,-0.8782657737904445,-0.25789041346760433
1731602293853784,-0.016830055,0.14095303,-5.6505075,-0.04105283,-0.0093751075,0.7296342,0.05419622,-0.060852032,-0.029828398,-0.34676955149980704,0.363963565197998,90.4012644770086,-0.5192628391608011,-0.8991542418217898,-0.2997305369904715
1731602293861784,-0.017113503,0.1405654,-5.645207,-0.04061105,-0.009840302,0.7294455,0.055222303,-0.058149334,-0.023588536,-0.35047750979101594,0.35668705535987527,90.39848417378121,-0.4634947864011133,-0.9095637297653387,-0.34753790342235674
1731602293869784,-0.017396098,0.14018206,-5.6398945,-0.040161926,-0.010287777,0.7291731,0.056140587,-0.0559343,-0.034049153,-0.3537470228216925,0.3494089237384652,90.39579261945728,-0.40868912883457165,-0.9097664526762569,-0.33644429049140917
1731602293877784,-0.017677795,0.13980283,-5.634571,-0.039722413,-0.010737716,0.7288058,0.05493918,-0.05624245,-0.045917924,-0.35653895734219476,0.3419638553520646,90.39305330561687,-0.3489918150627833,-0.9306335483000779,-0.342414230051207
1731602293893784,-0.018238075,0.13905603,-5.623892,-0.038833577,-0.011603925,0.72848785,0.055552226,-0.054138068,-0.019870697,-0.36135370971731356,0.3264967888501796,90.38755415355949,-0.30092202344492475,-0.9666916563678118,-0.3436970035864933
1731602293901784,-0.018516384,0.13868837,-5.618535,-0.03838013,-0.012007126,0.7283624,0.056680754,-0.050400034,-0.015683472,-0.363444078120267,0.31873028707476,90.38491728149754,-0.2612960503691807,-0.9708127219274537,-0.32960900774417823
1731602293909784,-0.018793253,0.13832441,-5.6131673,-0.037918106,-0.012412465,0.7281078,0.05775317,-0.05066744,-0.03182143,-0.36522756677241147,0.3112868158411928,90.382259968938,-0.22293608151805666,-0.9304339041958966,-0.33216406994290304
1731602293917784,-0.019062188,0.13796091,-5.6077905,-0.037440613,-0.012809157,0.7277648,0.059686597,-0.049586523,-0.042878088,-0.3667097793818888,0.3037828644843075,90.37963000328489,-0.18527657618466753,-0.93799391961066,-0.32874570663823943
1731602293933784,-0.020725545,0.13754453,-5.598837,-0.036909856,-0.013396225,0.7271361,0.033172313,-0.03669172,-0.03929436,-0.36842882887542977,0.28807655490173095,90.37469105367262,-0.10744059334630951,-0.9816443489110331,-0.30868435076663947
1731602293941939,-0.021535259,0.13733707,-5.5943093,-0.036617048,-0.01365981,0.72683865,0.03590531,-0.03232186,-0.036471754,-0.36870333995024046,0.2800739827876543,90.37182206623802,-0.03366168912455316,-0.9813086589916238,-0.3518071654940382
1731602293949939,-0.02233073,0.1371302,-5.58975,-0.036344282,-0.013906252,0.72645336,0.03409572,-0.03080524,-0.04816055,-0.36869509415574553,0.2722564203014996,90.36898718870901,0.0010307243118680078,-0.9771953107693373,-0.35435969112537286
1731602293957939,-0.023112316,0.136924,-5.5851603,-0.03605272,-0.014147176,0.7259658,0.036445446,-0.030115595,-0.060945746,-0.3687505292083638,0.26488947341353075,90.3661933176769,-0.006929381577284492,-0.9208683609961054,-0.34923387901408176
1731602293973939,-0.024634577,0.1365136,-5.5758924,-0.03544235,-0.014591561,0.7254362,0.038148135,-0.027774017,-0.033099204,-0.36930390167298166,0.25128063696663655,90.36087883410858,-0.03458577903861425,-0.8505522779308858,-0.3321552230209351
1731602293981939,-0.02537575,0.13630956,-5.5712132,-0.03511776,-0.014807266,0.72528815,0.04057353,-0.026963184,-0.018507242,-0.3699746991416604,0.2447283964557395,90.35832413428723,-0.08384968358484471,-0.8190300638621336,-0.31933747766708054
1731602293989939,-0.026079247,0.13611147,-5.5665054,-0.034751624,-0.015005193,0.7251334,0.04576705,-0.024740815,-0.019341707,-0.37100044340147464,0.238333201493187,90.35583769513904,-0.12821803247678018,-0.7993993703190606,-0.31080489352344726
1731602293997939,-0.02677008,0.13591416,-5.5617695,-0.034376428,-0.015193121,0.7249275,0.04689954,-0.02349098,-0.025741754,-0.3723030680874593,0.23203923586759218,90.3541777444727,-0.1628280857480756,-0.7867457031993569,-0.20749383329396318
1731602294013939,-0.02811451,0.1355217,-5.5522127,-0.03362048,-0.015582526,0.72509366,0.04724669,-0.024337845,0.010386108,-0.37613088766007186,0.21988903523399128,90.35116528654162,-0.23923872328828638,-0.7593875396000556,-0.1882786206921146
1731602294021939,-0.028768703,0.13532656,-5.547392,-0.03324446,-0.015748542,0.7252655,0.04700245,-0.02075196,0.021480022,-0.37872571241429576,0.2142985519672557,90.34973756383701,-0.32435309427799164,-0.6988104083419482,-0.17846533807624626
1731602294029939,-0.029411161,0.13513237,-5.542543,-0.032859027,-0.015899774,0.72536826,0.048179176,-0.018903986,0.0128448,-0.3816182002642989,0.20927594071493788,90.34840554712126,-0.3615609812503868,-0.6278264065397262,-0.16650208946854528
1731602294037939,-0.03004206,0.13493915,-5.537668,-0.03247414,-0.016041717,0.72536993,0.048110723,-0.01774286,0.00020861624,-0.38449173961041905,0.20484765469754995,90.34717600343284,-0.3591924182650246,-0.5535357521734896,-0.15369296105393024
1731602294053939,-0.03171142,0.13437976,-5.5285273,-0.0318696,-0.016519507,0.725615,0.037783757,-0.029861925,0.015318393,-0.3901398274225143,0.1972794650072919,90.34455295412523,-0.35300548825595385,-0.4730118556411289,-0.16394058172468212
1731602294061939,-0.032521196,0.13409558,-5.5239053,-0.031553958,-0.016750976,0.7257627,0.039455477,-0.02893363,0.018462539,-0.39267108183188504,0.19362129045232934,90.343282513501,-0.31640680117134257,-0.45727181937032063,-0.1588050780307212
1731602294069939,-0.033315495,0.1338135,-5.519251,-0.031210097,-0.016960533,0.72582644,0.04298263,-0.02619461,0.007964671,-0.39511101300757157,0.18971509408101966,90.34255837928185,-0.3049913969608098,-0.4882745464137091,-0.0905167773925738
1731602294077939,-0.034094524,0.13353348,-5.5145655,-0.030862631,-0.01718427,0.72579396,0.043433156,-0.02796715,-0.0040605664,-0.3976944543517604,0.1854260991642916,90.34186841644626,-0.32293016802360236,-0.53612436459101,-0.08624535444914987
1731602294093939,-0.03560773,0.13297905,-5.5051036,-0.030132744,-0.017609831,0.7261613,0.045617923,-0.026597524,0.022958962,-0.4035017278943316,0.1761475611429195,90.3408436774515,-0.3629545964107017,-0.5799086263357555,-0.06404618717243935
1731602294101939,-0.03634225,0.13270462,-5.500326,-0.029757537,-0.017808195,0.72640246,0.046900935,-0.02479553,0.030145047,-0.4067920967833609,0.17166034631187832,90.34042010979736,-0.41129611112866643,-0.5609018538801451,-0.052945956766699324
1731602294109939,-0.03706229,0.13243204,-5.4955196,-0.029362734,-0.01798372,0.72655535,0.049350314,-0.021940561,0.01911074,-0.41013939674541405,0.1675300914817906,90.34011269454803,-0.4184124952566404,-0.516281853760967,-0.03842690616802543
1731602294117939,-0.037768036,0.13216141,-5.4906855,-0.028964093,-0.018150406,0.72664416,0.04983018,-0.02083578,0.011101364,-0.41357223107515134,0.16369216280550655,90.33991456093517,-0.4291042912171615,-0.4797410845355064,-0.024766701605556333
1731602294125939,-0.038475353,0.13189258,-5.4858236,-0.028576799,-0.018323082,0.72686726,0.048411775,-0.021584563,0.027887521,-0.4168542448569397,0.1598273542294528,90.33988717977242,-0.4102517227235491,-0.48310107200672014,-0.003422645344271525
1731602294141939,-0.039847977,0.13136028,-5.476015,-0.027756048,-0.018631361,0.7278086,0.051296897,-0.019267434,0.058833506,-0.42340940713814307,0.15202575519734243,90.33904691629859,-0.4096976425752076,-0.48759993950689756,-0.05251646711438607
1731602294149939,-0.040513624,0.13109675,-5.471067,-0.02734535,-0.018781474,0.7285125,0.05133729,-0.018764054,0.08799135,-0.4270241642354399,0.14786463495807498,90.33882829272086,-0.45184463716210205,-0.5201400299084312,-0.02732794721605404
1731602294157939,-0.04116582,0.13083489,-5.4660892,-0.026925622,-0.018924931,0.7292698,0.052466054,-0.01793215,0.09465962,-0.4307184257639363,0.1435873352166298,90.33867797012574,-0.4617826910620566,-0.5346624676806448,-0.018790324389986037
1731602294173939,-0.042497795,0.13044515,-5.4558396,-0.026086086,-0.01906529,0.73133,0.052470945,-0.008772477,0.12876093,-0.43825282936116783,0.13519446196514218,90.33876664016083,-0.470900224826971,-0.5245545782179766,0.005541877192529843
1731602294181939,-0.04317604,0.13031492,-5.450572,-0.025646385,-0.019105285,0.73255795,0.0549627,-0.004999339,0.15349686,-0.4419919881600122,0.13090693255458208,90.3390397830808,-0.4673948498555397,-0.5359411763200128,0.03414286499729151
1731602294189939,-0.04383973,0.13018416,-5.4452786,-0.025187703,-0.019115033,0.73378825,0.057335243,-0.0012184028,0.15378743,-0.44581604062456665,0.12666325326504493,90.33932662650963,-0.4780065580693115,-0.5304599111921445,0.03585542860338832
1731602294197939,-0.04450684,0.13005462,-5.4399605,-0.024744237,-0.019105941,0.7349369,0.055433247,0.0011364464,0.14358014,-0.4493031542355458,0.12278185567023175,90.33966809032586,-0.4358892013723879,-0.4851746993516464,0.042682977028821255
1731602294213939,-0.045798033,0.12979497,-5.4292502,-0.023838524,-0.019076418,0.73739797,0.056607064,0.0018451827,0.15381724,-0.4559425221091933,0.11562276138518211,90.33950406710098,-0.4149604921029689,-0.4474433928156032,-0.010251451555039346
1731602294221939,-0.04642268,0.12966497,-5.423858,-0.023396177,-0.019061306,0.7386981,0.055293318,0.0018889549,0.1625195,-0.45925320070553904,0.11220572571523235,90.33944938596895,-0.41383482454322307,-0.4271294587437197,-0.006835141503568398
1731602294229939,-0.04703373,0.12953494,-5.4184422,-0.022962391,-0.019022005,0.7399333,0.05422323,0.004912726,0.15439838,-0.46283886618957387,0.1090664075051244,90.33949028552365,-0.4482081855043511,-0.39241477626349297,0.005112444336971812
1731602294237939,-0.047631357,0.12940511,-5.413003,-0.022502854,-0.018978238,0.7410468,0.05744211,0.005470821,0.1391843,-0.4666981568909504,0.10624416035381522,90.33964737738114,-0.48241133767206884,-0.35278089391364853,0.019636482186920927
1731602294253939,-0.04878648,0.129146,-5.402059,-0.021526389,-0.018902091,0.7432641,0.0610291,0.004759175,0.1385808,-0.47489003690003156,0.10177686242916877,90.33987955960102,-0.5119925005675715,-0.27920612029040276,0.014511388741838584
1731602294261939,-0.049348645,0.1290148,-5.396554,-0.021040352,-0.018878499,0.74438554,0.060754593,0.0029490327,0.14018267,-0.47898122727927744,0.10027832726784822,90.33996150029121,-0.5113987974057371,-0.18731689516506883,0.010242586274114625
1731602294269939,-0.04989781,0.12888388,-5.391028,-0.020539695,-0.018822301,0.7454135,0.06258208,0.007024733,0.12849271,-0.48288091158209123,0.09884030347228491,90.34008446198187,-0.4874605378517187,-0.17975297444541313,0.015370211333379692
1731602294277939,-0.050434094,0.1287534,-5.385483,-0.020034911,-0.018772285,0.7462891,0.063098036,0.006251968,0.10944902,-0.48660859051353794,0.09716961274476908,90.34028249371045,-0.4659598664308425,-0.2088363409394795,0.024753966071438305
1731602294293939,-0.051468614,0.12849359,-5.374336,-0.019003218,-0.018690119,0.7480911,0.06448081,0.0051354286,0.112626694,-0.49312042440825427,0.09328687162166151,90.34073323822709,-0.4069896184197711,-0.24267132019422324,0.028171532290136945
1731602294301939,-0.051797908,0.12853391,-5.368597,-0.01838379,-0.0184961,0.7490084,0.07742853,0.024252336,0.11466443,-0.49593987397941547,0.09135683374740981,90.34095184131998,-0.3524311963951491,-0.2412547342814614,0.027325386611910533
1731602294309939,-0.052118424,0.12857209,-5.3628445,-0.017754206,-0.018297445,0.7498733,0.07869792,0.024831852,0.10810792,-0.49856685762246716,0.08959912506154039,90.34183975127063,-0.32837295538146316,-0.21971358573367944,0.11098874383089768
1731602294317939,-0.05243018,0.12860826,-5.3570786,-0.017133122,-0.018102683,0.7505871,0.07763551,0.024345236,0.089228146,-0.5008170975160083,0.08819169085188026,90.34276868236581,-0.2812799866926499,-0.17592927620751542,0.11611638689846335
1731602294333939,-0.05302793,0.1286745,-5.3455086,-0.015903981,-0.017755251,0.7520898,0.076821305,0.021714482,0.093918286,-0.5046851376118837,0.08619120350074698,90.34466746349455,-0.24175250599221132,-0.12503045944583016,0.1186738205457934
1731602294341939,-0.053317264,0.12871422,-5.339705,-0.015266713,-0.017577836,0.75285196,0.079658575,0.022176884,0.09527057,-0.5062952543131223,0.08530598598056689,90.34566465406189,-0.20126458765481797,-0.11065219002251056,0.12464882091832542
1731602294349939,-0.053597942,0.12875201,-5.333889,-0.014629308,-0.017391525,0.75351286,0.07967557,0.023288883,0.08261203,-0.5075497042012602,0.08450647944383755,90.34606766952716,-0.1568062360172386,-0.09993831709116818,0.05037693315743642
1731602294357939,-0.053869955,0.128788,-5.328062,-0.013978287,-0.017203072,0.75402683,0.081377685,0.023556639,0.06424636,-0.5085751610865351,0.08399077292356304,90.34659360569252,-0.1281821106593643,-0.0644633150343135,0.0657420206712937
1731602294373939,-0.05438824,0.12885492,-5.3163776,-0.0127020115,-0.016850447,0.7551201,0.07976719,0.022039048,0.068329275,-0.5098630134777319,0.08423312483832755,90.34753617618665,-0.08049077444979405,0.015146994672782058,0.058910655883190846
1731602294381939,-0.054634623,0.12888584,-5.31052,-0.012062629,-0.016680922,0.75567454,0.07992284,0.021190614,0.0693053,-0.5104527423337303,0.08467249857832597,90.34793919181175,-0.07371610699980188,0.05492171749980176,0.05037695313609065
1731602294389939,-0.054872543,0.12891527,-5.304653,-0.011405773,-0.016498165,0.7561571,0.08210691,0.022844642,0.060319897,-0.5109475992927901,0.0852940731569571,90.3485128761802,-0.06185711988248078,0.07769682232889204,0.0717105460562927
1731602294397939,-0.055101898,0.12894326,-5.298777,-0.010747264,-0.016326515,0.7565394,0.082313664,0.021456273,0.04778802,-0.5115958094505574,0.0859133799068291,90.34921645651214,-0.08102626972091728,0.0774133437339995,0.08794754149400813
1731602294413939,-0.05552023,0.1289878,-5.2869997,-0.009393134,-0.015997473,0.75733596,0.08463312,0.020565115,0.049784776,-0.5118197867774379,0.08727995291023817,90.35062347157555,-0.013998582930027436,0.0854108127130675,0.08793844146270348
1731602294421939,-0.055762507,0.12919173,-5.2812033,-0.008720033,-0.015733315,0.75769085,0.084137656,0.033019807,0.044360753,-0.5111948181426433,0.08819089043813871,90.35141580130484,0.0781210793493102,0.11386719098756778,0.09904121616111232
1731602294429939,-0.055995252,0.12939107,-5.275397,-0.008057816,-0.015444635,0.7579514,0.08277711,0.036084905,0.032566488,-0.510247265081714,0.08926339150638844,90.35277508973357,0.11844413261617377,0.134062633531216,0.16991105359165312
1731602294437939,-0.0562185,0.12958607,-5.2695813,-0.007375987,-0.015177802,0.7580435,0.085228644,0.033354152,0.011518597,-0.5090355021371064,0.09047172282602935,90.35410701609119,0.15147036807595474,0.1510414149551115,0.1664907947018438
1731602294453939,-0.056636564,0.12996341,-5.257926,-0.0060316967,-0.014651812,0.7583443,0.084018126,0.032874405,0.018797815,-0.5059862602727047,0.09331843460799591,90.35686649000336,0.19057761652510558,0.17791948637291077,0.17246711951061947
1731602294461939,-0.056831732,0.13014598,-5.2520857,-0.0053623,-0.01439814,0.75854945,0.08367456,0.03170897,0.025644897,-0.5044114435679923,0.09492108996633357,90.35828725017814,0.19685208808904447,0.2003319197922073,0.17759502184825626
1731602294469939,-0.057017744,0.13032465,-5.246237,-0.004695885,-0.014138743,0.7587074,0.08330191,0.032424577,0.019744037,-0.5028104808159911,0.09661927480151997,90.35972160656685,0.20012034400014808,0.21227310439829875,0.1792945485881234
1731602294477939,-0.057187323,0.13050322,-5.240381,-0.004024754,-0.01388256,0.75870824,0.08389138,0.03202294,0.00010430812,-0.501122406271234,0.09846426898456376,90.36111502551815,0.211009318094639,0.23062427288047477,0.17417736891252936
1731602294493939,-0.05749969,0.13084903,-5.2286487,-0.0026512658,-0.013430744,0.7588231,0.085843,0.028238457,0.007178634,-0.4966245456118552,0.10332543688123612,90.36356719104859,0.28111629121117687,0.30382299354202236,0.1532603456526635
1731602294501939,-0.057642635,0.13101633,-5.222772,-0.0019672185,-0.0132012535,0.7589423,0.08550592,0.028686363,0.01490116,-0.49384746204976276,0.10636447594395546,90.36478981567431,0.34713544526155493,0.37987988283991664,0.15282807821521088
1731602294509939,-0.057776902,0.13118011,-5.216889,-0.0012997844,-0.012978126,0.75901115,0.083429255,0.027890898,0.008605421,-0.4907977670741571,0.10985694998340009,90.36600567564481,0.3812118719507048,0.4365592549305805,0.15198249631336078
1731602294517939,-0.057902668,0.13134043,-5.211,-0.0006265169,-0.012767508,0.7589977,0.084158435,0.026327323,-0.0016838311,-0.4876763326816562,0.1135391092946469,90.36724883437063,0.3901792990626128,0.460269913905852,0.1553948407268035
1731602294533939,-0.058128662,0.13165057,-5.1992054,0.00072737783,-0.012394262,0.7589872,0.08461841,0.023327883,-0.00065565103,-0.48124782051523124,0.12038718862338645,90.36968053410452,0.4017820104015599,0.4280049580462207,0.1519812333675759
1731602294541939,-0.05822206,0.1318082,-5.1933002,0.0013861385,-0.012208583,0.7589686,0.082345076,0.023209838,-0.0023245811,-0.4775763538911204,0.12329642890134629,90.37080756049232,0.4589333280138555,0.3636550347449818,0.14087829847575972
1731602294549939,-0.05894995,0.13175386,-5.187701,0.0018722329,-0.012122492,0.7587987,0.060761794,0.010761315,-0.021234153,-0.47377338120114054,0.12606519671155159,90.37167506682637,0.4753715862474852,0.34609597627566285,0.1084382917571281
1731602294557939,-0.05965398,0.13170044,-5.1820908,0.0023682802,-0.01206683,0.7585399,0.06200591,0.006957794,-0.03235042,-0.469809824800146,0.129212214180906,90.37303431560811,0.4954445501243172,0.3933771836692997,0.16990609771654983
1731602294573939,-0.06099232,0.13159549,-5.170836,0.003371961,-0.012013851,0.7581443,0.062730044,0.0033112008,-0.02472475,-0.46179698595318025,0.13624570039679695,90.3757529253513,0.5008024279353595,0.439592888493185,0.16991310894957784
1731602294581939,-0.061627656,0.13154353,-5.1651917,0.003887135,-0.0120099215,0.75800586,0.06439676,0.00049115624,-0.017307699,-0.4574461444090745,0.1398133239927076,90.377084944395,0.5438551930132194,0.44595294948882946,0.16650238046067364
1731602294589939,-0.06224107,0.13149185,-5.1595364,0.0043880506,-0.011981531,0.7578792,0.06261444,0.0035488044,-0.015832484,-0.4530264940094246,0.1430867154684526,90.37841006641524,0.5524562999562408,0.409173934468129,0.16564025253254439
1731602294597939,-0.06283312,0.13144045,-5.153871,0.0049017533,-0.011966308,0.7576823,0.06421283,0.0019029247,-0.024609266,-0.44864019205301925,0.14591717087082556,90.37984449227685,0.5482877445506628,0.353806925296617,0.17930323269988263
1731602294613939,-0.063948885,0.13134241,-5.14251,0.005925305,-0.011962197,0.75742155,0.06397199,0.00025692862,-0.016298145,-0.4407627962226645,0.14997726496128166,90.38234443068309,0.49233723939717117,0.25375588065350707,0.15624615039018713
1731602294621939,-0.06447657,0.13129324,-5.1368146,0.0064479304,-0.011968014,0.757342,0.06532814,-0.00072713004,-0.009946524,-0.4374616888999983,0.1517491849250163,90.38358759281604,0.41263841533327317,0.22148999546682688,0.15539526661897815
1731602294629939,-0.064984664,0.1312439,-5.1311097,0.0069606095,-0.011970282,0.75726897,0.06408489,-0.0002834713,-0.009126961,-0.4346204858728512,0.15360517535956889,90.38479662782129,0.3551503783933955,0.23199880431907624,0.1511293756556589
1731602294637939,-0.065473646,0.1311943,-5.1253953,0.0074709877,-0.011990554,0.7571151,0.06379728,-0.002534012,-0.019229949,-0.4322233661770841,0.15558553722135696,90.38591684942759,0.2996399619708788,0.24754523272350779,0.1400277007866978
1731602294653939,-0.06639607,0.13109364,-5.11394,0.008483039,-0.012045262,0.756929,0.06325322,-0.0034192924,-0.011634081,-0.4282691630295884,0.1587900819407527,90.38815039389134,0.24713769671848354,0.20028404496223398,0.13959652898513156
1731602294661939,-0.066830315,0.13104261,-5.1081986,0.0089989,-0.012065219,0.7568935,0.06448256,-0.0024945473,-0.0044330955,-0.4263629758716809,0.15969472531400294,90.38860124716163,0.23827339473843648,0.1130804216562789,0.056356658786232326
1731602294669939,-0.067246735,0.1309907,-5.102433,0.009603534,-0.012205642,0.7618264,0.07557927,-0.01755287,0.61661005,-0.40261115885514337,0.13848973081364283,90.3845504706244,2.9689771270671943,-2.6506243125450126,-0.5063470671538648
1731602294677939,-0.068216115,0.13130906,-5.09677,0.010093479,-0.012214707,0.77370554,0.061243188,-0.0011331867,1.4848932,-0.3071364922507407,0.04544863045213686,90.3742903104192,11.934333325550336,-11.630137545188248,-1.2825200256513127
1731602294693939,-0.07007323,0.13192914,-5.08504,0.010773214,-0.011949337,0.8081573,0.042483382,0.016585631,2.1532364,0.20038144579920647,-0.44606881962037664,90.33166538869723,31.719871128121696,-30.7198406295321,-2.6640576076227958
1731602294701939,-0.07096039,0.13222985,-5.0789213,0.0107003,-0.011374225,0.8320276,-0.009114156,0.07188902,2.983786,0.627815554808758,-0.8399113897661813,90.29433892361135,53.42926362619392,-49.23032126822558,-4.665808135734933
1731602294709939,-0.07182476,0.13252836,-5.0725718,0.0101416,-0.010374421,0.86054814,-0.06983755,0.12497545,3.5650654,1.14308896101396,-1.299076783490285,90.23844240016201,64.40917577565027,-57.39567421551297,-6.98706543116637
1731602294717939,-0.072671615,0.1328292,-5.0660033,0.008901921,-0.008727928,0.88303465,-0.15495984,0.20581168,2.8108134,1.7235067278436864,-1.7963644559045442,90.15719911232429,72.5522208537158,-62.160959051782385,-10.155410979714615
1731602294733939,-0.07434112,0.13346155,-5.0524063,0.003928742,-0.0032753623,0.9134508,-0.31082368,0.34078532,1.9010081,3.003084837309715,-2.8416981963899883,89.91349170028913,79.97363184162678,-65.33335878034025,-15.231713252198215
1731602294741939,-0.07517843,0.13380489,-5.0454326,5.9777376e-05,0.0005893868,0.9235013,-0.48362055,0.48309362,1.2563168,3.6839057863600893,-3.375422919717137,89.74585431260255,85.1026186312968,-66.71559041589362,-20.954673460823177
1731602294749939,-0.076028675,0.13417506,-5.0383773,-0.0047979415,0.005252322,0.931247,-0.60721487,0.5828669,0.96821034,4.3783315091305415,-3.90995173091125,89.54623079064943,86.80321534630644,-66.8161013992641,-24.952940244139654
1731602294757939,-0.07690791,0.13457996,-5.0312543,-0.010621693,0.010672391,0.9377865,-0.7279689,0.6775086,0.8174404,5.0818806069570925,-4.442964401363186,89.31447788594514,87.94363722831888,-66.62658380649196,-28.969113088036643
1731602294773939,-0.078761905,0.13551445,-5.0168304,-0.024965899,0.023778398,0.9495402,-0.89651287,0.81912535,0.73460484,6.508456896280133,-5.498322665375684,88.75516523151799,89.16101808269002,-65.95989150078118,-34.9570409016966
1731602294781939,-0.079750076,0.13605468,-5.009519,-0.0329089,0.03096753,0.95963293,-0.9928753,0.89864147,1.2615918,7.236274273609681,-6.017753646690578,88.43180070855351,90.97717216619353,-64.92887266436175,-40.420565370558904
1731602294789939,-0.080785796,0.13664868,-5.002117,-0.04178939,0.03890589,0.9689384,-1.110061,0.99229485,1.1631846,7.978994875394625,-6.529947338883042,88.07798155719232,92.84007522311806,-64.02421152405786,-44.22739392015007
1731602294797939,-0.080329716,0.13617569,-4.994393,-0.049652793,0.04608888,0.98449534,-0.98292524,0.89787406,1.9446163,8.740971311176388,-7.0348717629805995,87.70161167376887,95.24705447272041,-63.11555301219477,-47.046235427930846
1731602294813939,-0.0796518,0.13545449,-4.978392,-0.06458732,0.05972211,1.0355307,-0.9334078,0.85207677,3.189709,10.37763895336353,-8.011822421107066,86.88230995229691,102.2917276366963,-61.05941613290417,-51.20635759199733
1731602294821939,-0.079438426,0.13521238,-4.9700975,-0.07427888,0.068314046,1.0551646,-1.2114457,1.0739918,2.454236,11.245166092452536,-8.481440735322984,86.43054604251658,108.4408923861257,-58.70228927698977,-56.47048872254035
1731602294829939,-0.07934782,0.13507223,-4.961667,-0.085994415,0.07845609,1.0691669,-1.4644413,1.2677554,1.7502903,12.131726968592424,-8.939285700708453,85.94873715989856,110.82010951748612,-57.23062067318353,-60.22611032725345
1731602294837939,-0.079367846,0.1350316,-4.953107,-0.09760491,0.08845721,1.088077,-1.4513116,1.2501403,2.3637562,13.037067096198202,-9.38285715250951,85.43945766319125,113.16751595072225,-55.44643147513209,-63.65993708841329
1731602294853939,-0.07974666,0.13525285,-4.9355054,-0.122916,0.11004652,1.1282364,-1.581943,1.3493317,2.5099664,14.913721626344602,-10.213267785106263,84.34253530574836,117.29090813414997,-51.900664537297025,-68.55764734018109
1731602294861939,-0.080120355,0.1355254,-4.926471,-0.13811675,0.12274662,1.1437615,-1.9000936,1.5875119,1.9406377,15.883181387836151,-10.597013633317186,83.75144894373354,121.18247018644362,-47.96823102636547,-73.88579525185322
1731602294869939,-0.08063716,0.13592091,-4.9173226,-0.15513289,0.13680308,1.1563464,-2.1270177,1.7570573,1.5731155,16.865514047673383,-10.963768363885066,83.12967169292747,122.79158247965395,-45.84434132098508,-77.72215635075652
1731602294877939,-0.081309535,0.13644841,-4.908077,-0.17360057,0.15192902,1.1675804,-2.3084598,1.890743,1.4042406,17.857484031288475,-11.314741253528297,82.47627128858403,123.99624795188647,-43.871611205403894,-81.67505054293157
1731602294893939,-0.08312753,0.13790643,-4.8892293,-0.20811203,0.18041372,1.2072093,-2.1569662,1.7802938,2.4768114,19.906134345210717,-11.935670614961117,81.1043198670648,128.04064462014023,-38.80808508955115,-85.7469638449516
1731602294901939,-0.08425519,0.13882317,-4.8795257,-0.22635245,0.19534467,1.2286099,-2.2800527,1.8663685,2.6750712,20.994648792149068,-12.174660054618155,80.39310540236998,136.0643058672939,-29.87367995712993,-88.90180808685155
1731602294909939,-0.08554204,0.1398733,-4.8696413,-0.24450907,0.21013491,1.2530121,-2.269577,1.8487796,3.0502675,22.121478589030115,-12.369337051679292,79.66949969606499,140.85372461013054,-24.33462463264201,-90.45071328812509
1731602294917939,-0.086980805,0.14105055,-4.859537,-0.2610873,0.22362702,1.2841527,-2.0722783,1.6865133,3.8925855,23.298094970056756,-12.51100443960542,78.94416869578305,147.07704762833006,-17.70842349076615,-90.66637503524265
1731602294933939,-0.08817243,0.14356034,-4.8388133,-0.29181314,0.24888384,1.3568549,-1.9203647,1.5785517,4.543885,25.850874526562684,-12.592664444524026,77.50854069616653,159.54872228162066,-5.1037503074128585,-89.72674997603225
1731602294941939,-0.08901336,0.1449904,-4.828006,-0.30745238,0.26132476,1.3958664,-1.9549056,1.5551149,4.876435,27.214936262568596,-12.541909039860705,76.80016552259764,170.507717000739,6.344425582915134,-88.5468966961116
1731602294950170,-0.0900191,0.14653563,-4.816883,-0.32460228,0.2745209,1.4338976,-2.0835738,1.6032244,4.620486,28.63349777969469,-12.432793020302679,76.09685440537183,172.34376347054962,13.256714804765773,-85.44661854280325
1731602294958170,-0.09121003,0.14820778,-4.805471,-0.34541395,0.28987843,1.4668627,-2.6014595,1.9196904,4.1206326,30.093757176271218,-12.274361953783579,75.3951172674468,182.53242457206622,19.803883314887454,-87.71714224062671
1731602294974170,-0.09424066,0.15199085,-4.781865,-0.39566562,0.3250972,1.5247049,-3.1407287,2.2011733,3.6151407,33.10921889080792,-11.829370715997062,73.97862701281738,188.46635715854362,27.81195236165732,-88.53064091433883
1731602294982170,-0.096141644,0.15413578,-4.769742,-0.42551234,0.34514448,1.5495677,-3.730841,2.5059094,3.1078455,34.642101259577466,-11.553982985278434,73.24736693327137,191.61029609619362,34.42346633982841,-91.40750994325207
1731602294990170,-0.098290235,0.1564378,-4.7573705,-0.45060205,0.3618595,1.5848101,-3.1362138,2.0893774,4.4053044,36.20468325945524,-11.23621170650178,72.52230670377179,195.32274998472118,39.72140984708171,-90.63252868744726
1731602294998170,-0.10066555,0.15888129,-4.744697,-0.47429356,0.37737322,1.624441,-2.961438,1.9392147,4.953861,37.80558688332362,-10.870447338826319,71.81257015453578,200.11295298354844,45.720545959432656,-88.71706865450155
1731602295014170,-0.10610586,0.16418801,-4.7183924,-0.53166837,0.41329426,1.6965572,-3.585925,2.2450647,4.5072584,41.121541964089616,-9.987798905322963,70.4273149604417,207.2471925478747,55.165527093959724,-86.57844963088004
1731602295022170,-0.10925938,0.16709808,-4.7048464,-0.56874216,0.43557128,1.7253469,-4.6342235,2.7846284,3.5987196,42.80444272723643,-9.492163111189539,69.73439842477254,210.36259539335097,61.95447426667813,-86.61456695864477
1731602295030170,-0.112732105,0.17019299,-4.6910505,-0.60422766,0.45656967,1.7587315,-4.435688,2.6247985,4.17307,44.49985294194092,-8.964108423993988,69.04300030056328,211.9262768380621,66.00683589944377,-86.42476552615776
1731602295038170,-0.11652349,0.1734833,-4.6769824,-0.64296407,0.4791826,1.7909441,-4.84205,2.826616,4.0265765,46.20584889015811,-8.40139716798316,68.35265657634062,213.24949352714776,70.3389070013536,-86.29296552783246
1731602295054170,-0.12412513,0.18118007,-4.649249,-0.7204217,0.5240239,1.8620819,-4.8411,2.8025804,4.446111,49.640560871454575,-7.148518290570111,66.93805360922074,214.66949883102941,78.30492983831554,-88.41268544499249
1731602295062170,-0.12847082,0.18531467,-4.634933,-0.764988,0.5493103,1.8956431,-5.5707912,3.1608043,4.1951537,51.3613034492483,-6.473021298042906,66.22652461468505,215.09282222421493,84.43712406590058,-88.94112431696115
1731602295070170,-0.13321711,0.1896593,-4.620328,-0.8123519,0.5759669,1.929245,-5.9204845,3.3320708,4.200235,53.07743851398738,-5.768886040156051,65.50854009684626,214.51688309238602,88.01690723585692,-89.74806472984883
1731602295078170,-0.13838227,0.19422354,-4.6054306,-0.8617605,0.60361767,1.9636904,-6.1760764,3.4563465,4.3056755,54.78577132698511,-5.035786570262475,64.78381862699342,213.5416016247162,91.63743373669692,-90.5901837316055
1731602295094170,-0.15002112,0.20403917,-4.574726,-0.96507156,0.66130674,2.0366838,-6.456941,3.6055667,4.562087,58.16389716868023,-3.4826189440090967,63.31400026103921,211.13286510594483,97.07297664083619,-91.8636478721378
1731602295102170,-0.15649317,0.20929138,-4.5588813,-1.0123392,0.68794155,2.0797458,-5.908459,3.3293514,5.382746,59.840636290585465,-2.6617992936009593,62.577360421478055,209.592390238154,102.60245630101713,-92.07997994514463
1731602295110170,-0.16336465,0.21478088,-4.542668,-1.0616143,0.71597356,2.123595,-6.15938,3.5040004,5.4811535,61.51798981480263,-1.8059910278153821,61.844637148993385,209.66919052714582,106.97603322319716,-91.5904090605835
1731602295118170,-0.17067112,0.22050606,-4.526087,-1.1140383,0.74596286,2.167636,-6.553009,3.7486627,5.5051146,63.18611875507151,-0.9092661176303003,61.099338071673486,208.51611753361024,112.09061377313523,-93.16238466498733
1731602295126170,-0.17843215,0.22648048,-4.509133,-1.1684858,0.7773833,2.2127128,-6.8059263,3.9275584,5.6346054,64.8417305121626,0.02023785093156806,60.3519909060785,206.95146963638646,116.18799607023354,-93.41839569937396
1731602295142170,-0.19533618,0.23920192,-4.474052,-1.2720869,0.83848006,2.3118477,-6.475068,3.8185453,6.1959324,68.10858075318093,1.9685216335081117,58.85528540950594,204.1781400636453,121.76773641103397,-93.54409353578467
1731602295150170,-0.20439392,0.24590874,-4.4558525,-1.3166717,0.86558044,2.3677542,-5.5731087,3.387548,6.9883165,69.74284820463558,2.991012364548992,58.12162977463151,204.28343143183142,127.81134138011002,-91.70695435930382
1731602295158170,-0.213859,0.25285444,-4.4371967,-1.3675613,0.8968949,2.4226334,-6.3612013,3.9143038,6.859898,71.37404453443808,4.048027304152401,57.39351226441382,203.8995412253125,132.12686745042615,-91.01468877721115
1731602295174170,-0.23558687,0.2681224,-4.3984003,-1.4795932,0.9671883,2.5344589,-7.0019884,4.393339,6.9890914,74.59657753857996,6.264552783956491,55.94078174911381,201.4083127588681,138.53284248775563,-90.79565720625088
1731602295182170,-0.24785642,0.27646273,-4.378246,-1.5381895,1.0048692,2.5926018,-7.3245463,4.7101154,7.2678623,76.1833278116697,7.4114763867728275,55.23027683418454,198.34378413621616,143.36545035204216,-88.81311436615889
1731602295190170,-0.26058528,0.28509977,-4.35761,-1.5973188,1.0438489,2.652528,-7.3911543,4.872456,7.4907837,77.74570852633845,8.592291749033093,54.51403860407636,195.29758933359275,147.6019202825331,-89.52977876352162
1731602295198170,-0.27377644,0.2940436,-4.336479,-1.6566242,1.0839733,2.714347,-7.4131784,5.015552,7.7273545,79.2837114845358,9.80768335684766,53.79174462823046,192.2503697746696,151.923950976821,-90.28674698073752
1731602295214170,-0.3014925,0.31285164,-4.2926593,-1.765244,1.1608207,2.845632,-6.788738,4.802964,8.205324,82.27528687776487,12.332282018313856,52.32842692532955,186.97346207681704,157.78741634163723,-91.45735643130719
1731602295222170,-0.3159762,0.32270703,-4.2699337,-1.8200287,1.2015069,2.9137678,-6.8480816,5.085766,8.516967,83.71957147049159,13.643762502918092,51.58374434542656,180.53557409083905,163.93506057552943,-93.08532248787388
1731602295230170,-0.3308718,0.33287326,-4.2466464,-1.8696501,1.2396549,2.9842649,-6.2026825,4.7685056,8.812129,85.12090354535144,14.985295999108834,50.82285879520185,175.16650935748152,167.69168702384283,-95.11069377808813
1731602295238170,-0.3461564,0.34334463,-4.2227826,-1.9208275,1.2805123,3.056031,-6.3971725,5.107179,8.970767,86.47621662119688,16.36084605696799,50.04186022642581,169.41413448068113,171.9437572323944,-97.62482109700514
1731602295254170,-0.37793997,0.3652817,-4.173285,-2.0222843,1.3659449,3.2039106,-6.3410473,5.339533,9.242475,89.05499806654001,19.209830083271022,48.43778860058468,161.17384033394566,178.0615016439395,-100.25447661507049
1731602295262170,-0.39440897,0.37674963,-4.1476264,-2.071361,1.4100376,3.2800288,-6.134599,5.5115967,9.514778,90.25781946266626,20.683392426909215,47.602625025158,150.35267451578156,184.1952929547743,-104.39544692833569
1731602295270170,-0.41125047,0.3885595,-4.1213474,-2.116152,1.4521061,3.3574536,-5.5988727,5.2585597,9.678095,91.3881918087688,22.188647208231327,46.73303241075208,141.29654326281613,188.1568476652641,-108.6990768007393
1731602295278170,-0.42842108,0.40068564,-4.094439,-2.1545324,1.4898719,3.4359453,-4.797548,4.7207174,9.8114605,92.41605889443369,23.72237914428687,45.80255686584966,128.48338570811185,191.7164920069423,-116.30944311280314
1731602295294170,-0.4636435,0.4258459,-4.0387034,-2.2334027,1.5739387,3.5956388,-4.9293933,5.254179,9.980842,94.10731744283407,26.897275976062623,43.71560751221124,105.70365927502387,198.4310519859847,-130.43433460240087
1731602295302170,-0.48478642,0.439137,-4.0095644,-2.282155,1.6208875,3.6769984,-6.094038,5.8685985,10.169952,94.80858807095144,28.539700810716717,42.59696715605777,87.6588285146708,205.30310433176203,-139.83004451918416
1731602295310170,-0.5062837,0.452774,-3.9797738,-2.3294575,1.6694309,3.7590876,-5.9128103,6.0679164,10.2611475,95.4975583596922,30.144418324898034,41.60769241738186,86.1212860925966,200.58968927266443,-123.65934233448819
1731602295318170,-0.5280833,0.46674484,-3.949328,-2.3729246,1.7159595,3.8415382,-5.43338,5.816087,10.306328,96.05963678898374,31.79382733244686,40.5386731014163,70.2598036614409,206.1761259436034,-133.6274144956961
1731602295334170,-0.57259065,0.49576765,-3.8864517,-2.4623601,1.8212051,4.0082636,-5.589723,6.577849,10.420337,96.86500603635693,35.20522647715273,38.235731516128595,50.335577960824004,213.21244654411686,-143.9338490804812
1731602295342170,-0.59530324,0.51086915,-3.8540137,-2.5061371,1.8774836,4.0921397,-5.472123,7.034808,10.484516,97.12032883933034,36.963962053717005,37.011269983170216,31.9153503716772,219.84194707053456,-153.05769161979816
1731602295350170,-0.61831236,0.5263817,-3.8209064,-2.547507,1.9336159,4.1759906,-5.171239,7.016539,10.481357,97.26176183944017,38.75167150800176,35.72570712492866,17.679125013728363,223.4636817855942,-160.6953572801943
1731602295358170,-0.64158094,0.5422697,-3.7871337,-2.582476,1.9826343,4.259143,-4.3711066,6.1272974,10.394036,97.17986976886851,40.57136102823883,34.29026356743913,-10.236508821457068,227.46119002963445,-179.43044468619027
1731602295374170,-0.6888353,0.5751677,-3.7176015,-2.6520102,2.0909748,4.4247146,-4.345894,6.7712812,10.34823,96.31639879501887,44.29378704868949,30.935488143684758,-53.96693586560245,232.65162627816576,-209.67346398464872
1731602295382170,-0.712793,0.5921987,-3.681851,-2.68179,2.1413677,4.506183,-3.7224886,6.299108,10.183572,95.51438546463932,46.176640844413555,28.995136646762003,-100.25166629744427,235.356724465508,-242.5439371153441
1731602295390170,-0.736943,0.6095833,-3.6454542,-2.7097046,2.191659,4.5867667,-3.4893153,6.2864122,10.072946,94.41229758457919,48.06457640447005,26.831212146261894,-137.76098500751655,235.9919450070626,-270.4905625625137
1731602295398170,-0.7612753,0.6273243,-3.608418,-2.7345846,2.238605,4.6662602,-3.1099913,5.8682556,9.93669,92.98564472076616,49.939926405815626,24.4209281857401,-178.33160797662777,234.41875016819665,-301.28549506522427
1731602295414170,-0.81041384,0.66380286,-3.5324664,-2.7825952,2.339913,4.821557,-3.0006616,6.3317413,9.70605,89.00656717490507,53.611683610985374,18.71143887934628,-248.69234661631813,229.4848253231092,-356.84308164961385
1731602295422170,-0.83867884,0.68333143,-3.491823,-2.8127224,2.3958144,4.8975787,-3.7659106,6.9876904,9.502708,86.44814906513722,55.37619925618521,15.392693907121213,-319.8022637209826,220.56445564997966,-414.8431215281331
1731602295430170,-0.867096,0.7032151,-3.4506235,-2.841476,2.451948,4.971874,-3.5941896,7.0166883,9.28694,83.60513136877853,57.078077518483234,11.928300245864188,-355.37721204483495,212.73478278725264,-433.0492076571282
1731602295438170,-0.89564174,0.72340006,-3.4088767,-2.8653736,2.496499,5.0453215,-2.9872057,5.5688915,9.180903,80.29835728099638,58.68906095726979,8.07085762002612,-413.34676097276923,201.37292984831902,-482.1803282297586
1731602295454170,-0.95304227,0.76458323,-3.3237796,-2.909711,2.5841274,5.187643,-2.7710793,5.4767723,8.895099,72.13004167710574,61.52183320764274,-0.991744937111261,-510.51972524316477,177.0482656483097,-566.4126598210863
1731602295462170,-0.9818928,0.78555185,-3.2804508,-2.9316795,2.631611,5.255464,-2.7460752,5.93546,8.477628,67.22257626638738,62.681403904902396,-6.24615593884694,-613.4331763397951,144.94633715745664,-656.8013752169599
