timestamp,x,y,z,vx,vy,vz,ax,ay,az,roll,pitch,yaw,roll_rate,pitch_rate,yaw_rate
1731217554697912,0.06868664,0.002469323,-9.5356045,-0.09130703,0.05256024,-0.88535184,0.0,0.0,0.0,-0.12403569365409724,-0.3681937264335312,88.940719403802,0.0,0.0,0.0
1731217554705912,0.06794077,0.0022044135,-9.54216,-0.09103648,0.053031065,-0.8819988,0.033818185,0.058853064,0.41913238,-0.12976432155416726,-0.36800116982206316,88.9444461006319,-0.716078487508753,0.024069576433504342,0.46583710373602827
1731217554713912,0.06719501,0.001959846,-9.548706,-0.09075852,0.053514373,-0.8789017,0.034745783,0.060413495,0.38713214,-0.13531398149124862,-0.3679480746784377,88.94804285415309,-0.6937074921351705,0.006636892953181262,0.44959419014957125
1731217554729912,0.06570405,0.0015308905,-9.561773,-0.090202145,0.054552186,-0.8728175,0.034773257,0.064863354,0.3802627,-0.14653357030027225,-0.36774855433752784,88.95454307392771,-0.7012243005639761,0.012470021306866537,0.4062637359133206
1731217554737912,0.06525832,0.0014919465,-9.567823,-0.08972018,0.055083375,-0.86937624,0.06024539,0.06639864,0.43015924,-0.15202981476042565,-0.36757750260190036,88.95761379274286,-0.6870305575191746,0.021381466953435537,0.3838398518944891
1731217554745912,0.06480722,0.0014681136,-9.573872,-0.08925677,0.055622887,-0.86586124,0.057926398,0.06743893,0.4393756,-0.15771850818306846,-0.36703182330744977,88.95886732353034,-0.711086677830353,0.06820991180632394,0.15669134843551322
1731217554753912,0.064351045,0.0014592817,-9.579918,-0.08877381,0.05618236,-0.862582,0.06037019,0.06993394,0.4099011,-0.1631789366828752,-0.36644329440495443,88.9601176257546,-0.6825535624758398,0.07356611281191722,0.15628777803293784
1731217554769912,0.06342589,0.0014981814,-9.59201,-0.08779877,0.05734105,-0.85615814,0.060940158,0.07241824,0.40149313,-0.1732930255057237,-0.36524686633269116,88.96075994265811,-0.6321305514280324,0.07477675451645412,0.040144806468964615
1731217554777912,0.062956885,0.0015395839,-9.598051,-0.0873016,0.057923306,-0.8527632,0.06214622,0.07278193,0.42437014,-0.1780287731061537,-0.3645308025267587,88.96017598386604,-0.5919684500537472,0.08950797574156197,-0.072994849009801
1731217554785912,0.06248388,0.0015954764,-9.604089,-0.0868195,0.058510195,-0.84932125,0.060262155,0.07336121,0.4302412,-0.18246647088353718,-0.36368984518462094,88.95943489161824,-0.5547122221729376,0.10511966776721458,-0.09263653097425123
1731217554793912,0.06200718,0.0016657929,-9.610122,-0.08631352,0.059117313,-0.8461452,0.06324705,0.07588975,0.39700416,-0.1865824235346719,-0.36253434607149243,88.9584819082215,-0.5144940813918364,0.14443738914106885,-0.11912292459295226
1731217554809912,0.061043564,0.00184942,-9.622178,-0.08533164,0.06033638,-0.8399488,0.061367635,0.07619173,0.38727742,-0.19287217096376771,-0.3591882874257466,88.95596143865912,-0.39310921431849033,0.20912866535911387,-0.1575293476485097
1731217554817912,0.060557004,0.0019623954,-9.628201,-0.08484128,0.06094509,-0.8367063,0.06129499,0.076088585,0.40531155,-0.195253395411537,-0.35702835799489085,88.95440413494336,-0.29765305597115765,0.2699911788569698,-0.19466296446976042
1731217554825912,0.06006752,0.0020893062,-9.634216,-0.084354036,0.061560843,-0.8333873,0.0609057,0.076969154,0.41487065,-0.19737788282184562,-0.35462259091014475,88.95270677144114,-0.2655609262885799,0.3007208855932621,-0.2121704377769711
1731217554833912,0.05958158,0.0022209643,-9.640225,-0.08386683,0.0621794,-0.83033836,0.060901042,0.07731979,0.38111952,-0.19903341610472025,-0.3518858208317489,88.95082849820768,-0.20694166035932882,0.3420962597994759,-0.23478415418237172
1731217554849912,0.058602024,0.0025254586,-9.652231,-0.082896106,0.06340469,-0.8244071,0.060670074,0.07658032,0.3707036,-0.20150898952828872,-0.34545267736937296,88.9476287832984,-0.15472333897302906,0.40207146639849917,-0.1999821818302047
1731217554857912,0.058108736,0.0026980883,-9.658225,-0.082408294,0.064014286,-0.8212608,0.06097648,0.07619988,0.39328632,-0.2024604592220062,-0.34192370059515925,88.94586306944313,-0.11893371171468421,0.4411220967767146,-0.22071423190962086
1731217554865912,0.05788983,0.003589759,-9.66409,-0.08186538,0.0651111,-0.81799567,0.067864545,0.13710186,0.40814278,-0.20312764503075728,-0.3380238874102362,88.9438311454206,-0.08339822609388697,0.4874766481153755,-0.2539905028152744
1731217554873912,0.057661947,0.004482174,-9.6699505,-0.08132515,0.06623273,-0.814988,0.06752834,0.14020409,0.37595627,-0.20363854684035868,-0.33453493467280027,88.94039191560658,-0.0638627262001744,0.4361190921794961,-0.4299037267537009
1731217554889912,0.05718046,0.006270506,-9.681657,-0.08028228,0.06842419,-0.80903566,0.06517954,0.13696589,0.37202236,-0.204154500338885,-0.3265417994604899,88.9330420643997,-0.032247093657894244,0.4995709507693973,-0.45936570042971475
1731217554897912,0.05692749,0.0071668467,-9.687502,-0.07975846,0.069518104,-0.80587184,0.065477565,0.13673957,0.3954768,-0.20429044776357813,-0.32191667348042374,88.92909053244142,-0.016993428086641803,0.5781407475082719,-0.49394149478480126
1731217554905912,0.056673966,0.008062949,-9.693339,-0.07922342,0.070584595,-0.8026465,0.06688014,0.13331138,0.4031658,-0.20433730831845942,-0.31666340270566445,88.92491370813717,-0.005857569360161325,0.6566588468449068,-0.5221030380316869
1731217554913912,0.05641295,0.008960907,-9.69917,-0.07870013,0.0716232,-0.79964393,0.06541051,0.12982543,0.37532297,-0.2042361202253487,-0.3105771060472865,88.92048395559165,0.012648511638840426,0.7607870822972445,-0.5537190681894405
1731217554929912,0.05586951,0.010763257,-9.710811,-0.0776674,0.07371409,-0.79376006,0.06454577,0.13068084,0.367742,-0.20349049182685625,-0.29560298739815655,88.91132102379107,0.04660177490577838,0.9358824155706225,-0.5726832375365595
1731217554937912,0.0555876,0.011668115,-9.716619,-0.077151746,0.07474006,-0.7906232,0.064456835,0.1282459,0.39210913,-0.2028497076674169,-0.28659956128124137,88.9066525301133,0.08009801992991833,1.1254282646143976,-0.5835617097211329
1731217554945912,0.05529922,0.012575528,-9.722418,-0.07665241,0.07573337,-0.7873977,0.062417235,0.12416392,0.40318814,-0.20198466226977851,-0.27647845943179794,88.90188863385526,0.1081306747047967,1.2651377311804275,-0.5954870322545832
1731217554953912,0.05500455,0.0134855285,-9.728208,-0.07615501,0.076709494,-0.7844094,0.06217509,0.12201536,0.37353483,-0.20081857106578227,-0.2655451519179814,88.8970938194157,0.14576140049953065,1.3666634392270691,-0.5993518049450629
1731217554969912,0.054397535,0.0153139075,-9.73976,-0.075141296,0.07864157,-0.77856284,0.06335694,0.120754816,0.36540997,-0.1980053473180684,-0.24068531507864088,88.88721418271254,0.1758264842321167,1.5537398024587814,-0.6174772939474976
1731217554977912,0.054084998,0.0162265,-9.745522,-0.07463591,0.07955789,-0.7754438,0.06317347,0.11453963,0.3898814,-0.19647363553536581,-0.22713917612738294,88.88219752006881,0.19146397283782274,1.6932673689072435,-0.6270828304666818
1731217554985912,0.053829815,0.017360037,-9.75103,-0.07406437,0.08056608,-0.7722155,0.071442686,0.12602377,0.40353832,-0.19489599463216792,-0.21304076121735144,88.8774437809826,0.19720511289973863,1.7623018637539396,-0.5942173857757206
1731217554993912,0.05356897,0.018491952,-9.756534,-0.07349906,0.08154451,-0.76920795,0.07066317,0.12230407,0.37594137,-0.19333173686850055,-0.1983100426403334,88.87123488844067,0.19553222045842172,1.8413398221272552,-0.7761115677410905
1731217555009912,0.05303122,0.020751279,-9.7675295,-0.072389595,0.0834143,-0.76339114,0.06934162,0.11686189,0.36355105,-0.1897946157508575,-0.16764660540249113,88.85862237776615,0.22107006985269173,1.9164648273651408,-0.7882819171578439
1731217555017912,0.052754704,0.02187884,-9.773021,-0.071848765,0.08429991,-0.7603965,0.067603774,0.11070072,0.37433204,-0.18777244725647205,-0.15180424017815355,88.85217082090814,0.2527710617981788,1.9802956530421978,-0.8064446072501487
1731217555025912,0.0524733,0.02300496,-9.778505,-0.07132227,0.08515434,-0.75730246,0.06581191,0.106804065,0.38675216,-0.18551762689315912,-0.13559518974900525,88.84584226151391,0.2818525454141143,2.026131303643536,-0.7910699242795257
1731217555033912,0.052187115,0.024129616,-9.783981,-0.070802286,0.085989915,-0.7539282,0.064997934,0.10444689,0.4217848,-0.18327423983041569,-0.11904868206755737,88.83937679028894,0.28042338284293167,2.068313460180987,-0.8081839031225516
1731217555049912,0.051611137,0.026364494,-9.7949,-0.06977892,0.08753169,-0.74628985,0.06396044,0.096361145,0.47739592,-0.17891548926338222,-0.08492715018744194,88.82710853944388,0.2724219104395918,2.1325957425072137,-0.7667656778150285
1731217555057912,0.05131658,0.027479503,-9.800336,-0.06928082,0.088265345,-0.7419839,0.062262636,0.091706395,0.53824484,-0.17662108635646512,-0.0674412900978075,88.82104933007538,0.2868003633646364,2.185732511204306,-0.7574011710639648
1731217555065912,0.05101786,0.028592842,-9.805752,-0.06878128,0.088978976,-0.73740023,0.06244238,0.08920393,0.5729571,-0.17434742338911943,-0.04987978391164995,88.81509241511769,0.2842078709182104,2.1951882732696943,-0.7446143697106582
1731217555073912,0.05071519,0.029704489,-9.811146,-0.06828795,0.08966519,-0.73237526,0.06166659,0.085776664,0.62812114,-0.17196195484715002,-0.032035423155826026,88.80922093296012,0.2981835677461785,2.23054509447799,-0.7339352696977857
1731217555089912,0.050098233,0.031922456,-9.821848,-0.06734723,0.0909397,-0.7211338,0.058794856,0.07965694,0.7025897,-0.16746447406508436,0.003992078820437157,88.79770296692718,0.2810925488791029,2.251718873516449,-0.7198728770582606
1731217555097912,0.049784247,0.033028476,-9.82715,-0.066879384,0.09152525,-0.7149564,0.058480535,0.07319357,0.7721781,-0.1651939026181823,0.02227055939123282,88.79202560584974,0.2838214308627604,2.2848100713494577,-0.7096701346795953
1731217555105912,0.049466845,0.034132425,-9.832417,-0.06640854,0.092094816,-0.70849323,0.058855858,0.071195886,0.8078962,-0.16303418041537543,0.04054824848569731,88.78638245839868,0.26996527535085646,2.284711136808061,-0.7053934313824697
1731217555113912,0.048905615,0.035172734,-9.836497,-0.0659149,0.09258914,-0.70124096,0.061704773,0.061790455,0.90653443,-0.16113758479344464,0.058915314512207405,88.78085881089227,0.23707445274134692,2.295883253313762,-0.6904559383015437
1731217555129912,0.047796413,0.037249397,-9.844607,-0.06494002,0.09349704,-0.6855291,0.060929913,0.056743618,0.9819902,-0.15733121326991711,0.09569683777873078,88.76291739660103,0.23789822022047125,2.2988452041577117,-1.1213383932025656
1731217555137912,0.04724821,0.038285673,-9.848627,-0.06449474,0.09390434,-0.67715424,0.05566049,0.050912607,1.0468587,-0.15529753638647964,0.11390999463325288,88.75411735427907,0.2542096104296849,2.2766446068152617,-1.1000052902452218
1731217555145912,0.04670393,0.03932029,-9.85262,-0.06405153,0.09428835,-0.6685788,0.05540065,0.048001293,1.0719299,-0.15326202535984704,0.1316518253358061,88.74543331343234,0.2544388783290754,2.2177288378191546,-1.0855051058413492
1731217555153912,0.046163592,0.04035323,-9.856581,-0.06360294,0.09466084,-0.65959936,0.056073997,0.04656147,1.12243,-0.15116158963920928,0.1489219171030953,88.7368992641699,0.262554465079719,2.1587614709111467,-1.0667561578040545
1731217555169912,0.04509434,0.04241365,-9.864394,-0.06274971,0.09532886,-0.6406539,0.053326596,0.041751187,1.184091,-0.14714679128120733,0.18221038419662158,88.71998484150436,0.25092489737512197,2.080529193345394,-1.057151416596881
1731217555177912,0.044565145,0.043440893,-9.868238,-0.062320653,0.09562785,-0.6307783,0.053632535,0.037373975,1.2344494,-0.14528406838845592,0.19829540833877776,88.71178527083929,0.23284036159392382,2.0106280177695206,-1.024946333134048
1731217555185912,0.044036966,0.04447236,-9.872039,-0.061908845,0.095914386,-0.6207609,0.051476058,0.035816804,1.2521744,-0.14343706545942975,0.2139055065209205,88.7036438039198,0.2308753661282717,1.951262272767841,-1.017683364934362
1731217555193912,0.043512236,0.045501545,-9.875792,-0.061508037,0.09617753,-0.610387,0.05010096,0.032893382,1.2967362,-0.14181778103966713,0.22910751350944542,88.69532796308053,0.20241055247032816,1.9002508735656143,-1.0394801049093914
1731217555209912,0.042472634,0.047552466,-9.88314,-0.06073452,0.0966138,-0.5887264,0.04834472,0.027266795,1.3537891,-0.13914186926488625,0.2585251648170332,88.67888012795396,0.16724448592380461,1.838603206724237,-1.0279896954107048
1731217555217912,0.04195763,0.048573997,-9.886729,-0.060345568,0.09680791,-0.5775123,0.048619226,0.024263745,1.4017596,-0.13814371695068167,0.27277319932665134,88.67086460708647,0.12476903927557341,1.7810043137022684,-1.0019401084367887
1731217555225912,0.04144584,0.0495928,-9.89026,-0.05995325,0.096974865,-0.5661631,0.049039718,0.020869074,1.41865,-0.13733547539811472,0.2867359266476152,88.6630231930521,0.1010301940708679,1.745340915120487,-0.9801767542957925
1731217555233912,0.040937148,0.050608717,-9.893727,-0.05957621,0.097118735,-0.5544467,0.04713004,0.017983839,1.4645531,-0.13669969091143222,0.3003338645085892,88.65519184315352,0.07947306083531276,1.6997422326217413,-0.9789187373226991
1731217555249912,0.03941338,0.05131652,-9.898303,-0.058891766,0.096791714,-0.5294797,0.04277774,-0.020438803,1.5604384,-0.13661096747683318,0.3271823268811091,88.63898240886401,0.005545214662440528,1.6780288982824965,-1.0130896430943226
1731217555257912,0.038672395,0.0516779,-9.900523,-0.05852831,0.09661969,-0.5166718,0.045431774,-0.021503305,1.6009881,-0.1370333787589389,0.34037479434266943,88.63068967703016,-0.052801410263215685,1.6490584326950388,-1.0365914792316087
1731217555265912,0.037940912,0.052050058,-9.902694,-0.05818611,0.09642498,-0.50381374,0.042775176,-0.024338251,1.607254,-0.13770040127449243,0.3531800861370882,88.623821454323,-0.08337781444419019,1.6006614743023462,-0.8585278383957025
1731217555273912,0.037218615,0.052432477,-9.904814,-0.057836484,0.0962286,-0.49071655,0.04370324,-0.024547799,1.6371496,-0.13864245220349772,0.36542778998237474,88.61710010553011,-0.11775636612566209,1.5309629806608172,-0.8401685991101329
1731217555289912,0.035800993,0.053226605,-9.90889,-0.05714316,0.09581697,-0.4644341,0.043332808,-0.025726853,1.6426536,-0.1414232952530206,0.3881223047108906,88.60448399887002,-0.1738026905951813,1.4184071705322403,-0.7885066662557477
1731217555297912,0.03510513,0.05363735,-9.910844,-0.056799203,0.09558761,-0.45167178,0.042994503,-0.028669832,1.5952884,-0.14312113022578615,0.39817746035240864,88.59854494230433,-0.21222937159569055,1.256894455189755,-0.7423820707114872
1731217555305912,0.034417614,0.054056697,-9.912745,-0.056459613,0.09536509,-0.4393205,0.042448748,-0.027814878,1.5439092,-0.14482158864551614,0.40724710839102946,88.59288608321965,-0.21255730246624838,1.1337060048276053,-0.7073573855837214
1731217555313912,0.033738226,0.05448432,-9.914597,-0.05612437,0.09513313,-0.42743203,0.04190532,-0.028994864,1.4860592,-0.1466837292366637,0.4155769522749835,88.58739142691142,-0.23276757389344602,1.0412304854942533,-0.68683203852854
1731217555329912,0.0324214,0.055374775,-9.918153,-0.055445712,0.09468883,-0.40521413,0.04241615,-0.027768778,1.3886187,-0.15105706602828764,0.4302439557986961,88.57721515584153,-0.27333354947649696,0.9166877202320379,-0.6360169418690909
1731217555337912,0.031774297,0.055831034,-9.919866,-0.055102084,0.09445509,-0.39489484,0.042953525,-0.02921745,1.2899115,-0.15348717446115503,0.43677193586998764,88.57241404819007,-0.30376355410842243,0.815997508911444,-0.6001384564308933
1731217555345912,0.031134477,0.056294158,-9.921539,-0.05476488,0.09421372,-0.38508683,0.04215026,-0.030172056,1.2260004,-0.15622331451030305,0.4427423373913882,88.56787940480633,-0.3420175061435037,0.7463001901750639,-0.5668304229683924
1731217555353912,0.030501707,0.056763873,-9.923177,-0.054444708,0.09398156,-0.37578762,0.04002172,-0.02902001,1.1624023,-0.1591215333250905,0.44825734825068797,88.563532958433,-0.36227735184842874,0.6893763574124767,-0.5433057966659287
1731217555369912,0.029456187,0.058768187,-9.924143,-0.053593937,0.094151534,-0.35806024,0.053173162,0.010623596,1.1079609,-0.165737640009149,0.45737726963647607,88.55522277410199,-0.4135066677536576,0.5699950866117574,-0.5193865206876289
1731217555377912,0.028941318,0.059764635,-9.9246235,-0.05316536,0.09421057,-0.34989375,0.053572,0.0073797996,1.0208114,-0.16941853722696243,0.46096334082964435,88.55145390077894,-0.46011215222667545,0.4482588991460353,-0.47110916538331404
1731217555385912,0.028431673,0.060757358,-9.925104,-0.052727025,0.09427695,-0.34220275,0.05479203,0.008297153,0.96137446,-0.173391900618614,0.46450949859878554,88.54787288639419,-0.4966704239564493,0.44326972114264906,-0.44762679809312544
1731217555393912,0.027926473,0.061740477,-9.925588,-0.052302,0.094326496,-0.33501244,0.053128224,0.0061932947,0.8987896,-0.17764405976193914,0.46793980787108663,88.5444284326612,-0.5315198929156414,0.4287886590376302,-0.4305567166217507
1731217555409912,0.026931088,0.063696116,-9.926578,-0.051451035,0.09437697,-0.32213175,0.05318527,0.0031543893,0.8050426,-0.18638371410631774,0.47528122926975014,88.53966447833858,-0.5462283965236621,0.45883883741646947,-0.29774714516483247
1731217555417912,0.026440833,0.06466868,-9.927087,-0.051021937,0.09438255,-0.31639203,0.05363719,0.00069756055,0.7174648,-0.19070761453262033,0.4793825800300095,88.53773692140894,-0.5404875532878239,0.5126688450324193,-0.24094461620494143
1731217555425912,0.025955526,0.06563778,-9.927608,-0.05058028,0.09436764,-0.31105754,0.055206936,-0.0018635764,0.666812,-0.1949640548162735,0.4838367144143664,88.5360755751357,-0.532055035456647,0.5567667980446113,-0.2076682841547144
1731217555433912,0.025475154,0.0666035,-9.928142,-0.05014361,0.09435964,-0.3062018,0.05458388,-0.0010002404,0.606969,-0.19899673691660372,0.48858909636682213,88.53458852043752,-0.5040852625412776,0.5940477440569715,-0.1858818372720368
1731217555449912,0.024529,0.06852511,-9.929259,-0.04925806,0.094288476,-0.29772034,0.05534687,-0.004447531,0.53009015,-0.20665092924492995,0.4995188726055066,88.53219112611951,-0.47838702052038934,0.6831110149177786,-0.14983714487540575
1731217555457912,0.024063144,0.06948099,-9.929849,-0.04881484,0.09422898,-0.2940283,0.055402514,-0.0074366103,0.46150383,-0.2100450636263845,0.5056106751956103,88.53138023318925,-0.4242667976818177,0.7614753237629712,-0.10136161628323759
1731217555465912,0.023606194,0.07043476,-9.930459,-0.048345543,0.09414909,-0.29068995,0.058662143,-0.009986571,0.4172958,-0.21330905219069626,0.5119903234275316,88.53079449487137,-0.4079985705389703,0.7974560289901554,-0.07321728973506483
1731217555473912,0.023154033,0.07138517,-9.931093,-0.047895044,0.094060846,-0.28776386,0.056312416,-0.011030584,0.36576015,-0.21639796384085833,0.518691330223223,88.53073479122465,-0.3861139562702572,0.837625849461422,-0.007462955840523149
1731217555489912,0.02229861,0.07250502,-9.931654,-0.04696815,0.09347337,-0.28268817,0.057930823,-0.036717393,0.3172308,-0.22202967850628705,0.5330044343871643,88.53107996649017,-0.3519821665892958,0.8945690102463332,0.021573454095282496
1731217555497912,0.021894526,0.07269047,-9.931603,-0.04648143,0.09296146,-0.2804764,0.06084004,-0.06398838,0.27647242,-0.22467627218167152,0.5411254591983814,88.53057931561672,-0.33082420942305996,1.01512810140214,-0.06258135918096723
1731217555505912,0.021494286,0.07288814,-9.931599,-0.046006262,0.09244079,-0.278526,0.059396025,-0.065083615,0.24379788,-0.22721133122413514,0.5493633071563373,88.53026976701403,-0.3168823803079514,1.0297309947444806,-0.0386935753352384
1731217555513912,0.021097803,0.0730976,-9.931642,-0.04553417,0.091925,-0.27696013,0.05901139,-0.0644736,0.19573419,-0.2295940460114799,0.5574642894031602,88.53013442590222,-0.29783934841809545,1.0126227808528663,-0.016917638977172286
1731217555529912,0.020315707,0.07354954,-9.931886,-0.044620585,0.09085036,-0.27482346,0.057099152,-0.06716512,0.13354234,-0.2339402586202657,0.5721991108511526,88.53038015398103,-0.2716382880491136,0.9209263404995276,0.015358004925084996
1731217555537912,0.019932797,0.07377781,-9.932083,-0.044156868,0.09027283,-0.27418998,0.057964582,-0.07219147,0.07918476,-0.2357764171848241,0.5786436659776036,88.53080228168564,-0.2295198205697971,0.8055693908063771,0.05276596307697142
1731217555545912,0.019553319,0.074015655,-9.932331,-0.04370291,0.08970611,-0.27377507,0.05674455,-0.07084012,0.051863488,-0.23744423015036706,0.5845704944599397,88.53373188465469,-0.20847662069287015,0.7408535602919986,0.3662003711298697
1731217555553912,0.019177299,0.07426264,-9.9326315,-0.04324325,0.08913119,-0.27373105,0.057457477,-0.071864575,0.0055022533,-0.2388322631297358,0.590179228269066,88.53682563566741,-0.1735041224210933,0.7010917261407983,0.386718876592473
1731217555561912,0.018804697,0.07451834,-9.932984,-0.04278963,0.08856298,-0.27398047,0.05670264,-0.071026385,-0.031176953,-0.2401032303835163,0.5951182528636284,88.54015881999433,-0.15887090672256204,0.6173780743202935,0.4166480408650535
1731217555577912,0.018069591,0.07505399,-9.933861,-0.04187372,0.08740625,-0.2752405,0.05724444,-0.07229578,-0.07875263,-0.24205599247760254,0.6025578024288692,88.54712634629666,-0.12204763088039042,0.4649718478275504,0.43547039389550124
1731217555585912,0.017707061,0.07533311,-9.934383,-0.041429188,0.08682872,-0.2760903,0.055566426,-0.07219054,-0.10622292,-0.24288037266091997,0.6051128085939458,88.55070255857419,-0.10304752291467792,0.31937577063457673,0.4470265346908907
1731217555593912,0.017347839,0.075619176,-9.934961,-0.040968258,0.08623923,-0.27724594,0.057616267,-0.07368624,-0.14445558,-0.24362515979857408,0.6070046633878112,88.55442601584318,-0.09309839220676276,0.23648184923318188,0.46543215862297654
1731217555609912,0.016267898,0.07635741,-9.9365635,-0.04014371,0.08510171,-0.28028974,0.051534265,-0.0710953,-0.19023752,-0.24478553188381574,0.6096323532458362,88.56173619644264,-0.07252325532760417,0.16423061612655515,0.4568862874664636
1731217555617912,0.015552155,0.07679671,-9.937581,-0.03977348,0.084536195,-0.28204557,0.046278812,-0.070689246,-0.21947919,-0.24489519615734487,0.610422031904791,88.56412401663655,-0.013708034191140049,0.09870983236936486,0.29847752423850277
1731217555625912,0.014849016,0.077237666,-9.938647,-0.039399963,0.08397216,-0.28387305,0.046689525,-0.07050391,-0.22843479,-0.24475953431955372,0.6106917863320183,88.56663167697508,0.016957729723893873,0.03371930340339645,0.313457542316721
1731217555633912,0.014158233,0.07768006,-9.939763,-0.039020635,0.08340928,-0.2859634,0.047415957,-0.07036049,-0.26129186,-0.24430741292334934,0.6107014451950444,88.5692893924009,0.05651517452554604,0.0012073578782699186,0.33221442822813285
1731217555649912,0.012812446,0.07856867,-9.942154,-0.038291056,0.08230624,-0.2905645,0.045598716,-0.06893975,-0.28757006,-0.2431501428259005,0.610078048336307,88.57484125705643,0.07232938109055245,-0.038962303671090597,0.34699154097015944
1731217555657912,0.012156788,0.07901465,-9.943425,-0.03793417,0.08174715,-0.2930199,0.044610813,-0.069886446,-0.30692294,-0.24270250170285268,0.609507801966374,88.57770425150409,0.055955140380977784,-0.07128079624161367,0.35787430595654257
1731217555665912,0.011512208,0.07946164,-9.944746,-0.037581168,0.08119548,-0.29550192,0.04412513,-0.06895885,-0.31025335,-0.24244516673791897,0.6086713233325054,88.58068691311706,0.032166870616714624,-0.10455982923358625,0.37283270162216153
1731217555673912,0.010874788,0.07992135,-9.946116,-0.037216194,0.080664545,-0.2981243,0.045621764,-0.06636698,-0.32779944,-0.24231327471474723,0.6075946007550032,88.58380631244151,0.016486502896465374,-0.13459032218776792,0.389924915555787
1731217555689912,0.009631728,0.080843054,-9.949008,-0.03650916,0.07961378,-0.3035977,0.044189624,-0.06567267,-0.34208593,-0.24289680857216547,0.6049542646604762,88.5866016097825,-0.036470866088638865,-0.16502100590793695,0.17470608381217384
1731217555697912,0.009025556,0.08130487,-9.950534,-0.036146525,0.07909083,-0.30640602,0.04532933,-0.0653686,-0.35104153,-0.24373524869525434,0.6034071941611826,88.5879411730787,-0.10480501538610958,-0.19338381241169986,0.167445412024652
1731217555705912,0.008429459,0.08176727,-9.952108,-0.035774298,0.078571975,-0.30921087,0.046528406,-0.064857304,-0.35060567,-0.2449818254948192,0.6017499278620795,88.58940048658289,-0.15582209994560903,-0.20715828738789446,0.1824141880236473
1731217555713912,0.0078431675,0.08223012,-9.953732,-0.035410568,0.07804701,-0.3120622,0.045466233,-0.06562099,-0.35641712,-0.24659153879405446,0.6003282097953958,88.59082190626971,-0.20121416240440707,-0.1777147583354523,0.17767746085235006
1731217555729912,0.006699237,0.083156765,-9.957123,-0.03465387,0.07699123,-0.31778714,0.047293723,-0.06598607,-0.35780853,-0.250067791127716,0.5977278466766668,88.59351460098475,-0.21726577085384485,-0.16252269492056434,0.16829341969023473
1731217555737912,0.0061880313,0.08330767,-9.959496,-0.03440859,0.076274805,-0.3207096,0.030659603,-0.08955318,-0.36530566,-0.2518997362054095,0.5966168133736383,88.59482326501747,-0.22899313471168956,-0.1388791628785682,0.16358300408930018
1731217555745912,0.0056881006,0.08346829,-9.961897,-0.034152135,0.075560115,-0.323524,0.032057054,-0.08933618,-0.35180148,-0.25346958712394396,0.5957731326147407,88.59689722359222,-0.1962313648168104,-0.10546009486218537,0.2592448218448182
1731217555753912,0.0051936824,0.08363455,-9.964328,-0.03387386,0.0748639,-0.32628867,0.034784433,-0.0870265,-0.34558398,-0.2554227605465894,0.5947950287517688,88.59869112878552,-0.24414667783068106,-0.12226298287150056,0.22423814916192156
1731217555769912,0.0042215167,0.08398338,-9.9692745,-0.033292193,0.07350249,-0.33152696,0.036354177,-0.08508842,-0.32739338,-0.25977595326032393,0.5926445242829452,88.60232998380276,-0.2720745446084063,-0.1344065293014698,0.22742843857743544
1731217555777912,0.0037436564,0.08416557,-9.971788,-0.032994546,0.07284227,-0.3339715,0.03720587,-0.08252728,-0.30556694,-0.26239718882275354,0.5913086707526222,88.60413063188828,-0.3276544453037015,-0.1669816912903938,0.22508101069082484
1731217555785912,0.0032711406,0.0843527,-9.974327,-0.032705244,0.07218343,-0.33623844,0.03616279,-0.082354985,-0.28336793,-0.2652897368238891,0.5899285790516411,88.60604419929285,-0.3615685001419477,-0.17251146262262226,0.23919592557195374
1731217555793912,0.0028039217,0.084544554,-9.97689,-0.032404236,0.07153592,-0.3383591,0.037625898,-0.08093844,-0.26508048,-0.2681753302865333,0.5883442649383565,88.60789630867907,-0.360699182830518,-0.19803926416058182,0.2315136732770804
1731217555809912,0.0018850547,0.084941685,-9.98208,-0.031812314,0.07025543,-0.34213766,0.036995158,-0.08003087,-0.23616104,-0.2739993621752145,0.5842667486844767,88.61144679872496,-0.3640019930425751,-0.25484476586748295,0.2219056278671865
1731217555817912,0.0014454523,0.08514572,-9.984708,-0.031494733,0.069632895,-0.3437751,0.03969762,-0.07781666,-0.20467861,-0.27694860581704017,0.5819795307147485,88.61329191044206,-0.3686554552282103,-0.2859022462160248,0.23063896463787392
1731217555825912,0.001010783,0.085354,-9.987353,-0.03117248,0.069054574,-0.34522554,0.04028156,-0.07229019,-0.18130614,-0.2799674855787883,0.5793952919709472,88.61752874491924,-0.3773599702185224,-0.3230298429751757,0.5296043096486939
1731217555833912,0.0005811362,0.0855664,-9.990014,-0.030828308,0.06846314,-0.34650108,0.04302151,-0.07392932,-0.15944241,-0.283076279203646,0.5767082761959039,88.62186491799238,-0.3885992031072075,-0.3358769718803986,0.542021634141861
1731217555849912,-0.0002633133,0.08600286,-9.995381,-0.030161835,0.06732164,-0.3485519,0.041654564,-0.0713435,-0.12817606,-0.2899660617301993,0.570650448520694,88.63045131774285,-0.430611407909582,-0.37861422970062175,0.536649984404795
1731217555857912,-0.0006781826,0.08622665,-9.998085,-0.029809002,0.066785984,-0.34933293,0.044104174,-0.06695744,-0.097628675,-0.2936288142460824,0.5675120352369245,88.63479739199828,-0.45784406448538484,-0.39230166047118514,0.5432592819267745
1731217555865912,-0.0016942611,0.08692794,-10.000239,-0.029585224,0.0665171,-0.34982893,0.027972272,-0.0336105,-0.062000003,-0.29740940522983,0.5644384602379722,88.6392700345838,-0.472573872968453,-0.3841968748690514,0.5590803231907833
1731217555873912,-0.002690041,0.08762309,-10.0024185,-0.029355876,0.0662254,-0.35016543,0.028668435,-0.03646221,-0.04206225,-0.30127892989461275,0.5609457172601312,88.64535177774106,-0.4836905830978403,-0.43659287223011883,0.7602178946576885
1731217555889912,-0.0046296995,0.088995345,-10.006848,-0.028870583,0.065718025,-0.35045326,0.030330846,-0.031711068,-0.017989427,-0.3094357594001435,0.5538993499666078,88.65768579599971,-0.509801844095672,-0.44039795584521196,0.7708761411658025
1731217555897912,-0.0055706934,0.0896732,-10.009092,-0.028603172,0.06545731,-0.3503842,0.03342633,-0.03258977,0.008631498,-0.31365264400968085,0.5507726322291442,88.66397229582596,-0.5271105761921696,-0.3908397171829501,0.7858124782812858
1731217555905912,-0.0064928774,0.09034575,-10.0113535,-0.028323274,0.06521369,-0.35017353,0.034987226,-0.030452384,0.026334075,-0.31783134336787316,0.5479599591047679,88.67030984529943,-0.5223374197740415,-0.3515841405470318,0.7921936841841134
1731217555913912,-0.0073966924,0.09101327,-10.013631,-0.028049288,0.064973,-0.3498985,0.03424822,-0.030086374,0.034380704,-0.3220091695754054,0.5455065288338887,88.67655178805613,-0.5222282759415228,-0.3066787838599008,0.7802428445868355
1731217555929912,-0.009150527,0.09233388,-10.018229,-0.027440067,0.06449399,-0.34907767,0.038076308,-0.029937828,0.05130097,-0.3305028321190179,0.5417085059079333,88.68891227050348,-0.5308539089757811,-0.23737643287221247,0.7725301529595671
1731217555937912,-0.010001188,0.092987254,-10.020552,-0.027130045,0.06425854,-0.34854123,0.038752798,-0.029431654,0.067055225,-0.3348080777670161,0.5406843053688972,88.69511260290508,-0.5381557059997782,-0.12802506737950792,0.7750415502001081
1731217555945912,-0.010834835,0.09363633,-10.022884,-0.026818287,0.06404051,-0.3479135,0.038969796,-0.02725329,0.07846578,-0.3392683731010559,0.5402928327341836,88.70130300133353,-0.5575369167549745,-0.04893407933920214,0.773799803556453
1731217555953912,-0.0116663845,0.09428404,-10.0252285,-0.02650954,0.063814335,-0.3472536,0.038593307,-0.028272158,0.082489096,-0.3438350600232345,0.5404772560442312,88.70756114442693,-0.5708358652723293,0.023052913755956136,0.7822678866745348
1731217555969912,-0.0132803125,0.09556728,-10.029943,-0.025869908,0.063368775,-0.34576598,0.039977018,-0.027847474,0.09297579,-0.35283962873150004,0.5426071429012911,88.7171770882577,-0.562785544266595,0.13311792856623544,0.6009964894226999
1731217555977912,-0.014063279,0.096203044,-10.032312,-0.02553504,0.06312984,-0.34492326,0.041858524,-0.029866582,0.10534003,-0.35751290878511793,0.5444130087738169,88.72205490520446,-0.5841600067022374,0.22573323406573334,0.6097271183454649
1731217555985912,-0.014644524,0.09659472,-10.036068,-0.025292445,0.062723905,-0.344355,0.030324327,-0.050742175,0.071033835,-0.36214277662634425,0.5467782290912286,88.72687103801431,-0.5787334801532902,0.2956525396764621,0.6020166012308316
1731217555993912,-0.015217435,0.09698691,-10.039795,-0.02503672,0.062332004,-0.34374276,0.03196555,-0.048987564,0.07652864,-0.3666120181070086,0.549869458133398,88.73060761514466,-0.5586551850830437,0.3864036302711764,0.4670721412953745
1731217556009912,-0.016338691,0.09777247,-10.047166,-0.024506424,0.061512563,-0.3423309,0.033143558,-0.051215056,0.088240944,-0.37606069388003166,0.5569620866677223,88.73798836520903,-0.590542235813941,0.4432892833952638,0.4612968790229254
1731217556017912,-0.01688716,0.09816563,-10.05081,-0.024217766,0.06111077,-0.34148285,0.03608223,-0.05022436,0.10600685,-0.3810779108202745,0.560775701437267,88.74157775808222,-0.6271521175303506,0.47670184619308426,0.4486741091485286
1731217556025912,-0.017428314,0.09856143,-10.054424,-0.023909511,0.06070711,-0.34053072,0.03853184,-0.05045719,0.11901557,-0.3862894530474967,0.5647047438210735,88.74509196362182,-0.6514427784027756,0.49113029797582064,0.4392756924493675
1731217556033912,-0.017961308,0.0989572,-10.05801,-0.023595538,0.060296938,-0.33946747,0.03924663,-0.051271632,0.13290718,-0.3917508939269439,0.5686035851303648,88.74754390809996,-0.6826801099309008,0.48735516366141624,0.3064930597674
1731217556049912,-0.019002961,0.09974831,-10.065097,-0.022919727,0.059492026,-0.33705726,0.042238154,-0.050307017,0.1506377,-0.4030389789586951,0.5758966699291517,88.75210279750661,-0.7055053144844523,0.45581779992417937,0.2849305879159257
1731217556057912,-0.01951163,0.100143366,-10.068597,-0.022567531,0.059067167,-0.33569843,0.044024546,-0.05310727,0.1698546,-0.40878811954103117,0.5792791728191405,88.75418257474486,-0.7186425727920052,0.422812861248604,0.25997215478040897
1731217556065912,-0.020012222,0.10053792,-10.072067,-0.02219617,0.05866472,-0.33421743,0.046420142,-0.05030585,0.18512456,-0.41442040304239663,0.5823600666000815,88.75617699238533,-0.7040354376706857,0.38511172261762433,0.24930220505955647
1731217556073912,-0.02050465,0.10093199,-10.075507,-0.021810539,0.058269266,-0.33265784,0.048203856,-0.049431805,0.19494815,-0.41992225037994096,0.5851103209700248,88.75797990545033,-0.6877309171930417,0.343781796242908,0.22536413312502995
1731217556089912,-0.021465199,0.10171845,-10.082297,-0.021018036,0.05746846,-0.32925764,0.049531456,-0.050050437,0.2125129,-0.43037307758534826,0.5901639128918205,88.76117956306057,-0.6531767003379542,0.3158494951122308,0.1999786006393382
1731217556097912,-0.021934446,0.10212147,-10.085648,-0.020623969,0.057089835,-0.32741457,0.049258348,-0.047327947,0.23038311,-0.43511482430350584,0.5924963332690403,88.76253177057481,-0.5927183397696995,0.2915525471524796,0.16902593928118137
1731217556105912,-0.022395827,0.10252363,-10.088967,-0.020234477,0.056699,-0.32549363,0.048686516,-0.048854385,0.2401173,-0.4395897120327353,0.5944890411421017,88.76367562211003,-0.5593609661536825,0.24908848413267054,0.14298144190322423
1731217556113912,-0.022554483,0.103056535,-10.092565,-0.019765144,0.056280967,-0.3236019,0.05866657,-0.052254178,0.23646651,-0.44378623953947044,0.5964336690005682,88.76475140577507,-0.5245659383418899,0.24307848230830403,0.13447295812962035
1731217556129912,-0.022870023,0.10410629,-10.099644,-0.018744243,0.05543361,-0.3196253,0.0638063,-0.05295989,0.24853832,-0.4515353551126185,0.6000103217548868,88.76321675448487,-0.4843197233217537,0.2235407971449198,-0.09591570563712899
1731217556137912,-0.023026507,0.10462323,-10.103127,-0.018245863,0.055029966,-0.3175298,0.06229756,-0.050455328,0.26193634,-0.4550673975908743,0.6014375895733023,88.76218135402664,-0.441505309781973,0.1784084773019353,-0.12942505728019518
1731217556145912,-0.023181885,0.105135076,-10.106571,-0.017725505,0.05462168,-0.31536946,0.06504473,-0.051035542,0.27004257,-0.4583110728957593,0.6026251475497589,88.76119382965081,-0.40545941311062805,0.1484447470570794,-0.12344054697919338
1731217556153912,-0.023335934,0.105641946,-10.109979,-0.01719976,0.054220587,-0.3131723,0.06571808,-0.050136816,0.2746433,-0.4612717157491577,0.6036253987935943,88.76010052971401,-0.3700803566748051,0.12503140547942426,-0.13666249209980796
1731217556169912,-0.023647437,0.106640995,-10.116681,-0.016115334,0.05345634,-0.3086172,0.06777665,-0.047765438,0.28469414,-0.46631084628815633,0.6055142113300995,88.75692313681829,-0.31494565868741425,0.11805078353157782,-0.19858705598241705
1731217556177912,-0.02380028,0.10713353,-10.119976,-0.015571324,0.05305417,-0.3062544,0.06800121,-0.050271392,0.2953522,-0.46842359433446357,0.606593601685516,88.75505096354259,-0.264093505788401,0.1349237944270489,-0.23402165946257616
1731217556185912,-0.023950875,0.10762142,-10.123234,-0.0150075415,0.05266683,-0.30383706,0.07047283,-0.04841713,0.30216575,-0.4701052819704488,0.6076784353693525,88.75313417864407,-0.21021095449815783,0.13560421047956853,-0.23959811231397185
1731217556193912,-0.024099115,0.10810481,-10.126454,-0.014453657,0.052275833,-0.30138597,0.06923556,-0.048874874,0.3063865,-0.47160498034135506,0.6088767742130083,88.75109113147354,-0.18746229636327855,0.14979235545697475,-0.2553808963157515
1731217556209912,-0.024387978,0.109058276,-10.132784,-0.013335485,0.051485185,-0.29637223,0.069885746,-0.049415506,0.31335837,-0.47353755869750686,0.6112043464629947,88.74689562250687,-0.12078614725948872,0.14547326562414734,-0.26221931041766355
1731217556217912,-0.024528382,0.10952831,-10.135892,-0.012768907,0.051075857,-0.29380628,0.070822306,-0.051165927,0.32074374,-0.4737710773363328,0.6124275003059129,88.74472950247063,-0.029189829853237096,0.15289423036477276,-0.27076500452939534
1731217556225912,-0.024665872,0.10999399,-10.138965,-0.012194395,0.050683647,-0.29120478,0.07181393,-0.049026214,0.325188,-0.4736603823632602,0.6136460117674751,88.74256679584165,0.013836871634070212,0.1523139326952817,-0.2703383286215727
1731217556233912,-0.0247791,0.11045144,-10.142001,-0.01158273,0.05028358,-0.28862587,0.07645809,-0.050008293,0.32236424,-0.47315974530442917,0.6150814478687286,88.74029808955443,0.0625796323538787,0.17942951265668755,-0.28358828590345414
1731217556249912,-0.024206618,0.1098402,-10.14567,-0.009930208,0.048501085,-0.28279635,0.10328262,-0.11140597,0.36434454,-0.4713166288782608,0.6191145883319417,88.73122757181216,0.11519477663552417,0.25207127895081777,-0.5669073588924917
1731217556257912,-0.023927154,0.10954913,-10.147491,-0.009106682,0.047644906,-0.27985063,0.10294083,-0.107022464,0.3682151,-0.4699229209557817,0.621550867499717,88.72332197939781,0.17421349030988814,0.3045348959719116,-0.9881990517920815
1731217556265912,-0.023651766,0.10926725,-10.149305,-0.008288493,0.04677788,-0.27690855,0.10227353,-0.108378,0.36776063,-0.46821952286502405,0.6237577358850919,88.71538906353362,0.21292476134470492,0.27585854817186567,-0.9916144830244883
1731217556273912,-0.023380226,0.10899404,-10.151112,-0.0074800593,0.04591797,-0.27407524,0.10105426,-0.10748906,0.35416332,-0.46612166722660053,0.6256008225642438,88.70745614017123,0.26223195480293615,0.23038583489398767,-0.9916154202989669
1731217556289912,-0.022847444,0.108472496,-10.154698,-0.0058861836,0.044250958,-0.26860094,0.09961723,-0.10418822,0.34214368,-0.460295350594534,0.6272777875974768,88.69199084974474,0.3641447895041575,0.10481031457705628,-0.966580651654922
1731217556297912,-0.02258574,0.108223446,-10.15648,-0.0050897454,0.04341542,-0.2659541,0.09955477,-0.10444223,0.33085418,-0.45659853400907946,0.6266404074115117,88.68433875460929,0.462102073181821,-0.07967252324562095,-0.9565118919320704
1731217556305912,-0.022337418,0.1079838,-10.158253,-0.0043243333,0.042602852,-0.26339358,0.09567651,-0.101570964,0.32006574,-0.4523540593023749,0.6250668087042629,88.67672096331711,0.530559338338071,-0.19669983840610494,-0.9522239115219121
1731217556313912,-0.022091614,0.10775125,-10.160017,-0.0035651086,0.04181059,-0.26093754,0.094903074,-0.09903265,0.3070049,-0.44738239136998187,0.6228030537401675,88.66797595645528,0.6214584915491258,-0.2829693705119182,-1.093125857728652
1731217556329912,-0.021606576,0.10730648,-10.163526,-0.0020727748,0.04027982,-0.25625286,0.09327086,-0.09567314,0.29279292,-0.43561973755661887,0.61607780585791,88.65057204606586,0.7351658633351893,-0.42032799264109505,-1.0877443993390596
1731217556337912,-0.021367079,0.10709378,-10.16527,-0.0013558354,0.03953006,-0.25399083,0.08961742,-0.093719915,0.28275326,-0.42888937724207526,0.6118420449763845,88.64202915821107,0.8412950393179524,-0.5294701101906932,-1.0678609818485614
1731217556345912,-0.021129435,0.10688727,-10.1670065,-0.0006565845,0.03882715,-0.25176316,0.08740635,-0.08786376,0.278458,-0.42184952866390596,0.6071498664190278,88.63352709378901,0.8799810722711587,-0.5865223196695886,-1.0627580527579468
1731217556353912,-0.020893598,0.10668705,-10.168727,5.5475684e-06,0.038183864,-0.24512781,0.0827665,-0.08041085,0.8294191,-0.4137457648865743,0.6012001740638568,88.62385393743148,1.0129704721664645,-0.7437115443963628,-1.2091445446919102
1731217556369912,-0.02094063,0.104313836,-10.172489,0.001354607,0.03573708,-0.20382126,0.08431622,-0.15292409,2.5816596,-0.27205048284799677,0.4647705484749172,88.57894386449675,8.855955127411093,-8.52685159930873,-2.806879558420116
1731217556377912,-0.020937748,0.10316054,-10.17412,0.002106619,0.03452515,-0.18246982,0.094001494,-0.15149125,2.66893,-0.06447743709327147,0.26303356325463034,88.54175960030216,25.94663071934066,-25.217123152535855,-4.648033024323609
1731217556385912,-0.020929942,0.10203232,-10.175576,0.0026608135,0.03357399,-0.16038196,0.0692743,-0.118894964,2.760982,0.2569182528078952,-0.04157785974687469,88.49766408864359,40.174461237645836,-38.07642787518813,-5.511938957321672
1731217556393912,-0.020919116,0.10093082,-10.176852,0.0029169237,0.033001907,-0.13727361,0.032013774,-0.0715102,2.8885434,0.6982481291811785,-0.4414492053488044,88.4416999192214,55.166234546660405,-49.98391820024121,-6.995521177773182
1731217556409912,-0.020900918,0.098818615,-10.178825,0.00212013,0.033261426,-0.08653516,-0.049799606,0.016219914,3.1711528,1.9385147528941549,-1.4891871081966077,88.28494108801024,77.51666398206102,-65.4836189279877,-9.79742695069801
1731217556417912,-0.020901175,0.09781415,-10.179483,0.0009452554,0.03414595,-0.055944934,-0.14685932,0.11056568,3.8237784,2.7222061125457246,-2.111453710742439,88.17999591163091,97.96141995644619,-77.78332531822892,-13.118147047414844
1731217556425912,-0.02091319,0.09684823,-10.179878,-0.000697937,0.03544863,-0.020543821,-0.20539904,0.16283476,4.425139,3.598504653498594,-2.777472921624863,88.05511638424372,109.53731761910869,-83.25240136030298,-15.609940923399474
1731217556433912,-0.020940403,0.09592314,-10.17997,-0.002744335,0.037109796,0.01951933,-0.2557997,0.2076458,5.0078936,4.554016894624195,-3.4725626094934174,87.90932830572275,119.43903014070011,-86.8862109835693,-18.223509815120497
1731217556449912,-0.021063909,0.094198726,-10.179108,-0.00772626,0.041165747,0.112355724,-0.31137028,0.25349692,5.802274,6.653546892874048,-4.908619514214354,87.55307186050393,131.22062489061582,-89.75355654505852,-22.26602782617644
1731217556457912,-0.021157986,0.093402795,-10.178089,-0.0105404,0.04341002,0.16424504,-0.35176745,0.28053436,6.486164,7.777394039797153,-5.6357762921453505,87.34222506382196,140.4808933653882,-90.8945972413746,-26.35584958524701
1731217556465912,-0.021275518,0.09265143,-10.176644,-0.013486109,0.04575039,0.21914086,-0.36821362,0.2925461,6.861977,8.940335214589526,-6.361806826758757,87.1100355584062,145.3676468490466,-90.75381682667579,-29.023688176970506
1731217556473912,-0.021417547,0.09194475,-10.174751,-0.01655958,0.048191942,0.27630204,-0.38418394,0.30519393,7.1451473,10.138837188067349,-7.081320267582431,86.85727173572478,149.81274668472787,-89.93918010295927,-31.5954778351769
1731217556489912,-0.020089423,0.08985993,-10.168541,-0.022159941,0.05269401,0.39555025,-0.35002255,0.2813793,7.453013,12.641611568331362,-8.47861458300613,86.29366804419581,156.42339876650078,-87.33089471398125,-35.22523072056
1731217556497912,-0.018654872,0.088494435,-10.164227,-0.024743855,0.054831963,0.4569561,-0.32298917,0.26724392,7.6757293,13.949820312957135,-9.141426164851685,85.97361392990007,163.52609307822155,-82.85144773069436,-40.00676428696928
1731217556505912,-0.0172821,0.08718678,-10.159445,-0.027563138,0.057128172,0.5191533,-0.35241035,0.28702617,7.7746506,15.299611466522697,-9.77616909002492,85.63817156892125,168.7238941956952,-79.34286564665425,-41.93029512235232
1731217556513912,-0.015990093,0.0859417,-10.154187,-0.030630805,0.059580743,0.58197665,-0.38345832,0.30657136,7.852919,16.694440928689573,-10.37779754428177,85.28934981624165,174.3536827708598,-75.20355678210605,-43.60271908494834
1731217556529912,-0.013596375,0.08362643,-10.142229,-0.037490316,0.06492147,0.7092642,-0.42871943,0.3337953,7.9554725,19.62916501161585,-11.465343578283711,84.55315000926491,183.42025518289225,-67.97162712512149,-46.012487936046654
1731217556537912,-0.012496311,0.08255678,-10.135519,-0.041286565,0.06779545,0.7736783,-0.47453117,0.35924742,8.05176,21.169861226639703,-11.947442780940337,84.17363359082695,192.5870268779815,-60.262400332078016,-47.43955230474449
1731217556545912,-0.011462021,0.0815459,-10.128314,-0.04532773,0.070771016,0.83853346,-0.5051456,0.371946,8.1068945,22.760059158971508,-12.386328519486831,83.78947691285397,198.77474154147586,-54.86071731831194,-48.01958474662343
1731217556553912,-0.010494446,0.080593735,-10.120611,-0.04960723,0.073832944,0.903836,-0.5349372,0.38274097,8.162819,24.400096825689307,-12.781472693186162,83.40263120862879,205.00470833972483,-49.39302171241625,-48.35571302814757
1731217556561912,-0.009594495,0.07970011,-10.112404,-0.0541318,0.07697878,0.96957374,-0.5655712,0.3932295,8.217216,26.090389399759538,-13.132635911329054,83.0151024772403,211.2865717587786,-43.89540226786157,-48.44109142356029
1731217556577912,-0.008001163,0.07808727,-10.094465,-0.06387427,0.083413,1.1023543,-0.60890424,0.40213856,8.298784,29.62273225950057,-13.702503702687,82.24716505378557,220.7714287338146,-35.616736959871666,-47.996088965921146
1731217556585912,-0.0073035276,0.077366464,-10.084725,-0.06911332,0.08668251,1.1693674,-0.6548818,0.40868947,8.376642,31.463710395300375,-13.921348014038562,81.87175213682039,230.12226697497573,-27.355538918945054,-46.92661462064707
1731217556593912,-0.006677566,0.07670245,-10.074468,-0.07459,0.08998984,1.2367817,-0.68458444,0.41341594,8.426785,33.35358182839409,-14.093526670292066,81.4993749660536,236.2339291367145,-21.522332031688077,-46.54714634585057
1731217556609912,-0.003942455,0.07500996,-10.051148,-0.08505335,0.096255116,1.3731381,-0.65395933,0.3915797,8.522272,37.26911299245122,-14.311128093396253,80.79067893149094,244.72069775357068,-13.600088944011702,-44.29350216016535
1731217556617912,-0.0018654054,0.07398834,-10.038109,-0.090045884,0.09916781,1.4421005,-0.6240671,0.36408657,8.620306,39.28999419758367,-14.355798988539608,80.4511243263344,252.61015064155538,-5.583861892919294,-42.44432564456757
1731217556625912,0.00010685343,0.073029175,-10.024566,-0.09527789,0.102105655,1.5114442,-0.65400076,0.3672307,8.66796,41.351668828380554,-14.363975767282078,80.12752005033104,257.70932884961087,-1.0220973428087075,-40.45053450041893
1731217556633912,0.0019743596,0.072131604,-10.010514,-0.100725375,0.10502697,1.5811812,-0.68093556,0.3651641,8.717119,43.45307865458212,-14.337940313359457,79.82113962976871,262.67622827519574,3.254431740327494,-38.29755257029328
1731217556649912,0.0053945836,0.070517,-9.980866,-0.11235323,0.110799424,1.7218646,-0.7267408,0.3607785,8.792713,47.76948715114705,-14.19149541038651,79.26509648548695,269.7755310353079,9.152806435809245,-34.752696517609174
1731217556657912,0.0069489307,0.06980043,-9.965269,-0.11848124,0.1136763,1.7927809,-0.7660016,0.3596097,8.864536,49.9810206703281,-14.075306684639552,79.01801063252626,276.4416898976322,14.523590718369654,-30.885731620088347
1731217556665912,0.008397536,0.06914179,-9.949146,-0.12483502,0.116528824,1.8640925,-0.79422253,0.3565652,8.913949,52.22582918962232,-13.930381790727516,78.78845149270008,280.60106491177646,18.115611739004624,-28.694892478272006
1731217556673912,0.009739989,0.06854014,-9.932492,-0.1314262,0.11935578,1.9357862,-0.82389724,0.35336983,8.961721,54.50207009352871,-13.762460313898343,78.58093553237502,284.530112988299,20.990184603646455,-25.93949504063099
1731217556689912,0.012104695,0.067504555,-9.897577,-0.14526623,0.124946706,2.0802515,-0.8650021,0.34943268,9.029075,59.14411299018682,-13.367578923497357,78.23249628849995,290.1276810411321,24.680086900061635,-21.77745274219219
1731217556697912,0.013126185,0.06706906,-9.879308,-0.15249234,0.12772654,2.1530616,-0.9032636,0.34747922,9.101272,61.50883583303216,-13.144790812875934,78.09168611927089,295.5903553556671,27.848513827677827,-17.60127115363233
1731217556705912,0.014040031,0.06668738,-9.860491,-0.15993008,0.13046037,2.2262387,-0.92971694,0.3417283,9.147137,63.90198725785345,-12.9074681488191,77.97388868626453,299.1439281026612,29.665333007104266,-14.724679125794948
1731217556721912,0.01552074,0.066079855,-9.821211,-0.1755057,0.1358021,2.3737066,-0.97347605,0.33385864,9.216741,68.7703102313626,-12.395641561430793,77.81073103556288,304.2701858443225,31.9891617117692,-10.197353168852931
1731217556729912,0.016086588,0.06585213,-9.800738,-0.18363921,0.13840793,2.4480023,-1.0166894,0.32572818,9.286969,71.24272418652417,-12.124602224522816,77.76576230208931,309.051744395195,33.87991711349728,-5.621091684195651
1731217556737912,0.01696795,0.06581547,-9.779418,-0.19132677,0.1411137,2.5228095,-0.9609442,0.33822095,9.350896,73.73862312786044,-11.846398525778277,77.74494946072217,311.98736766703274,34.775462343067375,-2.601605170893189
1731217556745912,0.017736936,0.06582627,-9.757537,-0.19924325,0.14377059,2.5979981,-0.98956,0.33211148,9.39858,76.25551371301952,-11.559285698986642,77.74283550548282,314.61132314488754,35.889103348954364,-0.2642444049193139
1731217556753912,0.018393109,0.0658837,-9.735092,-0.20736484,0.14638612,2.6735826,-1.0151993,0.32694077,9.448051,78.79455255903797,-11.269090796914194,77.76223408043057,317.3798557523039,36.27436275905595,2.4248218684684644
1731217556769912,0.019365653,0.066135235,-9.688493,-0.22415018,0.15144002,2.825968,-1.0490836,0.3158692,9.524092,83.94104189291335,-10.685856995528587,77.86101220787405,321.6555833672118,36.452112586600435,6.173632965217918
1731217556777912,0.01968094,0.06632776,-9.664339,-0.23284975,0.15389216,2.9027867,-1.0874457,0.3065169,9.602338,86.55039052362018,-10.395588014851493,77.9395939330035,326.16857883835314,36.28362258463678,9.822715641180064
1731217556785912,0.019881135,0.06656378,-9.639604,-0.24176207,0.15627298,2.980061,-1.1140406,0.29760227,9.65929,89.18471749626408,-10.10778265903009,78.03823441304813,329.29087158048856,35.9756694776754,12.330060005579995
1731217556793912,0.019964915,0.06685025,-9.614283,-0.2508681,0.15862456,3.057782,-1.138255,0.29394776,9.71511,91.84428840647894,-9.823655633467549,78.15765437302744,332.44636377685725,35.51587819531748,14.927494997413921
1731217556809912,0.019783534,0.067548744,-9.561863,-0.2695819,0.16316502,3.214671,-1.1696125,0.28377864,9.80556,97.23135776727632,-9.234513872806934,78.4256420353174,336.69183504983584,36.821360041288436,16.74922889312141
1731217556817912,0.019517558,0.06795922,-9.534755,-0.2791865,0.16533995,3.2938826,-1.2005717,0.27186608,9.9014635,99.96161529373963,-8.950849836663693,78.59079568199276,341.2821908079131,35.45800451790519,20.644205834421804
1731217556825912,0.019134011,0.068409465,-9.507043,-0.28895777,0.1674504,3.3736145,-1.2214109,0.26380643,9.966493,102.71632342070232,-8.676316208816223,78.7755521665266,344.33851587033774,34.31670348093382,23.094560566729125
1731217556841912,0.018013364,0.06942565,-9.449792,-0.30882233,0.17142162,3.5347295,-1.241535,0.24820118,10.069683,108.30204411237888,-8.159296581774248,79.20116489066346,349.10754322978477,32.313726690123474,26.600795258554534
1731217556849912,0.01727622,0.06998963,-9.420243,-0.3189025,0.17326324,3.616159,-1.2600198,0.23020244,10.178684,111.13548663178503,-7.919605311184368,79.4418229913775,354.18031492576785,29.961408823734853,30.082262589254572
1731217556857912,0.01642127,0.07058956,-9.390068,-0.32905462,0.17503461,3.6982243,-1.2690164,0.22142193,10.258167,113.99784436946078,-7.694713012400203,79.7018982371472,357.7947172094702,28.111537348020697,32.5094057212115
1731217556865912,0.01441553,0.07224208,-9.360168,-0.3398206,0.17728963,3.780626,-1.3457462,0.28187782,10.300219,116.89025484667157,-7.486882885324034,79.9823153517551,361.55130965134737,25.978765884521074,35.05213932598835
1731217556873912,0.012313333,0.073908575,-9.329611,-0.35058287,0.17941067,3.8636596,-1.3452842,0.2651289,10.379194,119.81482289537429,-7.299287696949169,80.28293507475142,365.57100608784157,23.44939854685807,37.57746537454037
1731217556889912,0.007820751,0.07728087,-9.266496,-0.3720389,0.18324865,4.0318565,-1.341002,0.23987423,10.512307,125.76318693372589,-6.991139149480612,80.9458587747974,371.7727523969745,19.259284216784817,41.432731252873666
1731217556897912,0.0054300926,0.0789851,-9.233927,-0.38274744,0.1849277,4.1171365,-1.3385675,0.20988098,10.659992,128.7938698557826,-6.876903669896896,81.30965478232295,378.83536525708865,14.279434947964605,45.4745009406936
1731217556905912,0.002943052,0.080700204,-9.200674,-0.39350474,0.18647827,4.203325,-1.3446621,0.19382125,10.773539,131.8688796622216,-6.795582421255065,81.69715166636296,384.376225804875,10.165156080228844,48.4371105050008
1731217556913912,0.00035890145,0.08242535,-9.166731,-0.40437964,0.18787213,4.290578,-1.3593621,0.17423181,10.906636,134.99564236801868,-6.7544627042476515,82.11184275117401,390.84533822463396,5.139964625926623,51.836385601380236
1731217556929912,-0.005113545,0.08590301,-9.096734,-0.4263869,0.19013609,4.468702,-1.3754535,0.1414977,11.132747,141.4367944075472,-6.8339798182398335,83.03714224340222,402.5720024705344,-4.969819624511361,57.83121826426295
1731217556937912,-0.008003446,0.08765275,-9.060658,-0.43765262,0.19091201,4.560171,-1.4082155,0.09698979,11.4336605,144.77023269673944,-6.981234408218037,83.55354084364026,416.67978614902717,-18.40682374727542,64.5498250297572
1731217556945912,-0.010993792,0.08940677,-9.023849,-0.4487634,0.19137102,4.6531706,-1.3888477,0.057376917,11.624931,148.19380526921142,-7.217962015797743,84.10502523420656,427.9465715589999,-29.590950947463213,68.93554882078686
1731217556953912,-0.01408236,0.091162376,-8.986291,-0.45942768,0.19141586,4.7475286,-1.3330355,0.005604699,11.794745,151.71707070254388,-7.554638963803678,84.68566189629091,440.40817916655664,-42.08461850074195,72.57958276054359
1731217556969912,-0.020528778,0.094665155,-8.908909,-0.47776622,0.1901409,4.938674,-1.1461581,-0.07968488,11.9465885,159.0715922998792,-8.548392284018936,85.8902266376229,459.6575998334568,-62.109582513453624,75.28529633324924
1731217556977912,-0.023869647,0.096404955,-8.869068,-0.485275,0.18870217,5.035504,-0.93859804,-0.1798421,12.103736,162.8950677763613,-9.20548101344822,86.4874441952591,477.9344345602618,-82.13609117866044,74.65219470452453
1731217556985912,-0.031425506,0.09949133,-8.828251,-0.49440205,0.18708962,5.1337695,-1.1408813,-0.201568,12.283205,166.806858003804,-9.961804721153898,87.06161640792016,488.9737784303377,-94.5404634632098,71.7715265826321
1731217556993912,-0.038960636,0.102528065,-8.786656,-0.50168407,0.18507585,5.231235,-0.9102523,-0.2517216,12.183188,170.80825835005604,-10.844726290374412,87.61283740075422,500.17504328150585,-110.36519615256412,68.90262410425846
1731217557009912,-0.05387453,0.108465284,-8.701208,-0.5103829,0.1811627,5.4186177,-0.5436763,-0.24457182,11.711418,179.03652224743712,-12.81030959357793,88.53589293634258,514.2664935863179,-122.84895645021994,57.69097097427252
1731217557017912,-0.06125308,0.11136244,-8.657384,-0.5126913,0.17912826,5.5099745,-0.28855354,-0.25430506,11.419594,-176.74062972023805,-13.871135616679707,88.89062703226718,527.8560040406029,-132.60325288772205,44.34176199057441
1731217557025912,-0.06856956,0.11421244,-8.612841,-0.5139007,0.17702942,5.6003222,-0.15117228,-0.26235542,11.29347,-172.44552608869546,-14.975080926735146,89.16592155770051,536.8879539428223,-137.99316375692987,34.411815679166665
1731217557041912,-0.08299262,0.11977117,-8.521624,-0.51335984,0.1725157,5.778814,0.033803284,-0.2821069,11.155724,-163.63422463453904,-17.27941783210454,89.45367962394693,550.706340884777,-144.02105658558696,17.984879140400587
1731217557049912,-0.09008846,0.12247947,-8.47496,-0.5116882,0.17006923,5.8671207,0.20895897,-0.30580908,11.0383625,-159.11326552366097,-18.461641676294114,89.45593408165014,565.11988885976,-147.77798052369718,0.28180721290302563
1731217557057912,-0.0971003,0.12514004,-8.427599,-0.5091455,0.1675306,5.954847,0.3178343,-0.31732953,10.965764,-154.51004353119086,-19.65115913723987,89.35814990529067,575.4027490587607,-148.68968261821945,-12.223022044933051
1731217557065912,-0.10402341,0.12775286,-8.379545,-0.50575876,0.16490155,6.041976,0.42334196,-0.32863018,10.891139,-149.8190961594717,-20.838872340709923,89.15692864601955,586.3684214648941,-148.4641504337566,-25.152657408890885
1731217557073912,-0.11083841,0.13032654,-8.330803,-0.50154984,0.16221663,6.1284943,0.5261153,-0.3356151,10.814785,-145.03435068191433,-22.016016869427283,88.84878046299148,598.0931846946721,-147.14306608966982,-38.51852287850889
1731217557089912,-0.12417167,0.13533124,-8.2312765,-0.4908433,0.15672974,6.299546,0.66915894,-0.34293064,10.690719,-135.16258710764254,-24.302595693619786,87.89855087112271,616.9852233919884,-142.91117651203146,-59.389349491798654
1731217557097912,-0.13068211,0.13776319,-8.180503,-0.48446098,0.15402392,6.383898,0.7977895,-0.3382284,10.544002,-130.0702649962756,-25.393067132024413,87.253761926662,636.5402639208661,-136.30892980057837,-80.59861805758904
1731217557105912,-0.13708411,0.14014949,-8.129064,-0.47752866,0.15138283,6.4674196,0.8665397,-0.3301352,10.440229,-124.8745072604905,-26.433082180427405,86.49781778507351,649.4697169731364,-130.00188105037407,-94.49301769856022
1731217557121912,-0.14966562,0.14528933,-8.024332,-0.46237043,0.14653356,6.63168,0.9473897,-0.30307937,10.2662735,-114.18484427160274,-28.316007428312883,84.67468497281375,668.1039368054853,-117.68282799284235,-113.94580076623471
1731217557129912,-0.15578456,0.14778684,-7.970994,-0.45429477,0.14433351,6.7124405,1.0094568,-0.2750065,10.095059,-108.69825668192026,-29.138819297391805,83.62378493480625,685.8234487103111,-102.85148363486529,-131.36250475093698
1731217557137912,-0.16180979,0.15023585,-7.9170127,-0.44601223,0.1422899,6.7922835,1.0353178,-0.2554506,9.98038,-103.12239910255941,-29.87211858394441,82.4928059146232,696.9821974201059,-91.66241081907563,-141.37237752288075
1731217557145912,-0.16771881,0.15264086,-7.8624,-0.4375746,0.1404737,6.871231,1.0547042,-0.22702663,9.868443,-97.45977786294162,-30.514262849239312,81.2911957265858,707.8276549522232,-80.2680331618629,-150.2012735046768
1731217557153912,-0.17351156,0.15500422,-7.807163,-0.42903495,0.13887861,6.94928,1.0674558,-0.19938497,9.756088,-91.7163200692054,-31.055551319998663,80.03025267996627,717.9322242170285,-67.661058844919,-157.61788082744076
1731217557169912,-0.1847499,0.15961604,-7.6948423,-0.41188926,0.13653846,7.102779,1.0716058,-0.14625955,9.593695,-80.00966208041702,-31.820036427242435,77.37173678467205,731.6661242992737,-47.78031920273568,-166.1572434558885
1731217557177912,-0.19019772,0.16187008,-7.637773,-0.40342933,0.13580152,7.1782455,1.0574907,-0.09211711,9.433329,-74.06239837987314,-32.03689899368659,75.99795844444589,743.4079625679828,-27.107820805519687,-171.72229252827086
1731217557185912,-0.19553363,0.16409346,-7.5801067,-0.39512488,0.13540399,7.252891,1.0380558,-0.049691644,9.330689,-68.06612957251731,-32.14099754077531,74.61289632517895,749.5336009194799,-13.012318386089236,-173.13276490836742
1731217557193912,-0.20076016,0.16628939,-7.521849,-0.38709414,0.13532993,7.326743,1.0038427,-0.009257346,9.231507,-62.03182633636031,-32.132213610712654,73.23209456584688,754.2879045196247,1.0979912578320246,-172.60021991650808
1731217557209912,-0.2109113,0.17061605,-7.403585,-0.37206063,0.13628374,7.4722447,0.93959457,0.059613023,9.09385,-49.89302835673388,-31.785418046714856,70.54700374558709,758.6748737266522,21.674722749862266,-167.81817626623723
1731217557217912,-0.2158431,0.1727539,-7.3435893,-0.36514512,0.13731974,7.543952,0.86443865,0.1295004,8.963406,-43.80766827738534,-31.45242380040108,69.27284620060522,760.6700099185672,41.624280789221885,-159.2696931227339
1731217557225912,-0.22068037,0.17487796,-7.283025,-0.35868764,0.13871473,7.615029,0.8071847,0.17437337,8.884608,-37.719084874017945,-31.02194318965971,68.05975989410483,761.0729254209243,53.810076342671266,-151.63578831254853
