timestamp,x,y,z,vx,vy,vz,ax,ay,az,roll,pitch,yaw,roll_rate,pitch_rate,yaw_rate
1731217587929525,-0.13581403,0.01287091,-4.4888043,0.010599166,0.040274292,-1.3954806,0.0,0.0,0.0,0.09534273635562616,-0.09607597383955246,90.1553188989183,0.0,0.0,0.0
1731217587937525,-0.13604952,0.01291514,-4.4999866,0.009989502,0.040638406,-1.3961236,-0.076208025,0.045514196,-0.080376856,0.09070578510824906,-0.08944944101635703,90.15691714996703,-0.579618905922137,0.8283166028994289,0.19978138109169508
1731217587953525,-0.13651383,0.0130384,-4.5223656,0.008833069,0.041381456,-1.397176,-0.07227703,0.04644063,-0.065773726,0.08096924506259717,-0.07700069439527672,90.15903447455044,-0.6085337528532428,0.7780466638175193,0.13233278646271054
1731217587961525,-0.13674317,0.013116423,-4.5335593,0.008266332,0.04172658,-1.3974582,-0.070842214,0.04314072,-0.03527105,0.07579621895701677,-0.0712409591329028,90.15970382158305,-0.6466282631975511,0.7199669077967398,0.08366837907628757
1731217587969525,-0.13697083,0.013204684,-4.5447564,0.00772213,0.042073946,-1.398046,-0.068025194,0.043420583,-0.073477626,0.07048422242308584,-0.06587481449996895,90.16005213153915,-0.6639995667413661,0.6707680791167326,0.0435387445123235
1731217587977525,-0.13719696,0.013302912,-4.555958,0.0071776807,0.042426772,-1.398693,-0.06805616,0.044103242,-0.080868594,0.0650002918892099,-0.06092727323062971,90.16001795209161,-0.6854913167344919,0.6184426586674042,-0.004272430942306629
1731217587993525,-0.1376357,0.013517342,-4.578375,0.0061537535,0.04311021,-1.3997235,-0.06399545,0.042714875,-0.06441027,0.05337016010876577,-0.05222690531367542,90.16266123553713,-0.7268832362777584,0.5437729948096427,0.16520521534482865
1731217588001525,-0.13785326,0.013638471,-4.5895877,0.0056579895,0.043466564,-1.3999889,-0.06197049,0.044544224,-0.033169985,0.04725790851912264,-0.04826793204742498,90.16540014088478,-0.7640314487053909,0.4948716582813059,0.3423631684578719
1731217588009525,-0.13806973,0.013768548,-4.6008034,0.0051780674,0.043805394,-1.4005464,-0.05999027,0.042353753,-0.06969273,0.04103668532453728,-0.04442232417757774,90.16798194207959,-0.7776528993231697,0.4807009837309042,0.3227251493505956
1731217588017525,-0.13862531,0.014131127,-4.6117697,0.0046484475,0.044283208,-1.4010811,-0.06620248,0.059726644,-0.06683171,0.03451886248146377,-0.04061052728674722,90.17024274540016,-0.8147278553841895,0.47647461135381575,0.28260041507040984
1731217588033525,-0.13970721,0.014868339,-4.6337337,0.0036239743,0.045211554,-1.401939,-0.064029574,0.058021627,-0.053621825,0.02178445894492504,-0.033410912755262645,90.1722166820297,-0.7959002210336704,0.44997590821778594,0.12337103934630614
1731217588041525,-0.14023411,0.015242862,-4.6447296,0.0031353587,0.045673653,-1.4021358,-0.061076947,0.057762485,-0.024601815,0.015308207206049066,-0.029658830475065637,90.17276989404958,-0.8095314673594971,0.46901028502462594,0.06915150248533565
1731217588049525,-0.1407565,0.015621553,-4.655734,0.0026404213,0.046106678,-1.4026368,-0.061867174,0.054128,-0.06261468,0.008696799464825808,-0.02582524961612322,90.17302262020537,-0.8264259676529072,0.47919760736780187,0.03159076947366803
1731217588057525,-0.14127018,0.01600395,-4.6667485,0.0021639825,0.04654266,-1.4031591,-0.059554845,0.054497734,-0.06529689,0.002027570790088309,-0.021799226277845262,90.1729816392559,-0.8336535843421873,0.5032529172847446,-0.005122618684904826
1731217588073525,-0.14227216,0.016779913,-4.6888065,0.0012605917,0.047392435,-1.4040055,-0.056461923,0.053110994,-0.05289912,-0.011289234340245247,-0.013463381867737996,90.17231226318157,-0.8323003206458474,0.5209902756317042,-0.04183600464491926
1731217588081525,-0.14276072,0.01717351,-4.699847,0.00083206425,0.047837704,-1.4041873,-0.053565923,0.055658627,-0.022724269,-0.017827242785700446,-0.009138521341379041,90.17156094577997,-0.8172510556818998,0.5406075657948692,-0.09391467520027154
1731217588089525,-0.14324123,0.017571105,-4.7108955,0.00043045648,0.04829379,-1.4046699,-0.05020097,0.057010908,-0.060319897,-0.024556232367160015,-0.004639772020902456,90.17061837369585,-0.8411236976824463,0.5623436650595731,-0.11782151051606318
1731217588097525,-0.14371373,0.01797259,-4.7219534,4.9709488e-05,0.048716925,-1.4052272,-0.04759337,0.052891668,-0.06966293,-0.03129256752740482,0.0001170186828627876,90.1694094153299,-0.8420418950306002,0.5945988379706554,-0.1511197957422639
1731217588113525,-0.1446352,0.018786943,-4.744096,-0.00065987254,0.04955351,-1.4060899,-0.044348873,0.052286543,-0.053919848,-0.04480955031482336,0.010064944134333474,90.16632217316348,-0.8448114242136587,0.6217453407169179,-0.19295263540131685
1731217588121525,-0.14508234,0.01920796,-4.755178,-0.0009876563,0.049967755,-1.4062953,-0.040972967,0.0517806,-0.025674699,-0.051612718903303066,0.015391096100472271,90.16451216084913,-0.8503960735599636,0.6657689957673496,-0.2262515392939066
1731217588129525,-0.14552194,0.019632593,-4.7662673,-0.0013057479,0.05037846,-1.406822,-0.039761446,0.051338222,-0.06583333,-0.05833727396348162,0.020744440558518717,90.15619978639597,-0.8405693825223192,0.6691680572558057,-1.0390468066446248
1731217588137525,-0.14595418,0.020060895,-4.777365,-0.0016102579,0.05078779,-1.4073673,-0.03806375,0.051166393,-0.06817281,-0.06513089873971664,0.02632966147311209,90.1476552042574,-0.8492030970293769,0.6981526143241713,-1.0680727673212536
1731217588153525,-0.14600283,0.021541739,-4.7999616,-0.0017552474,0.05198134,-1.4084429,-0.009061841,0.07459684,-0.06721914,-0.07936805596333005,0.037579490064361704,90.12824373873922,-0.8898223264758386,0.7031142869531009,-1.2132165948863625
1731217588161525,-0.14602858,0.02227909,-4.8112636,-0.001822291,0.052556574,-1.4087443,-0.0083804475,0.07190415,-0.037685037,-0.0866890389195983,0.0432608281578173,90.1171036954979,-0.9151228695335312,0.7101672616819501,-1.392505405165438
1731217588169525,-0.1460551,0.02301452,-4.822569,-0.0018698197,0.053124122,-1.4093286,-0.0059410958,0.0709435,-0.07303059,-0.09392599821724232,0.04919388992234217,90.10574508926732,-0.9046199122055016,0.7416327205656088,-1.4198257788224207
1731217588177525,-0.14608228,0.023748163,-4.833878,-0.0019198372,0.05368057,-1.4099725,-0.0062521864,0.06955583,-0.080496065,-0.10112611320271321,0.05553026706877868,90.09417472063927,-0.9000143731838626,0.792047143304563,-1.446296078505246
1731217588193525,-0.14613982,0.025211228,-4.8565097,-0.0020265083,0.05473194,-1.4110568,-0.0066669453,0.06571063,-0.06776303,-0.1152763047131139,0.06942473442491259,90.07057641837211,-0.8843869694000422,0.8684042097583695,-1.4748938916973975
1731217588201525,-0.14616987,0.025940847,-4.86783,-0.0020549092,0.05524061,-1.4113466,-0.003550114,0.06358372,-0.036224723,-0.12191954472680319,0.07701383451716932,90.05771516496787,-0.8304050017111618,0.948637511532092,-1.6076566755307262
1731217588209525,-0.14620006,0.02666872,-4.8791533,-0.002077019,0.055706073,-1.4120103,-0.0027637286,0.058182977,-0.08296966,-0.12829048696795,0.08494302505861946,90.0447582845539,-0.796367780143354,0.9911488176812663,-1.6196100517475849
1731217588217525,-0.1462303,0.027394796,-4.890482,-0.0020841858,0.056157365,-1.412707,-0.00089584495,0.0564116,-0.08708238,-0.13439314140280587,0.09335470002576127,90.03159649709669,-0.7628318043569815,1.0514593708927258,-1.6452234321503774
1731217588233525,-0.14629054,0.028841948,-4.913153,-0.0020958986,0.057050314,-1.4138573,-0.0007320486,0.05580927,-0.0718981,-0.14545348698920316,0.11155855738741068,90.00507483991706,-0.6912715991498308,1.137741085103088,-1.6576035737265686
1731217588241525,-0.14632028,0.029563135,-4.924494,-0.0020980756,0.057465713,-1.4141812,-0.00027212081,0.051924955,-0.04048645,-0.15035504792867196,0.12112970654054037,89.9916569045936,-0.6126951174336008,1.1963936441412124,-1.6772419154327356
1731217588249525,-0.14634977,0.030282728,-4.9358373,-0.0021055886,0.0578692,-1.4148029,-0.00093912234,0.05043577,-0.077709556,-0.15477593378743026,0.13092678284367565,89.97808528033683,-0.5526107323447876,1.2246345378919101,-1.696453032097182
1731217588257525,-0.14637884,0.031000657,-4.9471855,-0.0020798494,0.05823736,-1.4154598,0.0032173991,0.046019904,-0.08210539,-0.1586299978886322,0.14075321153248635,89.96453413522605,-0.4817580126502399,1.228303586101338,-1.693893138847403
1731217588273525,-0.14682667,0.030650282,-4.970469,-0.0019851197,0.057831846,-1.4166229,0.0059206067,-0.025344545,-0.072695315,-0.16431866439366788,0.1619243239523108,89.93734641963307,-0.35554165656473014,1.3231945262390274,-1.6992322245604425
1731217588281525,-0.1470409,0.030497609,-4.982104,-0.001934525,0.057646684,-1.4169277,0.006324335,-0.023145227,-0.03810227,-0.16619535409483704,0.17308305981002592,89.9238874234557,-0.23458621264614474,1.3948419822143914,-1.6823745221725344
1731217588289525,-0.1472489,0.03035936,-4.9937344,-0.0018897103,0.057454847,-1.4175322,0.005601832,-0.023979692,-0.07556379,-0.1676702650237158,0.18409760712318718,89.91056843102402,-0.18436386610984637,1.3768184141451545,-1.6648740539606763
1731217588297525,-0.14745079,0.030234937,-5.005362,-0.0018492184,0.057238426,-1.4181578,0.0050614905,-0.02705259,-0.078201294,-0.16899496339109904,0.19466263347452065,89.89738602264676,-0.16558729592290453,1.3206282939166847,-1.6478010471566402
1731217588313525,-0.1478369,0.030025357,-5.02861,-0.0017609097,0.056813177,-1.4192352,0.0055192937,-0.026578082,-0.06733835,-0.1710074979201549,0.213735631062827,89.87149923368085,-0.12578340806599186,1.1920623492691467,-1.6179243103689882
1731217588321525,-0.14802141,0.02993922,-5.040228,-0.0017084496,0.05659569,-1.419475,0.006557515,-0.02718577,-0.029966233,-0.1716284018990133,0.22191237375168535,89.85884609858968,-0.07761299735729835,1.022092836107296,-1.581641886397299
1731217588329525,-0.14819555,0.029865421,-5.0518417,-0.0016498917,0.056369107,-1.4200419,0.0073197293,-0.028322915,-0.07086992,-0.17215447374486498,0.22899086575293576,89.84657890177618,-0.06575898073145933,0.8848115001562992,-1.5333996016867104
1731217588337525,-0.14836435,0.029802905,-5.0634537,-0.001597188,0.056143604,-1.4206583,0.006587972,-0.028187873,-0.077053905,-0.1725012990843047,0.23493918217818893,89.83417505470165,-0.0433531674299644,0.743539553156647,-1.550480884317882
1731217588345525,-0.14852798,0.029751271,-5.075064,-0.0015364017,0.055934537,-1.4212543,0.0075982823,-0.026133375,-0.074490905,-0.17256056489240645,0.2398578944183355,89.82211271795884,-0.007408226012721135,0.6148390300183209,-1.5077920928486654
1731217588361525,-0.14884019,0.029679341,-5.0982766,-0.0014256842,0.055532295,-1.4218843,0.0069198427,-0.02514012,-0.039376315,-0.17178058785161726,0.246595643263942,89.79869159122133,0.04874856504932432,0.421109302850407,-1.4638204210952062
1731217588369525,-0.14898917,0.029658291,-5.1098776,-0.0013889502,0.05532028,-1.4224093,0.0045917546,-0.026501713,-0.065624714,-0.17112522710117412,0.24864746726098932,89.7875103314614,0.08192009380539472,0.25647799963091494,-1.3976574699901323
1731217588377525,-0.14913364,0.02964669,-5.1214767,-0.0013483951,0.05513755,-1.422944,0.005069378,-0.022841616,-0.06683171,-0.17058327505888823,0.25008227414299633,89.77658867953268,0.06774400528573413,0.1793508602508751,-1.3652064910909674
1731217588393525,-0.14939205,0.029384037,-5.144823,-0.0012230013,0.054603036,-1.4239739,0.007837116,-0.033407006,-0.06437302,-0.16958775330294606,0.2517109697103989,89.75551030131666,0.062220109746385935,0.10179347296266013,-1.3173986385009624
1731217588401525,-0.1495085,0.029133255,-5.156566,-0.0011414961,0.054240327,-1.4243255,0.010188145,-0.04533864,-0.04394352,-0.16899557484585004,0.2522346315041104,89.74519649127161,0.07402230713700393,0.06545772421394105,-1.2892262556319063
1731217588409525,-0.1496206,0.028895345,-5.168305,-0.0010561451,0.053899955,-1.4249754,0.010668881,-0.042546537,-0.08124112,-0.1684705178599954,0.25239308809321287,89.73753286892145,0.06563212323182799,0.019807073637803502,-0.9579527937699861
1731217588417525,-0.1497284,0.028669938,-5.1800413,-0.0009733308,0.053564798,-1.4256396,0.010351781,-0.04189461,-0.08302926,-0.16815512684294104,0.2522807090471645,89.73017317371787,0.039423877131794696,-0.014047380756045263,-0.9199619004462937
1731217588433525,-0.1499316,0.028255587,-5.2035036,-0.00079188624,0.05293572,-1.4267247,0.011340285,-0.03931741,-0.067815185,-0.16786026317979305,0.25035545763443584,89.71674818342095,0.018428978946749393,-0.12032821329553917,-0.8390618935584103
1731217588441525,-0.1500271,0.02806604,-5.215228,-0.00070539996,0.05260748,-1.4270259,0.010810785,-0.041029878,-0.037655234,-0.16770584274862943,0.24864285150375057,89.71053264467803,0.019302553895451772,-0.21407576633566242,-0.7769423428648223
1731217588449525,-0.15011871,0.027887838,-5.226949,-0.0006124743,0.05230798,-1.4276104,0.011615709,-0.03743777,-0.07306039,-0.16745833723344009,0.24636944451545434,89.70459371293644,0.030938189398669887,-0.284175873537026,-0.7423664676974073
1731217588457525,-0.15020654,0.027720949,-5.2386675,-0.0005334142,0.052042667,-1.4282109,0.009882511,-0.03316393,-0.07505715,-0.16713967813681613,0.243860234168268,89.69898946095675,0.03983238707799596,-0.31365129339829423,-0.7005314974619017
1731217588473525,-0.1503708,0.027422704,-5.2620964,-0.00033569738,0.05154438,-1.4291439,0.0123573,-0.03114296,-0.05831569,-0.1665635087606431,0.23798171051874162,89.68890804801619,0.036010586010814145,-0.36740772809539807,-0.630088308785198
1731217588481525,-0.15044746,0.027290968,-5.273804,-0.0002609152,0.05132591,-1.4292982,0.009347771,-0.027308704,-0.019282103,-0.16649064451949858,0.23469001158308836,89.68296912589602,0.009108030143065233,-0.411462366956658,-0.742365265019953
1731217588489525,-0.1505207,0.027169868,-5.285508,-0.00017991038,0.051114254,-1.4297827,0.010125603,-0.02645701,-0.060573217,-0.16622048120810032,0.2311459412123652,89.67736486375526,0.03377041392478208,-0.44300879634039686,-0.7005327675957401
1731217588497525,-0.15059066,0.027059145,-5.29721,-0.00010075109,0.05091448,-1.4303002,0.009894911,-0.02497155,-0.06468594,-0.1658402075277566,0.2272764480007694,89.67206456351954,0.047534210042961766,-0.4836866514494744,-0.6625375294657834
1731217588513525,-0.15072116,0.026868058,-5.320606,4.4583077e-05,0.050542153,-1.431043,0.009083385,-0.02327049,-0.046424564,-0.16480645237403638,0.2191618281931186,89.66234180033078,0.06460969710751444,-0.5071637379781733,-0.6076726992974257
1731217588521525,-0.15051463,0.02612441,-5.3317266,0.00034158048,0.04996145,-1.4310619,0.037124675,-0.07258774,-0.0023543835,-0.1640772250817453,0.21493365729384542,89.65799432917734,0.09115341153638575,-0.5285213624091506,-0.5434338941784119
1731217588529525,-0.15030937,0.025402706,-5.342859,0.00063601974,0.04939421,-1.431406,0.036804907,-0.07090531,-0.04301965,-0.16352416591103874,0.21154996881600294,89.65290918671062,0.06913239633832004,-0.4229610597303109,-0.6356428083413491
1731217588537525,-0.1501053,0.024702288,-5.354003,0.0009252697,0.0488299,-1.4317985,0.03615624,-0.070538834,-0.04905462,-0.16292538023370953,0.2080697106353904,89.6481724653643,0.07484820966615217,-0.43503227257656707,-0.5920901682909555
1731217588553525,-0.14971508,0.023363795,-5.376328,0.0014236311,0.04779543,-1.4323691,0.031147588,-0.064654276,-0.03566593,-0.16127229986520764,0.20088033045812326,89.63915649942258,0.10331752303136786,-0.4493362610791961,-0.5634978713566318
1731217588561525,-0.14952175,0.022724744,-5.387506,0.0016719012,0.04732648,-1.432416,0.031033762,-0.058618836,-0.005856156,-0.16023345114880183,0.19669230539233662,89.63489106310297,0.12985608955072503,-0.5235031332233293,-0.5331795399521634
1731217588569525,-0.14932957,0.02210527,-5.3986936,0.0019139476,0.046858888,-1.4327883,0.030255802,-0.05844887,-0.046536323,-0.1590798598424402,0.1917616408720704,89.6308236362525,0.14419891329520626,-0.6163330650332761,-0.508428356307884
1731217588577525,-0.14913857,0.021504913,-5.4098926,0.0021263473,0.046420675,-1.4332126,0.026549954,-0.054776665,-0.05304813,-0.15773222992166244,0.18586039208539254,89.626913413769,0.16845374009721853,-0.7376560983347337,-0.4887778104380989
1731217588593525,-0.1487604,0.02036013,-5.4323215,0.0025432867,0.04562375,-1.433809,0.02605871,-0.049807828,-0.037275255,-0.1540352370059498,0.1712229454426237,89.61974866580861,0.2310620572320412,-0.9148404151730524,-0.4477967475243776
1731217588601525,-0.14857307,0.019815167,-5.4435496,0.0027406118,0.045277476,-1.4338702,0.02466564,-0.043284144,-0.007644295,-0.15174968133906805,0.16278179628006628,89.6165726621873,0.28569445836021684,-1.0551436453196774,-0.39700045266462924
1731217588609525,-0.14838602,0.01928739,-5.4547863,0.0029316733,0.044957772,-1.4342556,0.023882689,-0.039963048,-0.04817545,-0.14937147983901608,0.1540126803212022,89.61363578171525,0.297275187506496,-1.0961394948580132,-0.36711005900534505
1731217588617525,-0.14820017,0.018777227,-5.466033,0.0031108963,0.044658475,-1.4346639,0.022402877,-0.03741216,-0.051036473,-0.146904474583587,0.14509714531966017,89.61167220978093,0.30837565692863433,-1.1144418751927514,-0.24544649178946898
1731217588633525,-0.14783205,0.017808486,-5.4885545,0.0034731533,0.044141933,-1.4352283,0.022641063,-0.03228383,-0.0352785,-0.14141784752678677,0.12676487925790542,89.6082539792169,0.34291419105001403,-1.1457666288596715,-0.2136394102522417
1731217588641525,-0.14760023,0.017435083,-5.50002,0.0036969334,0.043895386,-1.4353911,0.027972504,-0.030818393,-0.020340083,-0.13848661789676486,0.11761113762490627,89.60682315535364,0.36640370375273834,-1.1442177041248938,-0.17885298290719837
1731217588649525,-0.14736997,0.017075304,-5.5114894,0.0039314623,0.043690827,-1.4358758,0.029316112,-0.025569925,-0.060588118,-0.13542004874930821,0.10856485460405767,89.60525568468174,0.38332114343208357,-1.1307853776060748,-0.1959338339879883
1731217588657525,-0.14714122,0.016729048,-5.522964,0.00414682,0.043505557,-1.4364184,0.026919704,-0.023158731,-0.067830086,-0.1323247465990907,0.09959560079699274,89.60387940856249,0.3869127687771898,-1.1211567258831165,-0.17203451490495048
1731217588673525,-0.14668834,0.016076265,-5.545927,0.0045551783,0.04320172,-1.4372479,0.0255224,-0.0189899,-0.051841136,-0.12541349876734817,0.08238675733514408,89.60160173448155,0.43195298948390787,-1.0755527163655412,-0.14235463005881688
1731217588681525,-0.14646828,0.015770754,-5.557414,0.004739446,0.043083627,-1.4374094,0.023033468,-0.014761462,-0.020191072,-0.12143746285462996,0.07404011831300288,89.60071041561989,0.49700448908977407,-1.0433298777676496,-0.11141485770926368
1731217588689525,-0.1462498,0.015478289,-5.5689044,0.004924468,0.042999495,-1.4378895,0.023127764,-0.010516494,-0.060006972,-0.11743025258341301,0.06594395020073816,89.5989106555989,0.5009012839021189,-1.01202101403309,-0.22497000262306166
1731217588697525,-0.14603288,0.015198905,-5.5803995,0.005093379,0.04294544,-1.4383742,0.021113839,-0.006756745,-0.060588118,-0.11342034949119793,0.058144243115502675,89.59728513357855,0.5012378865268846,-0.9749633856544359,-0.20319025254298115
1731217588713525,-0.14560412,0.014679028,-5.603403,0.0054118186,0.042873953,-1.4391909,0.019902479,-0.00446802,-0.051043924,-0.1054989434097607,0.043502126003754416,89.5944882157294,0.49508788008982785,-0.9151323194842662,-0.17480736557197116
1731217588721525,-0.14539227,0.014438351,-5.6149096,0.0055584693,0.04286779,-1.4393587,0.018331338,-0.0007702037,-0.020980833,-0.10149588597806704,0.03643858476573248,89.59342953865142,0.500382178961706,-0.8829426547527423,-0.13233463474744217
1731217588729525,-0.14518218,0.014210368,-5.626419,0.005689621,0.04286446,-1.439815,0.016393954,-0.00041630116,-0.05704164,-0.09745845797190798,0.029568797363999904,89.59242208684879,0.5046785007698817,-0.8587234252165717,-0.12593147532991178
1731217588737947,-0.14497393,0.013994909,-5.6379337,0.00581383,0.04287136,-1.4403093,0.01474817,0.00081919227,-0.0586846,-0.09344916491689823,0.023009143689024625,89.59162290196703,0.4760499946580107,-0.7788712508875896,-0.09489252929883318
1731217588753947,-0.14456198,0.013600541,-5.660976,0.00601162,0.042964354,-1.4410573,0.01236188,0.005812151,-0.04675239,-0.08545659221152996,0.0111527518299207,89.59064620973625,0.4995357940855164,-0.7410244911939952,-0.061043264424043765
1731217588761947,-0.14435849,0.013421474,-5.672501,0.006099253,0.043033782,-1.4411993,0.010954099,0.008678529,-0.017747283,-0.08160105124857313,0.005634552558692125,89.59055739514076,0.48194262036960367,-0.689774908903572,-0.011101824434544995
1731217588769947,-0.14444068,0.013198189,-5.68377,0.006105512,0.04298217,-1.4416206,0.0007823691,-0.0064517367,-0.0526607,-0.0778634511789026,0.00034341710899353717,89.59063940412106,0.467200008708817,-0.6613919312123234,0.01025112253778949
1731217588777947,-0.14451805,0.012986661,-5.695051,0.0060938806,0.04295706,-1.4420576,-0.0014539108,-0.0031385568,-0.054627653,-0.07400046452660862,-0.004382463486175656,89.59100478552763,0.48287333153674666,-0.5907350743961491,0.045672675820424
1731217588793947,-0.14465958,0.012598593,-5.717645,0.0060586943,0.042947143,-1.4427159,-0.0021991436,-0.0006197951,-0.041142102,-0.06596091576162148,-0.01325558302824615,89.5923537623863,0.5024717978116963,-0.5545699713794058,0.08431105366682157
1731217588801947,-0.14472397,0.012421884,-5.7289553,0.0060407533,0.042980254,-1.4428049,-0.0022426248,0.0041387975,-0.0111311665,-0.06210776695135949,-0.017349401128475238,89.5931598014535,0.48164360128274825,-0.5117272625286362,0.10075488339900998
1731217588809947,-0.14478448,0.012256727,-5.7402744,0.0060023675,0.043032978,-1.4432144,-0.004798232,0.0065905037,-0.051185485,-0.058447917642978915,-0.021454103264501985,89.59402721365417,0.4574811635475725,-0.5130877670033431,0.10842652508516741
1731217588817947,-0.14484139,0.01210301,-5.7516036,0.0059644273,0.04309384,-1.4436352,-0.0047425274,0.0076079736,-0.052601095,-0.054996822540919116,-0.025578632404515588,89.59503812886575,0.43138688775747536,-0.5155661425017006,0.1263644014475167
1731217588833947,-0.14495257,0.011825095,-5.774291,0.0058420217,0.043284386,-1.4442544,-0.007650349,0.011909054,-0.038698316,-0.048714124173906435,-0.034306114589994476,89.59819715736565,0.39266864793829254,-0.5454676365924302,0.19743928124325213
1731217588841947,-0.14500359,0.011703244,-5.785646,0.0057849423,0.04341341,-1.44431,-0.00713492,0.016128179,-0.0069439407,-0.045777013185864183,-0.03862633351303138,89.60018135055759,0.36713887350528157,-0.5400273653796133,0.24802414899374112
1731217588849947,-0.14505178,0.011592717,-5.7970085,0.005708271,0.043552395,-1.4446996,-0.009583891,0.017372891,-0.048711892,-0.043224700397004545,-0.042608351475794747,89.60233631834402,0.3190390986074546,-0.4977522453454206,0.26937097330289717
1731217588857947,-0.14509737,0.011493356,-5.8083806,0.0056292834,0.043694466,-1.4451295,-0.009873474,0.017758925,-0.053733584,-0.04101421284441479,-0.04623761427037183,89.60472002147007,0.2763109440737197,-0.45365784932213626,0.29796289075570015
1731217588865947,-0.14514059,0.011405093,-5.819761,0.0055385083,0.04386008,-1.4455092,-0.011346884,0.020701902,-0.047460195,-0.03914346118383571,-0.04948866205312042,89.60726095688344,0.2338439575723849,-0.4063809728435732,0.3176169266719914
1731217588881947,-0.14522037,0.011261794,-5.8425426,0.00538394,0.044235993,-1.4457572,-0.0096605215,0.023494473,-0.015497207,-0.03618888910804783,-0.055402968024450834,89.61260568988457,0.18466075473674243,-0.369644123208151,0.33404581257039434
1731217588889947,-0.14525943,0.011202332,-5.853944,0.005301378,0.044434633,-1.4461236,-0.010320217,0.02482999,-0.045806166,-0.03512276775510358,-0.057934494835388414,89.61543678613168,0.1332651691180309,-0.3164408513671976,0.35388703088836837
1731217588897947,-0.14558096,0.010696409,-5.865088,0.0051266113,0.04451168,-1.4464791,-0.021845859,0.009630807,-0.04443526,-0.034177983508996375,-0.06019232045300988,89.61973989394369,0.11809803076340047,-0.2822282022026826,0.5378884765021398
1731217588913947,-0.14619933,0.009749392,-5.887419,0.004732934,0.044691514,-1.4469643,-0.024604842,0.011239666,-0.030323861,-0.03287510638827512,-0.06352636851620608,89.62943896225165,0.08142982004507841,-0.20837800394976216,0.6061917692477364
1731217588921947,-0.14649689,0.009307444,-5.8986034,0.0045489436,0.04480464,-1.4469541,-0.022998776,0.014140735,0.0012665986,-0.03262362991611509,-0.06488104133908419,89.634367020426,0.03143455902000423,-0.16933410285976405,0.6160072717921752
1731217588929947,-0.14678696,0.008886178,-5.9098,0.0043678107,0.044951476,-1.4472939,-0.022641614,0.018354505,-0.042468306,-0.03269396150058338,-0.06589114293174833,89.63938391306046,-0.008791448058536983,-0.12626269908301815,0.627111579308024
1731217588937947,-0.14706992,0.008485274,-5.92101,0.004165231,0.04509923,-1.4476769,-0.025322486,0.018469058,-0.047877427,-0.03305935679546007,-0.06682318423406748,89.64452031012905,-0.04567441185958616,-0.11650516278989437,0.6420496335739693
1731217588953947,-0.14761578,0.007742969,-5.943468,0.0037778832,0.04542981,-1.4482272,-0.02420922,0.02066139,-0.03439188,-0.035635505393679344,-0.06842604531978458,89.65490580093997,-0.16100928738870462,-0.10017881785731818,0.6490931756830767
1731217588961947,-0.14787813,0.007395809,-5.9547143,0.003601907,0.04559643,-1.448251,-0.021997023,0.020827165,-0.002980232,-0.037716888737241765,-0.06924588205527916,89.6602744411765,-0.2601729179453023,-0.10247959193682346,0.6710800295643166
1731217588969947,-0.14813428,0.0070676366,-5.9659705,0.0034196442,0.04578859,-1.4485971,-0.022782857,0.024020204,-0.043258067,-0.04012376693338828,-0.07012955177299425,89.66760674822496,-0.30085977451831414,-0.11045871471438642,0.9165383810569707
1731217588977947,-0.14838444,0.006758141,-5.977239,0.0032576742,0.045976926,-1.4489661,-0.020246252,0.02354197,-0.04613399,-0.04296175449802697,-0.07126104950955058,89.67486051057416,-0.35474844557983654,-0.14143721706953974,0.9067202936518881
1731217588993947,-0.14886743,0.0061934805,-5.9998107,0.0029406804,0.046360463,-1.4494658,-0.01981211,0.023971077,-0.031225381,-0.04968271272971932,-0.07417402748534155,89.68962763687479,-0.4200598894807717,-0.1820611234869361,0.9229453937888553
1731217589001947,-0.14910051,0.0059377947,-6.0111103,0.0028048554,0.046591286,-1.4494728,-0.016978126,0.028852837,-0.00087916845,-0.05343100361666313,-0.07579507822360404,89.69703162619747,-0.4685363608679757,-0.20263134228281032,0.9254986653360896
1731217589009947,-0.14932814,0.0056996243,-6.0224195,0.00267492,0.046830893,-1.4498322,-0.016241916,0.029950866,-0.044926997,-0.057331356761075494,-0.07747918826805124,89.70437761466296,-0.48754414305154586,-0.21051375555589974,0.9182485581863414
1731217589017947,-0.1501779,0.0052027213,-6.033339,0.002349924,0.04697934,-1.4501668,-0.040624492,0.018556137,-0.041827556,-0.06129684392158048,-0.07915225267234774,89.71185332286537,-0.49568589506312394,-0.2091330505370641,0.9344635252995274
1731217589033947,-0.15181892,0.004280494,-6.05524,0.0017442978,0.047346584,-1.4505684,-0.03785164,0.022952676,-0.025101004,-0.0689178952340424,-0.08227222481628076,89.7268799408165,-0.4763157070288702,-0.19499825899581347,0.9391636219462249
1731217589041947,-0.15261129,0.0038543623,-6.0662184,0.0014506078,0.04754408,-1.4505361,-0.03671125,0.024687031,0.0040382147,-0.07281402502046333,-0.08388902700812473,89.73376822964683,-0.48701622330261446,-0.20210027398049676,0.8610361037909617
1731217589049947,-0.15338522,0.0034504,-6.0772142,0.0011667013,0.04775375,-1.4508339,-0.035488307,0.026208812,-0.0372231,-0.07689830136507804,-0.08556055755249697,89.74059849526554,-0.51053454307684,-0.2089413180465296,0.8537832023394537
1731217589057947,-0.15414119,0.0030682143,-6.088229,0.0008963926,0.0479791,-1.4511688,-0.033788584,0.02816878,-0.041857358,-0.08115311921232334,-0.0873141239060707,89.74733313910781,-0.5318522309056609,-0.21919579419671578,0.8418304802831793
1731217589073947,-0.15560122,0.0023680993,-6.1103153,0.00037792165,0.04849345,-1.4516684,-0.032404438,0.032146692,-0.031225381,-0.09084174062679293,-0.09106903162264698,89.76055991321869,-0.6055388384043497,-0.23468173228601777,0.8266733819295609
1731217589081947,-0.15630612,0.002049415,-6.1213827,0.00015597238,0.04875733,-1.4516802,-0.027743658,0.032985117,-0.0014752148,-0.0962698154104821,-0.09297402986810709,89.76701109216195,-0.6785093479611465,-0.23812478068251347,0.8063973679090756
1731217589089947,-0.15699472,0.00175121,-6.132466,-5.7320212e-05,0.04904517,-1.4520199,-0.026661573,0.03598025,-0.042468306,-0.10215213857109794,-0.09499037912896734,89.77333928774901,-0.7352903950769799,-0.25204365760753134,0.791024448381093
1731217589097947,-0.15766756,0.0014731225,-6.143566,-0.00028559327,0.04933024,-1.4523833,-0.028534131,0.035633333,-0.045418736,-0.10844908940512014,-0.09716535054051528,89.77966747196126,-0.787118854252776,-0.27187142644349266,0.7910230265316157
1731217589113947,-0.15895684,0.00096862693,-6.1658163,-0.000651201,0.04995539,-1.4528742,-0.022850482,0.039072007,-0.030681489,-0.12293632889781334,-0.1012587477446475,89.7930274398467,-0.9054524682933244,-0.2558373252582638,0.8349979928395829
1731217589121947,-0.15957935,0.00074545335,-6.176963,-0.0008171291,0.05029187,-1.4528906,-0.020741012,0.04205992,-0.0020563602,-0.1308843064467597,-0.10306663632494156,89.80024015778072,-0.9934971936182951,-0.2259860725367576,0.9015897417539691
1731217589129947,-0.1601876,0.00054126943,-6.188123,-0.0009695267,0.050625835,-1.4531196,-0.0190497,0.0417456,-0.028625129,-0.1390596282635543,-0.10468234557481815,89.80726163236159,-1.0219152270993246,-0.2019636562345734,0.8776843226087744
1731217589137947,-0.16078176,0.00035561813,-6.199298,-0.0010778143,0.05095585,-1.4534233,-0.013535944,0.041252,-0.037953258,-0.14767709301345702,-0.10599327720353398,89.81414991950003,-1.0771830937378397,-0.16386645358947863,0.8610358923047491
1731217589153947,-0.16147162,0.0005173035,-6.221348,-0.0011384796,0.0520409,-1.4539164,-0.0037915814,0.06781565,-0.03082305,-0.16542313235984396,-0.10803197883496815,89.82728103358535,-1.1091274591491835,-0.1274188519646355,0.8206946303321189
1731217589161947,-0.16180481,0.0006190316,-6.2324,-0.0011359925,0.052582085,-1.4539375,0.0003108871,0.06764801,-0.0026375053,-0.17450027106233162,-0.10898776680579937,89.83361608762657,-1.1346423378109602,-0.11947349635390254,0.7918817551528736
1731217589169947,-0.16212322,0.0007386521,-6.243469,-0.0011157027,0.05313646,-1.4542985,0.002536224,0.06929692,-0.045120712,-0.18364869712837814,-0.10978592655773559,89.83967789531253,-1.1435532582558148,-0.09976996899202772,0.7577259607459826
1731217589177947,-0.16243403,0.0008719472,-6.254557,-0.0010877469,0.053719483,-1.4547131,0.0034944676,0.072877854,-0.051826235,-0.19293814250072283,-0.110457834318154,89.84370772692318,-1.1611806715430852,-0.08398847005230102,0.5037289513316422
1731217589193947,-0.16303307,0.0011789319,-6.276788,-0.0009925358,0.05483916,-1.4553277,0.0059506926,0.06997981,-0.038415194,-0.21106926945645466,-0.11051859910236511,89.8513848915744,-1.1331954347332391,-0.003797799013194562,0.479822790700554
1731217589201947,-0.16332136,0.0013521445,-6.2879276,-0.0009194668,0.055395983,-1.45542,0.009133633,0.069602855,-0.011533498,-0.21966960213519987,-0.11003262090464817,89.8549878459613,-1.0750415848431507,0.060747274714617425,0.4503692983640114
1731217589209947,-0.1636021,0.0015383769,-6.299083,-0.0008208984,0.05596938,-1.4558178,0.0123210475,0.071674585,-0.04972517,-0.22799411358668115,-0.10906312580672606,89.85841319822701,-1.0405639314351582,0.12118688724026358,0.428169033212304
1731217589217947,-0.16387534,0.0017375543,-6.3102555,-0.00070974545,0.05655023,-1.456239,0.013894117,0.07260637,-0.0526458,-0.23578828773196142,-0.10742206320836245,89.86161658628428,-0.9742717681600348,0.20513282479545136,0.40042350716022584
1731217589233947,-0.16439933,0.002174076,-6.3326483,-0.00044314098,0.05768899,-1.4568539,0.016662778,0.071172364,-0.038430095,-0.24985038655361183,-0.10260644491826547,89.86741545058774,-0.8788811763531518,0.3009761431310614,0.36242901896610125
1731217589241947,-0.16464685,0.0024110524,-6.343866,-0.00029060035,0.05826422,-1.4569212,0.019067578,0.07190369,-0.008419156,-0.2561630825774527,-0.0996047055062738,89.87005192431964,-0.7890870029801021,0.37521742649895823,0.32955921648664677
1731217589249947,-0.16488698,0.0026603835,-6.3550973,-0.00012559452,0.058844768,-1.4572808,0.020625727,0.072568655,-0.0449419,-0.26200848526278137,-0.09615882335035048,89.87244936408794,-0.7306753356660873,0.43073526949041663,0.29967997103728483
1731217589257947,-0.16511986,0.0029219508,-6.3663435,3.3847424e-05,0.05942178,-1.4576873,0.019930242,0.07212674,-0.050812956,-0.26745013565879583,-0.09245799639448417,89.87469310113717,-0.6802062995018124,0.46260336948328795,0.28046713115467303
1731217589273947,-0.16430597,0.0035944215,-6.3880305,0.0010389744,0.060664788,-1.4579508,0.062820435,0.0776879,-0.016473234,-0.2781686937758957,-0.0845087606227799,89.87636994013747,-0.6699098823187393,0.4968272357315164,0.10480243751790283
1731217589281947,-0.16390747,0.003947302,-6.398907,0.0015454355,0.06125875,-1.4578505,0.063307635,0.074245036,0.012546777,-0.28337048651379865,-0.08015995334273732,89.87581671035923,-0.65022409223787,0.5436009100053243,-0.06915372227873255
1731217589289947,-0.16351418,0.0043111225,-6.409806,0.002044433,0.061876312,-1.4580762,0.062374685,0.077195466,-0.028222797,-0.28806766014574486,-0.07548323712757163,89.8750824735755,-0.5871467039932738,0.5845895268957105,-0.09177959796535402
1731217589297947,-0.16312577,0.0046858466,-6.420727,0.0025585254,0.062486134,-1.4583623,0.06426155,0.07622782,-0.035762787,-0.2921449565227528,-0.07032718051023851,89.87410235803706,-0.5096620471259926,0.6445070771666404,-0.1225144423049659
1731217589313947,-0.16235933,0.0054681986,-6.4426346,0.0036187328,0.063665085,-1.4587619,0.06626296,0.07368438,-0.024974344,-0.2979220310445963,-0.058956375710229596,89.8719508753718,-0.3610671576152199,0.7106753000005568,-0.13446766657957113
1731217589321947,-0.16198066,0.0058754687,-6.453618,0.0041511836,0.064254396,-1.4587189,0.06655636,0.07366389,0.0053793187,-0.29955167679352135,-0.05279386127869113,89.87003842662808,-0.20370571861563458,0.7703143039423078,-0.23905609296405667
1731217589329947,-0.1616057,0.006292749,-6.4646206,0.0046666455,0.0648193,-1.4590312,0.06443273,0.07061288,-0.039041042,-0.30033556394687794,-0.04633798273235929,89.86804060101765,-0.09798589416956713,0.8069848182914803,-0.2497282013035173
1731217589337947,-0.16123419,0.006719742,-6.4756436,0.0051916554,0.06537887,-1.4593767,0.06562623,0.06994605,-0.04318356,-0.3001229413784002,-0.03956032541386142,89.86599495654126,0.02657782105971674,0.847207164812234,-0.25570555955004715
1731217589345947,-0.16086596,0.0071563087,-6.4866867,0.005692887,0.06593261,-1.4596833,0.062653966,0.06921776,-0.038325787,-0.29893314358994905,-0.03235719581966674,89.86380929365764,0.1487247235563879,0.9003911992743348,-0.27320786045158213
1731217589361947,-0.16013883,0.008057259,-6.5088267,0.006675175,0.06700513,-1.4597715,0.061392985,0.067032404,-0.005513429,-0.29368966577673505,-0.017036359670897748,89.8589974392059,0.3277173633258748,0.9575522592980619,-0.30074090323476405
1731217589369947,-0.15977955,0.008521215,-6.519922,0.0071697934,0.06751652,-1.46008,0.061827302,0.06392412,-0.038564205,-0.2898424004362527,-0.009012688111050826,89.85641904245477,0.4809081675602991,1.0029589449808654,-0.32229959388857615
1731217589377947,-0.15942281,0.008993753,-6.5310354,0.0076549165,0.06800581,-1.460463,0.060640387,0.06116088,-0.047877427,-0.2853642406862566,-0.0008191291125401945,89.85390552384611,0.5597699687495096,1.0241948748138292,-0.31418982608305535
1731217589385947,-0.15906881,0.009470307,-6.5421667,0.008112841,0.06849945,-1.4608207,0.057240598,0.061705705,-0.04470348,-0.2804858795999319,0.007608790737118584,89.85127929860403,0.6097951357905885,1.053489981207347,-0.3282781552610184
1731217589401947,-0.15861878,0.010375978,-6.5627627,0.008845433,0.069405876,-1.4604272,0.04578696,0.056651417,0.024594365,-0.26983682996241826,0.024834755362799624,89.84876235569669,0.6655656023446034,1.076622789105065,-0.15730893170808874
1731217589409947,-0.15839347,0.010841936,-6.5731134,0.0092003085,0.069828704,-1.4604518,0.044359475,0.052853484,-0.0030845401,-0.2638316858596162,0.033475145892871816,89.84760803052198,0.7506430128502539,1.0800488162590243,-0.14429064683945136
1731217589417947,-0.15816794,0.011316306,-6.5834985,0.009542382,0.070257746,-1.460556,0.04275923,0.053630207,-0.013023614,-0.25737025680934134,0.04211573728747576,89.84649811943983,0.8076786312843611,1.0800739243254929,-0.13873888526856853
1731217589433947,-0.15771629,0.012289599,-6.6043715,0.010219139,0.07108634,-1.4605896,0.042297293,0.05178712,-0.0021010637,-0.24334801119441113,0.05923776097741388,89.84420310969111,0.8763903509331373,1.0701264806211324,-0.14343810929510312
1731217589441947,-0.15749031,0.012788095,-6.614856,0.01054772,0.071492136,-1.4604397,0.041072603,0.05072448,0.01874566,-0.23586479375019145,0.06767980660593975,89.84315806605882,0.9354021805274587,1.055255703565734,-0.13063045403549292
1731217589449947,-0.15726355,0.013295676,-6.6253705,0.01085205,0.07189538,-1.4606124,0.038041268,0.050405968,-0.02159178,-0.22821927772257883,0.07614963472232592,89.84203447521797,0.9556895034515773,1.058728514548271,-0.14044885510687818
1731217589457947,-0.15703695,0.013810711,-6.635917,0.0111443,0.072287336,-1.4608375,0.036531243,0.048994083,-0.02813339,-0.22043035265414535,0.08455397732470887,89.84052839463536,0.9736156335541852,1.0505428252978688,-0.1882600728263092
1731217589473947,-0.15658419,0.0148620345,-6.657103,0.011733257,0.07301858,-1.4610902,0.036809824,0.04570279,-0.01579523,-0.20433692161291353,0.10135973331660683,89.83764935308085,1.0058394400769892,1.0503597494936232,-0.1799400971572877
1731217589481947,-0.15635817,0.015397924,-6.667738,0.011986171,0.07338265,-1.4610167,0.03161421,0.045509074,0.009194016,-0.19623354384093725,0.10964141176294762,89.83629349568828,1.0129222214970335,1.0352098057925978,-0.16948217406991525
1731217589489947,-0.15613262,0.015940439,-6.6784005,0.012238781,0.07374079,-1.4612454,0.031576257,0.04476681,-0.028595326,-0.18809756992148594,0.11786390851873046,89.83494449703794,1.0169967399314144,1.027812094472855,-0.16862483129266537
1731217589497947,-0.15590757,0.016489366,-6.6890917,0.012477049,0.07407592,-1.4615419,0.029783461,0.041891817,-0.037059188,-0.18001429837485794,0.12605149627941287,89.83366376993958,1.0104089433285013,1.0234484700852997,-0.16009088729651688
1731217589513947,-0.15545918,0.017605307,-6.7105565,0.012937654,0.07468736,-1.4619699,0.02878782,0.03821496,-0.026747582,-0.1640358955688358,0.14224414498933005,89.83132773916353,0.9986501753763843,1.0120405443698246,-0.14600192350247826
1731217589521947,-0.15535472,0.018528122,-6.7218046,0.013129293,0.075142875,-1.4621432,0.023954896,0.056939196,-0.021666287,-0.15622516586070342,0.15025851764200854,89.83018701825672,0.9763412135165463,1.0017965815848116,-0.14259011335065952
1731217589529947,-0.15524791,0.019448666,-6.733019,0.0133169135,0.07555212,-1.4483604,0.023452563,0.051155683,1.7228423,-0.14073984574080334,0.15019440435688378,89.82469892672097,1.9356650149875088,-0.008014160640595553,-0.6860114419701567
1731217589537947,-0.15513812,0.020366093,-6.7441034,0.013682185,0.07577149,-1.4293618,0.0456589,0.027420929,2.3748279,-0.07274142022260591,0.09738114214059519,89.81152718164692,8.49980318977468,-6.601657777036074,-1.6464681342560883
1731217589553947,-0.15490717,0.0221893,-6.765836,0.014364487,0.07623333,-1.3892778,0.04264386,0.028864944,2.5052502,0.356817624192011,-0.29107611347433837,89.75824162944092,26.84744027591356,-24.278578475933347,-3.330347012875287
1731217589561947,-0.15478802,0.0230974,-6.776468,0.014386823,0.07681611,-1.3674783,0.0027921048,0.07284805,2.7249453,0.7467946759331676,-0.6360008961288469,89.71489604922029,48.74713146764458,-43.11559783181357,-5.418197527577372
1731217589569947,-0.15466957,0.024006575,-6.786931,0.014028425,0.07777294,-1.3447361,-0.044799756,0.11960323,2.842769,1.2599318916898536,-1.0712608317065249,89.65758856143093,64.14215196958575,-54.40749194720974,-7.163435973670718
1731217589577947,-0.15455537,0.024920307,-6.797215,0.013170597,0.07918424,-1.31988,-0.10722852,0.17641297,3.107011,1.8937900275332662,-1.5857687484875145,89.58403559797458,79.23226698042656,-64.3134895976237,-9.19412043204429
1731217589593947,-0.15435402,0.026774157,-6.817134,0.009943635,0.0832575,-1.2575642,-0.20168512,0.2545784,3.8947387,3.4812144388954747,-2.7921598049639313,89.38143234262138,99.21402571013803,-75.39944102977604,-12.662703459574155
1731217589601947,-0.15427461,0.027720738,-6.8266964,0.007665367,0.08581861,-1.219295,-0.28478354,0.32013932,4.783645,4.408404699572073,-3.45384316081485,89.24997298293056,115.89878258457486,-82.71041948136482,-16.432419961354363
1731217589609947,-0.15421458,0.02868441,-6.835943,0.0050151916,0.088601835,-1.1764752,-0.3312719,0.34790298,5.352482,5.4070555443732315,-4.138380419656256,89.09717822629676,124.83135560014475,-85.56715735517578,-19.099344579223658
1731217589617947,-0.15417655,0.029666718,-6.844839,0.0020999978,0.091541454,-1.1294276,-0.3643992,0.36745238,5.8809514,6.465602020872359,-4.837058813714755,88.92279079864939,132.31830956239082,-87.3347992573123,-21.798428455922256
1731217589633947,-0.15417343,0.031691805,-6.8614545,-0.004295512,0.09772965,-1.024919,-0.39971936,0.3867624,6.531782,8.72444601045023,-6.249552268063259,88.50941763723624,141.17774934861697,-88.28084089678156,-25.835822588321328
1731217589641947,-0.1531294,0.032110553,-6.869488,-0.006878962,0.100366205,-0.9686993,-0.3229312,0.32956895,7.027469,9.911734441175323,-6.952586671631288,88.27097806921344,148.41105384063667,-87.87930044600348,-29.804946002850087
1731217589649947,-0.15213093,0.03256075,-6.877062,-0.0096156495,0.103107736,-0.9105227,-0.34208593,0.3426913,7.272072,11.133528786197523,-7.643419675322136,88.00386181194831,152.72429312777498,-86.35412546135608,-33.38953215814207
1731217589657947,-0.15117855,0.03304297,-6.884163,-0.01249912,0.10597142,-0.85086924,-0.36043382,0.35796034,7.456682,12.391102055392695,-8.319180185307875,87.71780274218573,157.19665864939654,-84.47006374821733,-35.75738372032196
1731217589673947,-0.14942452,0.03410959,-6.8969088,-0.018826498,0.11202628,-0.728453,-0.39546108,0.37842894,7.6510158,15.023184871726512,-9.60308422500876,87.09364079116538,164.50517602086353,-80.24400248130533,-39.01012193877138
1731217589681947,-0.14861982,0.034693416,-6.9025383,-0.022316594,0.115240775,-0.6660572,-0.43626198,0.40181166,7.7994685,16.403906960293597,-10.20036889368154,86.75948746712163,172.5902610708857,-74.66058358409752,-41.7691655054693
1731217589689947,-0.14786491,0.0353119,-6.9076653,-0.02602702,0.118588306,-0.6030318,-0.4638033,0.41844136,7.8781767,17.831618438348436,-10.76141644968842,86.4139337890386,178.46393475685468,-70.13094450085995,-43.19420976037993
1731217589697947,-0.14716093,0.035965644,-6.9122844,-0.029966876,0.12202651,-0.5394253,-0.49248195,0.42977554,7.9508123,19.30816371697637,-11.28274756167456,86.0592716969068,184.56815982849184,-65.1663889982674,-44.33276151647397
1731217589713947,-0.1459113,0.037380558,-6.919985,-0.03858836,0.12916443,-0.4107011,-0.53884274,0.4461198,8.045263,22.41218191108881,-12.199078436200685,85.33092532508392,194.00113713202734,-57.2706796578828,-45.521648238929814
1731217589721947,-0.1453684,0.03814232,-6.9230576,-0.043255754,0.13281158,-0.3456399,-0.5834242,0.45589355,8.1326475,24.04098126348253,-12.592763298938959,84.9612288358476,203.59991904921534,-49.210607842284475,-46.21206115453928
1731217589729947,-0.14488156,0.03894305,-6.925607,-0.048164867,0.13651325,-0.2801135,-0.6136391,0.46270898,8.190803,25.7218892837868,-12.942638249116566,84.59068971575012,210.1135025380341,-43.73436877220091,-46.31739001218742
1731217589737947,-0.14445257,0.039780293,-6.9276304,-0.05333858,0.14028011,-0.21418166,-0.6467141,0.47085804,8.241478,27.45548657366713,-13.247140714803242,84.21984228032498,216.69966123504088,-38.062808210834376,-46.35592942814118
1731217589753947,-0.14377418,0.041564748,-6.9300838,-0.06442566,0.1479222,-0.08101,-0.6929426,0.47763062,8.323229,31.076298205898603,-13.720404355358992,83.4943696164387,226.300727014467,-29.578977534734456,-45.342041492892314
1731217589761947,-0.1435277,0.04251181,-6.930507,-0.07034552,0.15174732,-0.013792967,-0.7399823,0.47813913,8.402128,32.960119789911005,-13.890243558540993,83.14458937901523,235.4776980015507,-21.2299003977499,-43.7225296779353
1731217589769947,-0.14128254,0.042153034,-6.9297066,-0.07496973,0.15473184,0.054108735,-0.57802624,0.37306544,8.487712,34.89062902385314,-14.017569330455434,82.80596464793238,241.31365424276598,-15.915721489305152,-42.328091385355265
1731217589777947,-0.13913779,0.041855667,-6.928378,-0.07988881,0.15775877,0.12243373,-0.6148852,0.37836653,8.540625,36.865821614667,-14.095103239648475,82.46684775779123,246.89907385173308,-9.691738649130203,-42.38961126764491
1731217589793947,-0.1351512,0.041440964,-6.9241266,-0.09051638,0.16378313,0.2602982,-0.66422296,0.3765225,8.616529,40.94685596508543,-14.137115655193092,81.83344029066265,255.06464690115197,-2.625775971538553,-39.587966695535776
1731217589801947,-0.13330348,0.041326284,-6.921196,-0.09621389,0.16679487,0.32980785,-0.71218884,0.37646663,8.688706,43.05049220100327,-14.104878917091352,81.54269609772228,262.95452948973053,4.029592262717606,-36.34302411754473
1731217589809947,-0.13155806,0.04126885,-6.917723,-0.10215853,0.16977048,0.39973944,-0.7430799,0.37195158,8.741449,45.19490015759865,-14.034872111902589,81.26425138194114,268.0509945744222,8.750850648595284,-34.805589472644975
1731217589817947,-0.12991549,0.041267574,-6.913705,-0.1083575,0.1727285,0.47006723,-0.7748706,0.3697518,8.790973,47.377142520193125,-13.933903036170951,81.00704181571083,272.78029532430867,12.621134466454734,-32.15119577878737
1731217589833947,-0.12694144,0.041429218,-6.9040146,-0.121487126,0.17851837,0.6119718,-0.82060176,0.36186722,8.869035,51.847011873404774,-13.649629638209973,80.55808701155443,279.36683457572826,17.767087372561125,-28.05967525977527
1731217589841947,-0.12561111,0.041589916,-6.898336,-0.12841195,0.1813563,0.6835014,-0.86560285,0.35474074,8.941203,54.13219449399082,-13.471712151507388,80.36704565226599,285.64782757325617,22.23968583782306,-23.88016991105515
1731217589849947,-0.12438607,0.041802373,-6.8920965,-0.13556959,0.18414225,0.7554358,-0.8947048,0.34824383,8.991799,56.44983597223055,-13.273013416339301,80.19865801395616,289.70518477996603,24.8373418960109,-21.048454788728755
1731217589857947,-0.123266906,0.042065505,-6.8852954,-0.14296164,0.18688445,0.82776845,-0.92400604,0.3427751,9.041577,58.799100555913476,-13.055556044703978,80.0538291651205,293.65807296036553,27.18217145441528,-18.103606104456862
1731217589873947,-0.121355034,0.04273344,-6.8699856,-0.1584881,0.19220129,0.97362316,-0.9704036,0.3323024,9.115919,63.588254548684326,-12.570996125807298,79.83857319670194,299.32212454817807,30.284994931042565,-13.4534980261601
1731217589881947,-0.120564155,0.04313612,-6.86147,-0.16661695,0.19478819,1.0471771,-1.0161064,0.32336262,9.19424,66.02634814212041,-12.324109063929447,79.78837106576817,304.7616991795113,30.86088273473153,-6.275266366720181
1731217589889947,-0.119882435,0.043584913,-6.852376,-0.17496997,0.19728369,1.1211209,-1.0441281,0.31193718,9.242981,68.49059453882732,-12.06672752657657,79.76279069609373,308.030799588363,32.172692169109595,-3.1975462093059384
1731217589897947,-0.11727485,0.04414063,-6.8431373,-0.18213722,0.19989222,1.1953413,-0.8959062,0.32606718,9.277552,70.97955311621259,-11.801428910653115,79.76081383371438,311.11982217315796,33.16232699043176,-0.24710779741888186
1731217589913947,-0.11249924,0.045384865,-6.8228683,-0.19725572,0.20492832,1.3450459,-0.9449059,0.31475627,9.356536,76.02210673483044,-11.22338143469281,79.78756255108547,315.1596011636161,36.12796724751906,1.6717948356934447
1731217589921947,-0.11033083,0.046071183,-6.811832,-0.20522526,0.20734324,1.4205239,-0.9961929,0.301864,9.434744,78.5809849049824,-10.929625392464354,79.8322068179874,319.85977126899536,36.719505278556966,5.580533362740243
1731217589929947,-0.1083088,0.046799056,-6.8001895,-0.21344191,0.20969348,1.4964492,-1.0270811,0.29378012,9.490668,81.16602377594346,-10.634505902999933,79.89763645524545,323.1298588701326,36.88993618305269,8.178704657256004
1731217589937947,-0.10643335,0.04756766,-6.787937,-0.22192164,0.2119814,1.572829,-1.0599661,0.28599054,9.547472,83.77783551413637,-10.33967851123425,79.9848647749721,326.4764672741126,36.85342397071027,10.903539965830817
1731217589953947,-0.103122935,0.049196754,-6.761589,-0.23975624,0.21621089,1.7270464,-1.1146626,0.26434287,9.638585,89.08504738850935,-9.778189434429555,80.24807700932217,331.70074214831135,35.09306730029353,16.450764646880504
1731217589961947,-0.10169007,0.050067615,-6.7474856,-0.24899095,0.21818185,1.8049256,-1.1543388,0.2463702,9.734899,91.77904974870825,-9.514886538455663,80.4237247315795,336.7502950248618,32.91286199673638,21.955965282164836
1731217589969947,-0.100405134,0.050974518,-6.7327566,-0.25838614,0.22007254,1.8833163,-1.1743977,0.23633613,9.79884,94.49801538902742,-9.258227343585295,80.62047369461166,339.8707050398974,32.08239935879604,24.59362037902081
1731217589977947,-0.09926806,0.051916394,-6.717399,-0.2680253,0.22184871,1.9622438,-1.2048967,0.2220217,9.865939,97.24200417946292,-9.009435017329688,80.83725410933882,342.998598804437,31.09904078195089,27.097551840893104
1731217589993947,-0.09743803,0.053900123,-6.6847787,-0.28782082,0.22509979,2.1218064,-1.2372191,0.20319222,9.972661,102.80802605090186,-8.540981230425128,81.32777316517858,347.876366964934,29.27836168153498,30.657440989986
1731217590001947,-0.09674419,0.05493961,-6.6675067,-0.29795808,0.22655393,2.2024772,-1.2671574,0.18176807,10.083854,105.63184218237551,-8.323767139220733,81.60146105710268,352.97701643420623,27.151761400549443,34.210986490511125
1731217590009947,-0.09621255,0.056008708,-6.6495876,-0.3082832,0.2279471,2.2837822,-1.2906417,0.17414613,10.163128,108.48480882775911,-8.120252906674994,81.89578440371925,356.62083067295004,25.439279068217388,36.7904183270714
1731217590017947,-0.09617801,0.058481026,-6.6313505,-0.31888607,0.2300126,2.36546,-1.3253577,0.25818682,10.209709,111.36693860767338,-7.925599668266622,82.20599324690417,360.2662224892833,24.331654801046476,38.77610539811498
1731217590033947,-0.096523985,0.06342808,-6.5928807,-0.34048167,0.23365964,2.5309854,-1.3497248,0.22794026,10.345339,117.22463735831948,-7.57648252243842,82.87787404979873,366.10617191538165,21.819821614262583,41.992550180910484
1731217590041947,-0.09690435,0.0659016,-6.5726366,-0.3514569,0.23525622,2.6149132,-1.3719051,0.1995731,10.490983,120.20609124736941,-7.434662831631783,83.24858529476715,372.6817361312411,17.727461350829564,46.33890562105286
1731217590049947,-0.0974222,0.068374224,-6.551712,-0.36243227,0.23666777,2.699626,-1.37192,0.17644277,10.589092,123.22695817940557,-7.318537905260725,83.64341114074429,377.60836650452006,14.515615796382333,49.35323074714197
1731217590057947,-0.09807713,0.070844874,-6.5301,-0.37347686,0.23788242,2.785221,-1.3805739,0.15183166,10.69939,126.29093892114382,-7.232581154613845,84.06398133810855,382.9975927172814,10.744593830859937,52.571274670532326
1731217590073947,-0.099797554,0.07577626,-6.4847846,-0.395808,0.23973164,2.9594464,-1.3956968,0.11557619,10.889083,132.56668438593843,-7.177840339047345,84.9919921218719,392.2340915496621,3.4213009729062906,58.00067398520953
1731217590081947,-0.10086845,0.07822926,-6.4610643,-0.40707242,0.24031393,3.0482838,-1.4080516,0.072786584,11.104672,135.78898163345605,-7.225207410843557,85.50432634760831,402.78715593970463,-5.920883974526509,64.04177821705085
1731217590089947,-0.10207532,0.08067546,-6.436623,-0.41829145,0.24061757,3.138367,-1.402378,0.03795512,11.260389,139.07563676750524,-7.333302355181099,86.04910783359884,410.8318917561485,-13.511868042192773,68.09768574881589
1731217590097947,-0.10341756,0.083112806,-6.4114504,-0.42959404,0.2405952,3.2299688,-1.4128237,-0.0027958301,11.450231,142.43693835230494,-7.513191601163042,86.62697966813336,420.1626980999603,-22.486155747742824,72.23397931681441
1731217590113947,-0.10650613,0.0879513,-6.3588576,-0.45198208,0.23938134,3.418258,-1.3992525,-0.07586647,11.768072,149.437847108784,-8.143268119096126,87.88077330607184,437.55679727994243,-39.37978237081778,78.36210237115577
1731217590121947,-0.10824543,0.090346545,-6.3314137,-0.4621245,0.23811601,3.5142057,-1.2678019,-0.1581665,11.993467,153.09294904631628,-8.616725999089416,88.54603473932866,456.8877421915344,-59.182234999161224,83.15767915710136
1731217590129947,-0.11010372,0.092721395,-6.303195,-0.47110325,0.23635745,3.6109836,-1.1223443,-0.21982005,12.097239,156.8473326706619,-9.199490677519739,89.22011461536096,469.2979530432038,-72.84558480379036,84.25998450403826
1731217590137947,-0.11207109,0.09507189,-6.2741933,-0.4789374,0.23400564,3.7088413,-0.979267,-0.29397568,12.232214,160.6941748055108,-9.886011570309277,89.88675407025873,480.8552668561124,-85.81511159869228,83.3299318622208
1731217590153947,-0.124361455,0.10149009,-6.216219,-0.49616656,0.22784105,3.906582,-1.076823,-0.3852872,12.358799,168.65636547762148,-11.586922436930406,91.16088658370005,497.6369170069165,-106.3069291638206,79.63328209008242
1731217590161947,-0.13052066,0.10460822,-6.185984,-0.50232756,0.22383074,4.0065107,-0.7701255,-0.50128806,12.491076,172.7647742226596,-12.587091041742136,91.73968866023085,513.5510931297661,-125.02107560146605,72.35025956635124
1731217590169947,-0.13666941,0.10766518,-6.154929,-0.5061912,0.2201833,4.102947,-0.48295406,-0.4559308,12.054562,176.94756944496527,-13.659170414293824,92.25351092683931,522.8494027882076,-134.00992156896112,64.22778332605608
1731217590177947,-0.14279328,0.1106648,-6.1230817,-0.50833046,0.21688133,4.1964326,-0.2674088,-0.4127454,11.685669,-178.80174827420433,-14.788899527044325,92.69212079864086,531.3352851037997,-141.21613909381264,54.826233975194825
1731217590193947,-0.15492886,0.11650227,-6.0570865,-0.50901157,0.21079215,4.3778696,-0.04256889,-0.38057378,11.339813,-170.1037340018027,-17.16694935936691,93.31562371624776,543.6258920251022,-148.6281145201616,38.96893235043046
1731217590201947,-0.16092697,0.11934325,-6.0229645,-0.5079039,0.20786545,4.4667735,0.13846159,-0.36583838,11.1129875,-165.65197940473266,-18.392107103311233,93.49059428708651,556.4693246337565,-153.14471799303996,21.871321354845488
1731217590209947,-0.1668711,0.12213379,-5.9881053,-0.5059405,0.20497975,4.554842,0.24542211,-0.36071238,11.00856,-161.1248392139177,-19.629469894499824,93.56914686260201,565.8925238518653,-154.67034889857425,9.819071939437412
1731217590217947,-0.1727561,0.1248747,-5.9525156,-0.50314736,0.20209898,4.6421876,0.34914163,-0.36009586,10.9182,-156.51621678548145,-20.872103026286148,93.54721929537108,576.0778035545346,-155.3291414732902,-2.740945903866661
1731217590233947,-0.18439786,0.13015758,-5.879168,-0.49540642,0.19612181,4.815039,0.48380902,-0.37357304,10.803222,-147.02917968814893,-23.36024577501993,93.18809917764844,592.9398185832821,-155.50892179586154,-22.445007357665197
1731217590241947,-0.19011149,0.13272479,-5.841422,-0.49039245,0.19317366,4.9005194,0.62674654,-0.36851874,10.685026,-142.13940478657673,-24.59040840284019,92.84247037446833,611.2218626965238,-153.77032847753233,-43.2036003975139
1731217590249947,-0.19574755,0.13524361,-5.802969,-0.48465845,0.19027485,4.9853373,0.71674955,-0.3623515,10.602235,-137.14530190656532,-25.794395048208564,92.38077830252868,624.2628600014277,-150.498330671047,-57.71150899245638
1731217590257947,-0.20130186,0.13771504,-5.763815,-0.47826603,0.18746118,5.069441,0.79905236,-0.35170835,10.512947,-132.04197869780657,-26.96191490592118,91.80147924459357,637.9154010948447,-145.93998221407662,-72.41238224188972
1731217590273947,-0.2128141,0.14215791,-5.682819,-0.46385327,0.1820251,5.23555,0.9007975,-0.33975485,10.381817,-121.48763971308209,-29.14645175407511,90.28981072845686,659.6461865452793,-136.53355300962056,-94.47928225854369
1731217590281947,-0.21842143,0.14432007,-5.6413083,-0.45583192,0.1795563,5.3174267,1.0026693,-0.30860117,10.234593,-116.02698473965201,-30.14353371452712,89.35883667951498,682.5818716787612,-124.63524505650157,-116.37175611773516
1731217590289947,-0.22397037,0.14641826,-5.5991306,-0.44747075,0.17705986,5.398455,1.045145,-0.3120545,10.128557,-110.43960414005744,-31.06362430003239,88.3132017027413,698.42257494932,-115.0113231881588,-130.70437209671056
1731217590297947,-0.22941507,0.14847851,-5.5562944,-0.43872043,0.17481788,5.4786024,1.0937899,-0.280248,10.018408,-104.72080534167799,-31.91639331696514,87.1555851986969,714.8498497974322,-106.59612711659383,-144.70206300555003
1731217590313947,-0.2399844,0.15249471,-5.4686756,-0.42050657,0.17116852,5.636149,1.1383667,-0.22808461,9.846657,-92.91355692160657,-33.316409190158055,84.53391147827479,737.9530262544635,-87.50099207455719,-163.85460752638122
1731217590321947,-0.24510756,0.1544563,-5.423908,-0.41124403,0.16985336,5.713503,1.1578164,-0.16439518,9.669244,-86.84195692605198,-33.84287200257314,83.09607054117593,758.9499994443246,-65.8078515518856,-179.73011713735707
1731217590329947,-0.25012323,0.15639094,-5.3785124,-0.40199155,0.16886093,5.7899394,1.156561,-0.12405402,9.554564,-80.67316251623443,-34.242506377084915,81.5963147811345,771.0993012271937,-49.95429681397177,-187.46947000518085
1731217590337947,-0.25503245,0.15830183,-5.332496,-0.39283562,0.16825975,5.8654537,1.1444911,-0.075146556,9.439289,-74.41950000271235,-34.50956142928437,80.0543156464853,781.7078141902592,-33.38188152493161,-192.7498918311483
1731217590345947,-0.2598368,0.16019249,-5.2858663,-0.38385022,0.16804317,5.94008,1.123175,-0.027073545,9.328305,-68.09360265892484,-34.64025321593593,78.49045054353542,790.7371679734393,-16.33647333144487,-195.4831378687367
1731217590353947,-0.2645384,0.1620665,-5.2386303,-0.37508628,0.16823334,6.013864,1.0954924,0.023771076,9.222984,-61.707992323908975,-34.6326781812793,76.92510875032329,798.201291876982,0.9468793320781186,-195.66772415151544
1731217590369947,-0.2736757,0.16571511,-5.142368,-0.3586401,0.16960908,6.1588593,1.0278858,0.08598435,9.062201,-48.80290003595182,-34.211581916229036,73.86386332146033,806.5682679973222,26.318516565641616,-191.32783930393452
1731217590377947,-0.2781036,0.16752769,-5.093355,-0.35111475,0.17097959,6.23018,0.9406693,0.17131305,8.915067,-42.31124064366554,-33.801320451384264,72.40755126367328,811.4574240357849,51.28268310559659,-182.03900722338102
1731217590393947,-0.286518,0.17068216,-4.9928207,-0.33783475,0.17486075,6.3709536,0.8300002,0.24257226,8.798361,-29.327771801257203,-32.59889400274075,69.74909879440668,811.4668026505212,75.15165304021941,-166.15327932916287
1731217590401947,-0.29052064,0.17204304,-4.9413295,-0.33225814,0.17737974,6.440534,0.69707626,0.31487456,8.697569,-22.856739898905467,-31.82748820851968,68.58227707125128,808.8789877939672,96.42572427763409,-145.85271539442417
1731217590409947,-0.29445812,0.17342414,-4.889293,-0.32745454,0.18033732,6.5095844,0.60044974,0.36969778,8.631289,-16.40707791372475,-30.9574744266632,67.54180677160392,806.2077481475895,108.75172273206006,-130.05878745592145
1731217590417947,-0.2983374,0.17482905,-4.8367147,-0.3235268,0.18371513,6.578205,0.49096715,0.42222625,8.577585,-9.979827385118504,-30.00080840266162,66.63708974455119,803.4063160757806,119.58325300019753,-113.08962838159057
1731217590433947,-0.3058798,0.17789121,-4.729943,-0.31840214,0.19215165,6.7145615,0.32029113,0.52728224,8.522272,2.8083977320325912,-27.875124535472175,65.26153784898595,799.2640698219434,132.85524169934024,-85.97199347282738
