timestamp,x,y,z,vx,vy,vz,ax,ay,az,roll,pitch,yaw
1729571875284772,-0.2569524,0.12668286,-2.7720802,-0.019314814,0.019570524,0.058764074,0.0,0.0,0.0,-0.324743413045646,-0.14240804335465515,89.34095554165866
1729571875300909,-0.25836998,0.1268706,-2.7713346,-0.01806365,0.019315295,0.058813907,0.077533916,-0.015816381,0.0030881334,-0.33159525110733973,-0.13764726722214904,89.34070303708691
1729571875309122,-0.25904882,0.12696755,-2.7709568,-0.01742819,0.019150244,0.058796886,0.077372454,-0.02009629,-0.002072428,-0.33558643908456287,-0.1357816464320819,89.34045037544547
1729571875317272,-0.2597081,0.12706624,-2.770576,-0.01678092,0.019003939,0.058763497,0.07941953,-0.017951557,-0.0040969052,-0.339880338288161,-0.13403890282590716,89.34017714594353
1729571875325491,-0.26037827,0.12716773,-2.7701921,-0.016165633,0.018851075,0.058691707,0.07486161,-0.018598802,-0.008734648,-0.3443529066509095,-0.13242227805606996,89.33983911247223
1729571875341652,-0.2616611,0.12737519,-2.7694175,-0.014915639,0.018540518,0.05851116,0.07734633,-0.019216444,-0.011171722,-0.35343088158540775,-0.12956279587831823,89.3386335825116
1729571875349886,-0.2622743,0.12748091,-2.76905,-0.014281472,0.01839389,0.058389414,0.07701802,-0.017807784,-0.014785793,-0.3576965184490934,-0.12844972568621374,89.33805297487403
1729571875358054,-0.26286906,0.12758788,-2.7686796,-0.013647484,0.018243376,0.05826147,0.07761858,-0.018427143,-0.01566419,-0.3617990069513505,-0.12756394665780102,89.33739382512192
1729571875366291,-0.26344562,0.12769601,-2.7683072,-0.012991108,0.01809701,0.058089986,0.079686254,-0.017769413,-0.02081857,-0.3655718644049194,-0.1268733354570794,89.33674492000972
1729571875382446,-0.26454544,0.12791537,-2.7675567,-0.011700113,0.017797662,0.057743546,0.079913005,-0.018529715,-0.021444803,-0.37258913435295954,-0.12638245443228743,89.33553581732046
1729571875390683,-0.26506916,0.12802638,-2.7671785,-0.01103526,0.017665014,0.05755291,0.08071549,-0.016103955,-0.023143655,-0.37589005486601346,-0.12627407827663992,89.33497240290416
1729571875398861,-0.26594612,0.12887663,-2.7677894,-0.010503922,0.017796896,0.057200108,0.06497165,0.016126525,-0.04314057,-0.37908097398815327,-0.12613854138148803,89.33448745139523
1729571875407114,-0.26679766,0.1297104,-2.7683728,-0.009969842,0.017891455,0.056839194,0.06471343,0.011457536,-0.043731198,-0.3822969988242778,-0.12613962194137768,89.33415267490204
1729571875423276,-0.2684266,0.1313299,-2.7694938,-0.008877189,0.018063156,0.05613717,0.067606285,0.010623715,-0.043436673,-0.3886841157266888,-0.12622089071740508,89.33356865239172
1729571875431518,-0.2692049,0.13211653,-2.7700155,-0.00831037,0.018138073,0.055829246,0.068771996,0.009089718,-0.03736048,-0.39196692009218426,-0.12598833021701636,89.33322037524123
1729571875439686,-0.2699597,0.13288826,-2.770512,-0.0077299075,0.018218014,0.05555526,0.071065456,0.009787097,-0.033543576,-0.3952951569063548,-0.12552002090385078,89.33292316219732
1729571875448017,-0.27069137,0.13364543,-2.770984,-0.00713589,0.018272338,0.055296846,0.07130207,0.0065207114,-0.031018598,-0.3984593986742481,-0.1246954603588577,89.33272505990081
1729571875464178,-0.27208677,0.13511755,-2.7718568,-0.005893535,0.018385215,0.05484505,0.076873645,0.006984487,-0.027955927,-0.4042348078852897,-0.12177622808669357,89.33222656836222
1729571875472417,-0.27275118,0.13583322,-2.772276,-0.005253697,0.018430984,0.05467448,0.07765969,0.0055551543,-0.020702738,-0.40704788856778,-0.11959616560546173,89.33198077736117
1729571875480567,-0.27343494,0.13653779,-2.7726722,-0.004659863,0.018469904,0.05455014,0.07286302,0.0047754566,-0.01525632,-0.4098120137833368,-0.11670022594114653,89.33168030871245
1729571875488800,-0.2740971,0.13722946,-2.7730455,-0.0040675327,0.018491935,0.05447441,0.07194589,0.002675983,-0.009198522,-0.41229848395852614,-0.11330762946123833,89.3307377253486
1729571875504973,-0.27535832,0.13857535,-2.7737253,-0.0028594674,0.018548736,0.0544648,0.07469643,0.0035121106,-0.00059427746,-0.41699912863199706,-0.10523104947561442,89.32872283414014
1729571875513231,-0.275958,0.13923025,-2.7740326,-0.0022246996,0.01856111,0.05448366,0.076867014,0.0014983715,0.0022839846,-0.41918777250902745,-0.10063255049398881,89.32775293236374
1729571875521395,-0.27653742,0.13987345,-2.7743185,-0.0015843671,0.018558985,0.054536816,0.07843367,-0.00026032314,0.0065110447,-0.42130360666809347,-0.09578285559367833,89.32681717937871
1729571875529733,-0.27668893,0.14040989,-2.774805,-0.00076992525,0.018474992,0.05456258,0.097678326,-0.01007343,0.0030899628,-0.4233787002329491,-0.09066552968585898,89.32595671421454
1729571875545896,-0.2769493,0.14145799,-2.7757332,0.00085913093,0.01829048,0.054632083,0.10078922,-0.011415687,0.004300114,-0.42769637953182754,-0.07996746721821742,89.32475805765081
1729571875554149,-0.2770583,0.1419699,-2.776159,0.0016962219,0.018186014,0.054731324,0.10142869,-0.012657998,0.012024929,-0.4297578112799112,-0.07450308413176343,89.3239248317916
1729571875562314,-0.27715713,0.14247265,-2.77656,0.0025527626,0.018091569,0.054862157,0.10490395,-0.0115671065,0.016023539,-0.4315106384545285,-0.06896327610271197,89.323149618468
1729571875570566,-0.2772456,0.14296643,-2.7769365,0.0034094416,0.017988801,0.05502464,0.1038147,-0.012453673,0.019690046,-0.43282023657056523,-0.06323589186566048,89.32241196873497
1729571875586742,-0.27739206,0.1439271,-2.7776182,0.005116997,0.01772378,0.055381216,0.10556103,-0.016383585,0.022043604,-0.4338765658749578,-0.051748655137716315,89.32098451813657
1729571875595116,-0.27745005,0.14439406,-2.7779405,0.0059794635,0.01757171,0.05560737,0.10299339,-0.01815979,0.027006797,-0.4338760072396016,-0.04613733251994032,89.32020247573041
1729571875603308,-0.2774979,0.14485219,-2.7782395,0.0068453187,0.017412342,0.055870656,0.105695225,-0.019454092,0.032139268,-0.433622764643426,-0.04042515830756087,89.3194751117129
1729571875611586,-0.27753565,0.1453016,-2.7785156,0.007696625,0.017248843,0.056167834,0.10283959,-0.019751059,0.035899684,-0.4331589669625127,-0.03464453585039767,89.31861786166661
1729571875627775,-0.27757975,0.146157,-2.7790003,0.009422592,0.01686462,0.05676548,0.10661357,-0.023733567,0.03691694,-0.4308042789617634,-0.02400966310001526,89.3171698014549
1729571875636049,-0.27758607,0.14656319,-2.7792099,0.010290919,0.01665205,0.057071105,0.10494646,-0.025691401,0.036937732,-0.4289036240137575,-0.019184761097222496,89.31720399067382
1729571875644227,-0.27758247,0.1469612,-2.7793984,0.0111548295,0.016445793,0.0573776,0.10563837,-0.025220871,0.037477933,-0.4267146952403889,-0.014672860663366467,89.31732017702542
1729571875652488,-0.2773608,0.14670493,-2.7802484,0.012031174,0.015930392,0.057514418,0.106082164,-0.06238971,0.016562007,-0.42423642661814664,-0.01024693799608303,89.31748404923658
1729571875668662,-0.2769056,0.14620914,-2.7818632,0.013737682,0.014872866,0.057777278,0.10550933,-0.06538433,0.016252022,-0.41846511992306984,-0.0011043028506419164,89.31440686072031
1729571875676927,-0.27667198,0.14596887,-2.7826169,0.014582411,0.014355049,0.057917934,0.10220558,-0.06265181,0.017018244,-0.4151869936818836,0.0030378066760657655,89.31301343858931
1729571875685115,-0.2764342,0.14573334,-2.783336,0.015427764,0.013834054,0.058099907,0.103242815,-0.063629076,0.02222435,-0.41138696229224847,0.006868208794146182,89.31154826377566
1729571875693395,-0.27622607,0.14550103,-2.7840207,0.01623651,0.013298951,0.058307648,0.097674705,-0.06462592,0.02508947,-0.40708756837116283,0.01000766792798318,89.31007276220575
1729571875709584,-0.27579603,0.14504822,-2.78529,0.017800895,0.012214319,0.058866084,0.096632615,-0.0669981,0.034494776,-0.3965398343381373,0.013998472843207248,89.30672230386816
1729571875717858,-0.27557427,0.14482705,-2.7858896,0.018559031,0.011671603,0.05921375,0.09162868,-0.06559295,0.042019147,-0.3904462072398625,0.015028937646668029,89.30499072976383
1729571875726048,-0.27534813,0.14460911,-2.7864568,0.01931617,0.011136906,0.05958232,0.09244678,-0.0652865,0.045002323,-0.38363084110007556,0.01534734186705437,89.30332403768924
1729571875742423,-0.2748825,0.14418186,-2.7874968,0.020811487,0.010063374,0.060412284,0.09131705,-0.06555919,0.05068488,-0.36800719358526607,0.013816565690343813,89.30022640257972
1729571875750624,-0.27464303,0.14397222,-2.7879703,0.021549664,0.009548155,0.060860243,0.09001066,-0.06282401,0.05462245,-0.3595730399714145,0.012023013997522378,89.29869963546018
1729571875758919,-0.27439928,0.14376506,-2.7884138,0.02225823,0.0090400325,0.061337795,0.08542075,-0.06125644,0.05757112,-0.35093121031827124,0.009673842427374527,89.29727885352084
1729571875767144,-0.27413487,0.1435544,-2.7888277,0.022985615,0.008525393,0.06182245,0.088435896,-0.062570155,0.058924805,-0.34229487097334454,0.006919115048172399,89.29592986710024
1729571875775466,-0.27386636,0.1433459,-2.7892127,0.023701979,0.008021726,0.062306058,0.08608075,-0.060522318,0.058111757,-0.3337964669855866,0.0037513880228172204,89.29487451478133
1729571875791672,-0.27317432,0.14268768,-2.7902372,0.025309352,0.006975569,0.063154966,0.09918384,-0.06455371,0.052382328,-0.31675002828056614,-0.003997248153073509,89.29365175133093
1729571875799978,-0.27282307,0.14236586,-2.7907035,0.02608203,0.0064503322,0.06358196,0.09302641,-0.063235804,0.051407747,-0.3084232958444828,-0.008557906896729072,89.29354256082472
1729571875808185,-0.2724684,0.14204861,-2.79114,0.026837895,0.005955045,0.06398496,0.092100054,-0.060349353,0.049104657,-0.30009407324572096,-0.013429339310182899,89.29336149036627
1729571875816591,-0.2721105,0.14173597,-2.791548,0.027564963,0.005472528,0.06438021,0.086494006,-0.057401534,0.047020376,-0.2917668334938351,-0.018404225179564197,89.29323851419639
1729571875832792,-0.27138513,0.14112413,-2.7922792,0.028991463,0.0045364285,0.06526792,0.088050075,-0.05778034,0.054793335,-0.27466471281821175,-0.02937547096840034,89.29299943364111
1729571875841089,-0.27101767,0.14082462,-2.7926185,0.029689502,0.0040805684,0.065719195,0.08413153,-0.054942757,0.054390047,-0.2659651577707811,-0.035381262603397,89.29298569002246
1729571875849286,-0.27063212,0.14052959,-2.7929308,0.030393347,0.0036522483,0.06617801,0.08586619,-0.05225328,0.05597343,-0.2572609061591349,-0.041391343506812235,89.29298569002246
1729571875857575,-0.27024367,0.14023875,-2.7932165,0.031056654,0.0032258132,0.06663199,0.08002251,-0.05144591,0.054768823,-0.24836561210467473,-0.04731608749252376,89.29321102701171
1729571875873769,-0.26945862,0.13966918,-2.7937105,0.032327615,0.0024117879,0.067528605,0.07848345,-0.05026709,0.05536728,-0.23002422082899918,-0.05911901967618246,89.29375052898257
1729571875882057,-0.26906216,0.1393903,-2.7939203,0.032952663,0.002022215,0.06800692,0.075416006,-0.047004458,0.057711437,-0.22095558120305064,-0.06507131292263021,89.29412599273402
1729571875890252,-0.268663,0.1391153,-2.7941058,0.033566393,0.0016495044,0.068465546,0.07489084,-0.045480236,0.055964362,-0.21185246825236476,-0.0711424682626507,89.2944743482697
1729571875898542,-0.2682612,0.13884413,-2.7942677,0.03415882,0.0012860764,0.068914235,0.07146266,-0.043839328,0.054124106,-0.2026976602388338,-0.0774631199665361,89.29479521697887
1729571875914734,-0.26680326,0.13797967,-2.795803,0.0355194,0.0006235039,0.06940543,0.08402793,-0.040919743,0.030335624,-0.18441995342792633,-0.09009927695065827,89.29704584849726
1729571875923020,-0.2660812,0.13755828,-2.7965145,0.036173597,0.00032229675,0.06966783,0.07895223,-0.03635133,0.031668115,-0.17528499751886203,-0.09643135762128893,89.29919057866307
1729571875931211,-0.26536408,0.13714541,-2.7971897,0.03679951,2.396058e-05,0.069942325,0.076414615,-0.03642244,0.033511695,-0.16610733388503227,-0.102736145349563,89.30137266461306
1729571875939498,-0.2646517,0.13674091,-2.7978292,0.037421744,-0.00025261595,0.07024346,0.07508571,-0.03337475,0.036338553,-0.1568459268564558,-0.10899872581079054,89.3035448401288
1729571875955691,-0.26324043,0.13595627,-2.7990043,0.038598742,-0.0007775582,0.070887186,0.07268561,-0.03241785,0.039753146,-0.13800941529020821,-0.12158015319059402,89.30800496592478
1729571875963983,-0.26254147,0.13557588,-2.799553,0.039163224,-0.0010305652,0.07126579,0.0680755,-0.030512188,0.04565862,-0.12808061549155852,-0.12790353596949586,89.3102658051845
1729571875972181,-0.2618468,0.13520306,-2.8000681,0.039703157,-0.0012938873,0.071703345,0.06586148,-0.03212028,0.053373717,-0.11805031796068423,-0.13433529649614762,89.3125777451876
1729571875980474,-0.2611564,0.13483767,-2.8005502,0.040220343,-0.0015289516,0.072188914,0.062364135,-0.028344905,0.0585517,-0.10779962165372638,-0.14099507032926692,89.31482826022035
1729571875988668,-0.26047778,0.13448042,-2.8009999,0.04072253,-0.0017492899,0.07268294,0.06128725,-0.026890205,0.06029114,-0.09744074318668386,-0.1475915865662414,89.31719150775011
1729571876005050,-0.25913218,0.13378735,-2.801804,0.041675247,-0.002166385,0.073736526,0.058156326,-0.025460577,0.06431367,-0.07636605390138636,-0.1607460049273747,89.32160034279278
1729571876013247,-0.25846523,0.13345134,-2.8021598,0.042108886,-0.0023474293,0.07430005,0.05290212,-0.022086643,0.06874767,-0.06550878937653325,-0.1672806817908033,89.32383029307393
1729571876021539,-0.25780222,0.13312224,-2.802485,0.042515527,-0.002521418,0.07486309,0.04904022,-0.020982726,0.06790164,-0.054608142813999345,-0.17393621037824988,89.32608760429828
1729571876037734,-0.2560114,0.13266669,-2.803244,0.04343807,-0.0026829331,0.075920716,0.056964625,-0.009973145,0.06530564,-0.03234527512978014,-0.18681793097404711,89.3304792558397
1729571876046022,-0.25489524,0.13253698,-2.8036623,0.043925636,-0.0026814982,0.07638271,0.058827944,0.00017313409,0.055742715,-0.021131317855795285,-0.1927634831853355,89.33429733210893
1729571876054212,-0.25379425,0.13241075,-2.804049,0.044381484,-0.002652661,0.07684668,0.0556592,0.0035210303,0.05665079,-0.009945642298320779,-0.1984181657164941,89.33803357262572
1729571876062212,-0.25270882,0.1322944,-2.804405,0.044800553,-0.002612379,0.07732889,0.05238363,0.0050352532,0.060276125,0.0010737672164349418,-0.20395700303428121,89.3417799809695
1729571876070212,-0.25163805,0.13218147,-2.804731,0.0452108,-0.0025901143,0.07780181,0.051280946,0.0027830827,0.059114765,0.012002176402571358,-0.20946972194603886,89.34538975703084
1729571876086212,-0.24953909,0.13196562,-2.8053062,0.04597353,-0.0025011213,0.0787485,0.047670443,0.005562062,0.059168316,0.033690497395534105,-0.21942471236036604,89.35245227009554
1729571876094212,-0.24851027,0.13186277,-2.8055565,0.046323456,-0.0024633799,0.07923214,0.043740958,0.0047176727,0.06045494,0.0446319557859409,-0.22375121598925646,89.35587078047674
1729571876102212,-0.2474949,0.1317632,-2.805779,0.046658248,-0.002412256,0.0797341,0.041848976,0.0063904733,0.062745064,0.05556533582239015,-0.22777612296704644,89.35924839088914
1729571876118212,-0.24550338,0.13157359,-2.8061419,0.047257654,-0.0023446328,0.08069511,0.037462916,0.0042264583,0.06006285,0.07749617307283106,-0.23496116703442133,89.36576802534331
1729571876126212,-0.24452679,0.1314834,-2.8062837,0.04752691,-0.0022982908,0.081179835,0.033657067,0.005792739,0.06059091,0.08823681026904626,-0.23810697620201776,89.36895436725084
1729571876134212,-0.24356271,0.13139635,-2.8063998,0.047762293,-0.0022434993,0.08167403,0.029422807,0.0068489457,0.061774623,0.09890646976310508,-0.24085884610443464,89.3719323632722
1729571876142212,-0.24259149,0.13130029,-2.806491,0.048000947,-0.0021975916,0.08213172,0.029831657,0.00573846,0.057211142,0.10936847718038309,-0.243177422527445,89.3749138876071
1729571876158212,-0.24068592,0.1311177,-2.8066273,0.048416622,-0.0020934946,0.08301456,0.025979707,0.0065060593,0.0551776,0.1302351176124561,-0.24639524472636992,89.38127303245915
1729571876166212,-0.24052338,0.13060522,-2.8061414,0.048224572,-0.0021255952,0.08349791,-0.024006234,-0.004012574,0.060418617,0.1409517597564717,-0.24734456979175015,89.3843570066752
1729571876174212,-0.24035612,0.13010666,-2.8056464,0.048028734,-0.002159503,0.083974585,-0.024479812,-0.004238478,0.059584152,0.15218988885844362,-0.24804579131220295,89.38579825357853
1729571876182212,-0.24018435,0.1296216,-2.8051426,0.04782922,-0.002190508,0.084427506,-0.02493942,-0.0038756113,0.056615096,0.1634827232147001,-0.24872684227734226,89.38724978188775
1729571876190212,-0.2400084,0.12914969,-2.8046303,0.047617573,-0.002223592,0.084871106,-0.026455613,-0.0041355086,0.05545001,0.17487516726060326,-0.24928081320309148,89.3885406261016
1729571876206212,-0.23964903,0.12823817,-2.8035977,0.047176085,-0.0023090679,0.085631564,-0.02759299,-0.0053422404,0.047528647,0.19723733001990842,-0.250467836663917,89.39082209252548
1729571876214212,-0.23946625,0.12779783,-2.803078,0.046916135,-0.0023460465,0.08594328,-0.032493845,-0.0046223286,0.038964674,0.20772762777389361,-0.2511795171783254,89.39218476016991
1729571876222212,-0.23928043,0.12736917,-2.8025508,0.046675164,-0.0023952692,0.08621726,-0.030121299,-0.0061528403,0.034247525,0.21761591940602393,-0.25233753890651206,89.3934586396775
1729571876238212,-0.23890081,0.1265453,-2.8014753,0.046112478,-0.0024672677,0.0866764,-0.035167903,-0.004499903,0.02869591,0.23547695779602545,-0.2556935960096241,89.39559646249805
1729571876246212,-0.23870765,0.12614958,-2.8009276,0.04582457,-0.002499277,0.0868426,-0.035988633,-0.0040011653,0.02077501,0.24357787738495926,-0.25762031565578636,89.39643998835683
1729571876254212,-0.23851246,0.12576427,-2.8003738,0.045547336,-0.0025249547,0.08698727,-0.034654047,-0.0032097157,0.018084422,0.25097785023496494,-0.25966437731327324,89.39715025985592
1729571876262212,-0.23831551,0.1253891,-2.7998145,0.04523518,-0.002534729,0.08706769,-0.039019622,-0.0012217788,0.010052695,0.25765886764206714,-0.2619159618246934,89.39786049573496
1729571876278212,-0.23792422,0.12466665,-2.798714,0.044633556,-0.0025504897,0.087110996,-0.03760145,-0.0009850482,0.0027064232,0.269195723643772,-0.2670503977947687,89.39888825001132
1729571876286212,-0.2372098,0.12462426,-2.797926,0.044522908,-0.0023057314,0.087103255,-0.013831071,0.030594788,-0.0009676441,0.2739353046849984,-0.26987204394766207,89.39940728569327
1729571876294212,-0.23650602,0.12458622,-2.79714,0.04442794,-0.0020668248,0.0870955,-0.011871102,0.029863322,-0.00096950674,0.27781608240789085,-0.27296959617299393,89.40394258440098
1729571876302212,-0.23581262,0.124552414,-2.7963552,0.044312015,-0.0018259176,0.08708214,-0.014490447,0.030113397,-0.0016698613,0.281115052305598,-0.27610042007418323,89.40844049860964
1729571876318212,-0.23445651,0.124497466,-2.7947915,0.04405814,-0.0013280266,0.086878575,-0.015867176,0.031118184,-0.012722797,0.28643974679781703,-0.28218691123383305,89.41690673307647
1729571876326212,-0.23379353,0.12447622,-2.794032,0.043907233,-0.0010817637,0.08668347,-0.018863473,0.030782873,-0.024388542,0.2885860300198738,-0.2851588003190026,89.42091607025067
1729571876334212,-0.23314023,0.12445894,-2.7932754,0.0437628,-0.0008661951,0.08643555,-0.018054154,0.026946064,-0.030989757,0.29020443439568,-0.28781783153921897,89.42482661665893
1729571876342212,-0.23249632,0.12444548,-2.7925215,0.043614402,-0.0006423192,0.08616759,-0.018549617,0.027984489,-0.033495016,0.29146031517565185,-0.2900626177623422,89.42865161837851
1729571876358212,-0.23119381,0.12445534,-2.7910228,0.04333868,-0.00014748827,0.08554461,-0.017232727,0.030926934,-0.03893627,0.2934363976911594,-0.2939351451885276,89.43521559853384
1729571876366212,-0.23055609,0.12446579,-2.7902782,0.043207202,8.759572e-05,0.08520979,-0.016434584,0.029385498,-0.0418527,0.29441254457647265,-0.29545960487910433,89.43791701128589
1729571876374212,-0.22992691,0.12447985,-2.7895372,0.043083426,0.00032969232,0.08483986,-0.015472061,0.030262074,-0.046241093,0.2957119875879625,-0.29675698462121375,89.44053311717859
1729571876382212,-0.22930612,0.124497496,-2.7887995,0.04294789,0.0005664249,0.084429674,-0.016942155,0.029591573,-0.05127303,0.297250345013217,-0.2974907862565739,89.44306033418455
1729571876398212,-0.22808914,0.12454314,-2.7873757,0.042623732,0.0010131211,0.083498135,-0.020259757,0.02791851,-0.05822116,0.30009203260799455,-0.2977377169345685,89.44775987613481
1729571876406212,-0.2274927,0.12457096,-2.7866693,0.042437345,0.0012212236,0.08301716,-0.02329843,0.026012814,-0.060121525,0.30131265302549515,-0.29721485357031563,89.44992510633847
1729571876414212,-0.22663595,0.124648616,-2.7870688,0.042387627,0.0014282787,0.08230543,-0.006214715,0.02588189,-0.088966444,0.30253263298510197,-0.296535934325376,89.45209726502291
1729571876422212,-0.22579218,0.12472338,-2.7874439,0.042321566,0.001627431,0.08157749,-0.008257572,0.024894033,-0.090993,0.3036629752243655,-0.2956415411275439,89.45450856998917
1729571876430212,-0.22496152,0.12480005,-2.7877955,0.042253956,0.0018179672,0.08085127,-0.008451287,0.023817016,-0.090776935,0.3046969209362448,-0.2945690271193457,89.45727838282744
1729571876446212,-0.22333783,0.12495848,-2.7884445,0.04212282,0.0021470427,0.07947827,-0.008196104,0.020567218,-0.085812524,0.3071694381957107,-0.2925493190081209,89.46260637493407
1729571876454212,-0.22254416,0.12503995,-2.7887423,0.04206365,0.0023151694,0.07886016,-0.0073960978,0.021015845,-0.07726345,0.3089760122708698,-0.2915558337425238,89.46503807095401
1729571876462212,-0.22176225,0.12512293,-2.7890184,0.041976746,0.0024793395,0.07827731,-0.010862946,0.020521255,-0.07285643,0.3112578353386408,-0.2902153118006426,89.4672410259853
1729571876478212,-0.22023304,0.12529285,-2.789507,0.041790295,0.0027861125,0.07723437,-0.011653173,0.019173311,-0.06518373,0.31690478261877597,-0.2871694089725286,89.47116532532706
1729571876486212,-0.21948509,0.12537967,-2.78972,0.041697495,0.0029324617,0.07678295,-0.011600087,0.018293649,-0.0564279,0.3200919937879946,-0.285501354561781,89.47287642517217
1729571876494212,-0.21873344,0.12547338,-2.7899132,0.041619256,0.003084252,0.07637093,-0.009779818,0.018973775,-0.051502135,0.32360198272933055,-0.2836993896903563,89.47438268781586
1729571876502212,-0.21799254,0.12556806,-2.7900863,0.04152364,0.0032250094,0.076037,-0.011952127,0.017594691,-0.041741874,0.327513075159535,-0.2818296826770867,89.47525708238209
1729571876518212,-0.21654217,0.12576011,-2.7904,0.041321862,0.0035045727,0.075460434,-0.012611038,0.017472701,-0.0360352,0.3364911930146239,-0.2782023820218995,89.47663015917117
1729571876526212,-0.2158323,0.12585725,-2.7905276,0.041195933,0.0036117968,0.07523257,-0.015741214,0.0134030115,-0.028482636,0.34150757884946553,-0.27653782407194055,89.47703663678494
1729571876534212,-0.2151324,0.12595493,-2.790636,0.041074682,0.00372921,0.07502465,-0.015156343,0.014676654,-0.025990417,0.3467690150611958,-0.2749567770514696,89.4773099919346
1729571876542212,-0.21456747,0.12557335,-2.7914383,0.040897302,0.0037029542,0.0746562,-0.02217246,-0.0032819805,-0.04605576,0.3522546113806113,-0.27317298337372126,89.4774193339555
1729571876550212,-0.21400946,0.1252038,-2.7922049,0.040700898,0.0036733232,0.07431847,-0.024550593,-0.0037038696,-0.04221685,0.3581321120163595,-0.27118121370535553,89.47670560090806
1729571876566212,-0.21292213,0.124520555,-2.793643,0.040259864,0.0036402075,0.0737533,-0.027564585,-0.0020697333,-0.035323203,0.37048716622080974,-0.26686333929455086,89.47442780322677
1729571876574212,-0.21238868,0.12419533,-2.7943158,0.04002078,0.0036164788,0.07354446,-0.029885674,-0.0029660875,-0.02610497,0.37697424400820634,-0.2646693041835234,89.47274421470362
1729571876582212,-0.21186203,0.12388052,-2.7949555,0.039774545,0.0035940271,0.0733798,-0.030779278,-0.002806453,-0.020582227,0.38362323684658095,-0.2626922369669822,89.47103318110338
1729571876598212,-0.21082929,0.12328052,-2.7961373,0.039217178,0.0035081883,0.07319628,-0.03483542,-0.005364927,-0.011470168,0.3965372830181514,-0.25994263034125087,89.46707840879422
1729571876606212,-0.21032315,0.122994594,-2.7966805,0.03894322,0.0034629984,0.07318002,-0.03424473,-0.005648733,-0.0020321459,0.4028441191793632,-0.2592925017159729,89.46483463889162
1729571876614212,-0.20982376,0.12271768,-2.797192,0.0386485,0.0034249006,0.0732245,-0.03683986,-0.0047622304,0.0055599953,0.40917499100449395,-0.2591572572501276,89.46252927180467
1729571876622212,-0.20933113,0.12244944,-2.797673,0.038351476,0.003384192,0.07329864,-0.037128106,-0.0050885715,0.009267591,0.41516094170457335,-0.2595896980329553,89.46011468931307
1729571876638212,-0.20847291,0.12192862,-2.7985656,0.037620876,0.0033188853,0.07355584,-0.04566251,-0.0040816665,0.016075093,0.42700280761423154,-0.26155601243580623,89.45579087635097
1729571876646212,-0.20805292,0.12168044,-2.7989671,0.03723747,0.003299054,0.07375324,-0.047925856,-0.0024789185,0.024674458,0.4329204592659417,-0.2628926090771808,89.45382703802824
1729571876654212,-0.2076391,0.121440135,-2.7993398,0.03684387,0.0032856034,0.07398832,-0.049199905,-0.0016813282,0.029385088,0.4386722965047454,-0.26456658344618783,89.45182215431248
1729571876662212,-0.20741215,0.12147238,-2.7999802,0.036376476,0.0034399773,0.0741566,-0.05842419,0.019296741,0.02103485,0.4441868707208764,-0.2665254813944325,89.44968408580174
1729571876678212,-0.20696425,0.12154453,-2.8011553,0.035430837,0.0037538067,0.07458892,-0.059102427,0.019614337,0.027019994,0.45447357614243855,-0.27137566283280756,89.4482870000615
1729571876686212,-0.2067435,0.12158452,-2.8017008,0.03494462,0.003924496,0.0748463,-0.060777176,0.021336162,0.03217254,0.4591873056978,-0.2740590237587884,89.44762774542363
1729571876694212,-0.20652503,0.12162707,-2.8022127,0.034469504,0.0040965695,0.075131215,-0.059389506,0.021509185,0.035614707,0.4635904028464765,-0.2769109008262051,89.44678408188994
1729571876702212,-0.20631567,0.12167015,-2.8026917,0.033991188,0.004264479,0.07543962,-0.05978951,0.020988692,0.038550235,0.46770007682765236,-0.27966774176815434,89.4458037530344
1729571876718212,-0.20590384,0.12176394,-2.8035533,0.033020407,0.0046056816,0.07614532,-0.0606738,0.021325162,0.044106502,0.4748574066296575,-0.28450138648804907,89.44425302346245
1729571876726212,-0.20570171,0.12181452,-2.803937,0.032511294,0.0047631203,0.07653043,-0.063639134,0.019679835,0.048138198,0.4781076431210089,-0.2866121012385588,89.4433785244681
1729571876734212,-0.20550223,0.12186744,-2.8042898,0.032008648,0.004915472,0.07694015,-0.062830746,0.019043975,0.051215287,0.48087241072981984,-0.2883905341330967,89.4425348593713
1729571876742212,-0.20530547,0.121922694,-2.8046126,0.03150386,0.005067141,0.07736681,-0.0630985,0.018958583,0.053332184,0.4833374291818591,-0.28968812650396736,89.44166045922852
1729571876758212,-0.20492026,0.12203999,-2.80519,0.030476773,0.005365078,0.078228176,-0.06419292,0.018621067,0.053835563,0.4871318056097114,-0.29099447031615716,89.4397409761489
1729571876766212,-0.20474991,0.12208924,-2.8054357,0.029943272,0.0054882253,0.078677066,-0.066687584,0.015393423,0.05611125,0.48841028231786654,-0.29131069081315986,89.43884280429
1729571876774212,-0.20458236,0.1221407,-2.8056529,0.02940939,0.0056114187,0.07915424,-0.06673531,0.015399185,0.05964655,0.48921119061610213,-0.2913964961739847,89.43892821209931
1729571876782212,-0.20441769,0.12219442,-2.8058426,0.02887471,0.0057463073,0.079630405,-0.066834964,0.01686107,0.059520822,0.48953748455067375,-0.29118523782720934,89.43905456615944
1729571876798212,-0.2040056,0.12242597,-2.807329,0.027845383,0.0059668114,0.0802477,-0.06433297,0.0137815075,0.03858097,0.48916990953463074,-0.28974090106214245,89.43892141559306
1729571876806212,-0.20380552,0.12254207,-2.808018,0.027334498,0.0060571376,0.08058599,-0.06386055,0.011290772,0.042285766,0.48850269139929936,-0.2883514201325242,89.43874728536147
1729571876814212,-0.20360939,0.12265825,-2.8086672,0.026836518,0.0061435285,0.08094729,-0.062247504,0.010798859,0.045162622,0.4873413345966024,-0.286569838914378,89.43850150765401
1729571876822212,-0.20341711,0.1227744,-2.8092778,0.026339285,0.006200647,0.0813312,-0.062154137,0.0071398094,0.047989186,0.4856644131187226,-0.28460616181484594,89.4382829828705
1729571876830212,-0.20322868,0.12289038,-2.8098505,0.025844336,0.0062662284,0.08173599,-0.061868686,0.008197675,0.05059875,0.483578675469341,-0.2825398708814128,89.43801330054225
1729571876846212,-0.20287402,0.12311675,-2.8108845,0.024842188,0.006376637,0.08262483,-0.06263424,0.006900547,0.055552457,0.478250198223198,-0.2783888270412144,89.43720067159036
1729571876854212,-0.20270763,0.12322686,-2.8113472,0.024335135,0.0064036655,0.08310384,-0.06338162,0.003378547,0.059876587,0.47491797864100477,-0.27639972457694767,89.4371871123493
1729571876862212,-0.20254493,0.12333671,-2.8117747,0.023833085,0.006465501,0.08358425,-0.06275624,0.007729453,0.060050745,0.47131452982273736,-0.27464821437060694,89.43722819261137
1729571876870212,-0.20238577,0.12344637,-2.8121753,0.023350108,0.0065109488,0.0840832,-0.06037205,0.005680951,0.062368806,0.46737569134800333,-0.27305262660267976,89.43715309684974
1729571876886212,-0.20207806,0.123664886,-2.8128755,0.022367181,0.0066028885,0.08511923,-0.061432943,0.005746231,0.064752065,0.4585560285475788,-0.270448480968961,89.43697220420809
1729571876894212,-0.20192957,0.123773545,-2.8131764,0.021883586,0.0066343243,0.08567218,-0.06044935,0.003929483,0.069118105,0.4538313363769115,-0.2693041714651699,89.43675367986471
1729571876902212,-0.20178443,0.12388183,-2.813445,0.021428674,0.0066788886,0.086214446,-0.056863993,0.005570531,0.06778352,0.4490464281720607,-0.2679669604743729,89.43648051609811
1729571876910212,-0.20187744,0.124017194,-2.8136752,0.020847872,0.0067169718,0.086714424,-0.07260032,0.004760397,0.06249733,0.44435506089395843,-0.26662561411866065,89.43610145483335
1729571876926212,-0.20205596,0.12428406,-2.8140552,0.019727701,0.0067828023,0.08773128,-0.070010655,0.0041144085,0.06355345,0.43503993580170186,-0.26389020076294134,89.43431204685093
1729571876934212,-0.20214292,0.12441567,-2.8142064,0.019181475,0.006800478,0.08820173,-0.06827828,0.0022094464,0.058806498,0.43040892114965207,-0.2629266536597391,89.43341036145776
1729571876942212,-0.20222841,0.124546066,-2.8143299,0.018669914,0.006831928,0.08866333,-0.06394507,0.003931287,0.057700086,0.425978246081237,-0.2622491504758468,89.43237217888472
1729571876950212,-0.20231245,0.12467528,-2.8144267,0.018145364,0.006853658,0.08909933,-0.065568835,0.002716202,0.054500062,0.4215363645818639,-0.26162594256236227,89.43123830983822
1729571876966212,-0.20247687,0.1249301,-2.8145423,0.01711885,0.006902863,0.08996856,-0.06415706,0.0030753142,0.054326836,0.41259825722556853,-0.26016090515826423,89.42879647698561
1729571876974212,-0.20255737,0.12505582,-2.8145623,0.016634192,0.0069320695,0.09039392,-0.0605823,0.0036508425,0.053170133,0.4080254602901486,-0.259153308506621,89.42745764244978
1729571876982212,-0.20263672,0.12518045,-2.814558,0.0161592,0.0069662905,0.090824366,-0.05937414,0.004277623,0.053805295,0.4034139247415368,-0.258147339457657,89.42604033211566
1729571876990212,-0.20271769,0.12529838,-2.8145387,0.01568849,0.006983523,0.091250084,-0.05883863,0.0021540327,0.053214837,0.3989225035890184,-0.25702200105875617,89.42467434920812
1729571877006212,-0.20287655,0.125531,-2.8144295,0.014779134,0.0070018875,0.092105344,-0.056834772,0.0011477969,0.05345372,0.38983083284848585,-0.2544807184834428,89.42222223934085
1729571877014212,-0.20295453,0.12564567,-2.8143406,0.014329535,0.007006907,0.09251735,-0.056199845,0.0006274203,0.051501203,0.3850477211513339,-0.25339913673322917,89.42092103841713
1729571877022212,-0.20303166,0.12575935,-2.81423,0.013887165,0.007040767,0.092905864,-0.055296227,0.004232512,0.048563812,0.3801903062880418,-0.2525879371395056,89.41954467407128
1729571877030212,-0.20310807,0.12587215,-2.8140981,0.01343626,0.007057872,0.09325018,-0.056363173,0.002138142,0.043039206,0.37529529574339815,-0.2520279896005264,89.41807621009517
1729571877046212,-0.20273134,0.1261902,-2.8140614,0.012590873,0.0072230967,0.09381159,-0.052836664,0.010326534,0.035088044,0.3655911058025389,-0.25082669183336176,89.41500244191869
1729571877054212,-0.20255335,0.12634718,-2.8140128,0.0122031355,0.0073008686,0.09406085,-0.04846719,0.009721494,0.031158326,0.36075265850545546,-0.25018694245338163,89.41337682164881
1729571877062365,-0.20238525,0.1264919,-2.813942,0.011813934,0.007353441,0.09429697,-0.047737222,0.0064482065,0.028960671,0.35592797333027787,-0.24960146160682253,89.41172032696795
1729571877078365,-0.20206793,0.12677751,-2.8137357,0.011040368,0.00743768,0.09479439,-0.048347864,0.0052649407,0.031088943,0.3463751917611823,-0.24803789383196986,89.40953120584037
1729571877086365,-0.2019185,0.12691832,-2.8136013,0.010677252,0.0074803997,0.09503352,-0.04538952,0.0053399703,0.029890796,0.34159280195058067,-0.24711130065175516,89.40842134880216
1729571877094365,-0.2017749,0.12705787,-2.8134468,0.010316337,0.0075226617,0.09526648,-0.045114312,0.005282752,0.029120592,0.33697915881563834,-0.2460313737108532,89.4071987637683
1729571877102365,-0.20163694,0.12719622,-2.8132725,0.009962889,0.007571363,0.09545122,-0.044181008,0.0060876478,0.023092141,0.3327877307560107,-0.2447644153600556,89.4058872844178
1729571877118365,-0.20137732,0.12746938,-2.8128872,0.009277117,0.007636511,0.09577326,-0.042860743,0.004071771,0.020127276,0.32539926917577483,-0.24139336650128265,89.40342504125941
1729571877126365,-0.20125534,0.12760407,-2.8126676,0.008939063,0.0076602837,0.09590201,-0.04225678,0.002971559,0.016094185,0.32190389733146985,-0.23950562966575933,89.40217503122862
1729571877134365,-0.20114477,0.12772956,-2.8124306,0.00859674,0.007669747,0.0960231,-0.042790428,0.0011828961,0.015135854,0.3185142869081652,-0.23749628266121176,89.40086024448661
1729571877142365,-0.20103905,0.12785394,-2.8121767,0.008264604,0.007691033,0.09611732,-0.04151696,0.0026607884,0.011777504,0.31514943675762563,-0.23543653619761193,89.40010209279298
1729571877158365,-0.20084174,0.1280993,-2.8116207,0.007590972,0.007687479,0.096304365,-0.042102005,-0.00022214952,0.011690426,0.308494089165869,-0.23118641574870633,89.39842535954219
1729571877166365,-0.20100603,0.12822902,-2.8115752,0.007185653,0.007722675,0.096309885,-0.050664876,0.0043995096,0.00069010997,0.3052549593911733,-0.22907595031265662,89.397636581642
1729571877174365,-0.20116858,0.12835798,-2.8115087,0.0067949225,0.0077612437,0.09628093,-0.04884129,0.0048211077,-0.0036191193,0.30238264037798096,-0.22718311913510644,89.39668726642272
1729571877182365,-0.20132945,0.12848613,-2.8114219,0.006416465,0.007780831,0.096263915,-0.047307167,0.0024483888,-0.0021271408,0.2998319525432963,-0.22540408110441504,89.3957549542676
1729571877198365,-0.20164649,0.1287397,-2.8111894,0.0056461156,0.007790646,0.09620315,-0.048146844,0.0006134505,-0.0037979332,0.2954202456853428,-0.22256152675050972,89.39379111699478
1729571877206365,-0.2017983,0.1288679,-2.8110447,0.005299677,0.007781567,0.096189,-0.04330481,-0.0011348748,-0.0017685815,0.29343949439873224,-0.22117078575496113,89.39284866899845
1729571877214365,-0.20194854,0.12899506,-2.810882,0.0049693086,0.00780023,0.09615287,-0.041296065,0.0023328466,-0.004515983,0.29118748521120563,-0.21966023555381267,89.39177289442249
1729571877222365,-0.20209731,0.1291213,-2.8107016,0.0046203225,0.007804014,0.096091986,-0.043623265,0.00047299542,-0.0076107676,0.28869741778922053,-0.2180268612724416,89.39066980061116
1729571877238365,-0.20239095,0.12937061,-2.8103087,0.003939829,0.007785736,0.09593133,-0.042530853,-0.0011423544,-0.010041053,0.28299962888231933,-0.21520797403093267,89.38821425118857
1729571877246365,-0.2025359,0.12949368,-2.8100877,0.0036264346,0.00778194,0.09584156,-0.039174277,-0.00047450882,-0.011221505,0.2797403438390133,-0.21415773169214308,89.38705314073006
1729571877254365,-0.20267953,0.12961574,-2.809851,0.0033079635,0.007773728,0.09574621,-0.039808888,-0.0010264921,-0.011918134,0.27631476100580304,-0.21331311689563515,89.38585097836764
1729571877262365,-0.20282191,0.12973672,-2.8095992,0.0030131123,0.0077594304,0.09563946,-0.03685639,-0.0017872079,-0.013343989,0.27294922560523877,-0.21239509044753896,89.3845907991418
1729571877270365,-0.20296311,0.12985665,-2.8093328,0.0026942317,0.007746872,0.09553651,-0.03986008,-0.0015698023,-0.012869014,0.269821262440195,-0.21126349912723208,89.38321443942706
1729571877286365,-0.20342532,0.13037731,-2.8082511,0.0020063054,0.007829654,0.095343776,-0.042995393,0.005173875,-0.012045725,0.26357984113993105,-0.20864006188266723,89.38047541676299
1729571877294365,-0.20375296,0.1307695,-2.8074503,0.001646291,0.007920743,0.09530407,-0.045001797,0.011386116,-0.0049630175,0.26045201313493443,-0.20737001185361859,89.37893517832235
1729571877302365,-0.20407535,0.13115461,-2.8066497,0.0013038389,0.008026237,0.09525404,-0.04280651,0.013186712,-0.0062538306,0.2572601683592939,-0.20615812563251823,89.37727541821201
1729571877310365,-0.20439261,0.13153288,-2.8058493,0.00096022,0.008112786,0.095187314,-0.042952362,0.010818708,-0.008340925,0.25400043397468347,-0.20500104145025272,89.37560192446766
1729571877326365,-0.2050126,0.13226943,-2.8042495,0.00027719396,0.008282596,0.09498968,-0.042689126,0.010613118,-0.01235213,0.24699847996343235,-0.20193670844938774,89.372371118987
1729571877334365,-0.2053155,0.13262804,-2.8034508,-3.5619523e-05,0.008368078,0.09485012,-0.039101686,0.010685179,-0.017444603,0.24315405998650721,-0.20013819651193834,89.37070107803287
1729571877342365,-0.20561367,0.13298036,-2.8026528,-0.00032548112,0.008426058,0.09465745,-0.036232695,0.007247552,-0.024084,0.23924122018440683,-0.1983564268396066,89.3689798889515
1729571877358365,-0.20620075,0.13365607,-2.801089,-0.0009315015,0.008485477,0.094168454,-0.03787627,0.0037137067,-0.03056228,0.23126071527075148,-0.19440695347417222,89.3660497108441
1729571877366365,-0.20648775,0.1339848,-2.800309,-0.0012112574,0.008508947,0.09388031,-0.034969486,0.0029336659,-0.03601797,0.22701588036685005,-0.19204324101248307,89.36462550654319
1729571877374365,-0.20677038,0.13430758,-2.7995303,-0.0014773069,0.008523698,0.093562216,-0.033256188,0.0018439022,-0.039761882,0.22248520642770434,-0.1894977007759878,89.36324243282934
1729571877382365,-0.20704874,0.13462456,-2.7987535,-0.0017352022,0.008538358,0.09320911,-0.0322369,0.0018324935,-0.044138167,0.2177189329778966,-0.18676910553417794,89.3618866408651
1729571877390365,-0.2073229,0.13493587,-2.797979,-0.0019859567,0.008552577,0.09282815,-0.031344313,0.001777429,-0.047620382,0.212757507424801,-0.18422892886052186,89.36054450889071
1729571877406365,-0.20785908,0.13554204,-2.796451,-0.002478517,0.0085561285,0.09196843,-0.030785011,0.0002219458,-0.053732187,0.20255470243420715,-0.17894077507857772,89.35784317160444
1729571877414365,-0.20775384,0.13591449,-2.795536,-0.0024891356,0.008560569,0.0915671,-0.0013273383,0.00055506825,-0.050166618,0.19734512704917667,-0.17637638690312413,89.35632350459458
1729571877422365,-0.20764491,0.13627893,-2.794627,-0.0024713979,0.008548287,0.09114645,0.002217217,-0.0015352851,-0.052581538,0.19195779521354675,-0.17379941920203806,89.35577715984849
1729571877438365,-0.20743579,0.13698646,-2.7928278,-0.0024341345,0.008531266,0.09021433,0.0023289612,-0.0010638032,-0.058257483,0.18129008020682782,-0.16883306240097515,89.35430530243914
1729571877446365,-0.20733528,0.13732982,-2.7919378,-0.00241182,0.008501184,0.08969731,0.0027893109,-0.0037602147,-0.06462727,0.17615733490392527,-0.16616172664892545,89.35365301956706
1729571877454365,-0.20723727,0.13766624,-2.7910547,-0.0023856405,0.008455859,0.0891605,0.0032724345,-0.0056657004,-0.06710086,0.17127525356308915,-0.1631674500642559,89.35291544164929
1729571877462365,-0.20714164,0.1379959,-2.7901783,-0.0023600105,0.008424355,0.088610575,0.0032037494,-0.003937981,-0.06874092,0.16678333488971597,-0.1598648136939594,89.35225978276945
1729571877470365,-0.20704825,0.13831894,-2.7893248,-0.0023322618,0.008379036,0.08800811,0.0034685943,-0.0056648855,-0.075307675,0.16260270803292304,-0.1564905940035509,89.35160761624098
1729571877486365,-0.20686784,0.13894518,-2.787638,-0.0022865713,0.008247651,0.08671511,0.0028556532,-0.008211529,-0.080812715,0.15536844831357807,-0.1500519037100951,89.35038842398363
1729571877494365,-0.20677872,0.13924967,-2.7868052,-0.0022520123,0.008195132,0.08606177,0.0043198816,-0.0065648924,-0.08166767,0.15224710930021373,-0.1470846434474105,89.34982170781174
1729571877502365,-0.20669137,0.1395479,-2.785979,-0.0022158932,0.008128702,0.08540432,0.004514877,-0.0083037885,-0.08218083,0.14943960376641274,-0.14444476678991805,89.34928211718301
1729571877518365,-0.20652153,0.14012592,-2.7843473,-0.002144227,0.007992417,0.08403764,0.0044791377,-0.008517818,-0.08541764,0.14536637139037487,-0.13957047802943334,89.34805272005153
1729571877526365,-0.20643882,0.14040583,-2.783559,-0.0020962944,0.007904477,0.08331371,0.0059915762,-0.010992399,-0.09049102,0.14390099019150082,-0.1369225180377301,89.34750633875687
1729571877534365,-0.2063574,0.14067979,-2.7827778,-0.0020555155,0.007818437,0.08257392,0.005097361,-0.010755029,-0.092473805,0.1429027300669094,-0.13413858117207397,89.3469223938794
1729571877542365,-0.20613274,0.14106089,-2.7823431,-0.0019424132,0.0078934245,0.08176375,0.014137796,0.0093734125,-0.10127108,0.14235356341492963,-0.13098718748692803,89.3464306119749
1729571877558365,-0.20569497,0.14180392,-2.7814684,-0.0016848756,0.008009541,0.080145225,0.016096098,0.0072572725,-0.101157926,0.1412389069358095,-0.12464454064444581,89.3460004928701
1729571877566365,-0.20547871,0.14216504,-2.781029,-0.0015683239,0.008048745,0.079347715,0.014568955,0.004900503,-0.09968876,0.14067066909683926,-0.12173754138099568,89.34589467057732
1729571877574365,-0.20526606,0.14251997,-2.780588,-0.0014497829,0.008073084,0.07856328,0.014817633,0.0030423978,-0.09805429,0.14011160450284108,-0.1190058198699835,89.34560456183524
1729571877582365,-0.20505689,0.14286883,-2.7801456,-0.001334047,0.008098184,0.07778302,0.01446699,0.003137509,-0.09753275,0.13980717275996354,-0.11629012025856557,89.34532108791406
1729571877590365,-0.20485109,0.14321178,-2.7797182,-0.0012140946,0.008118256,0.07701784,0.014994046,0.0025089828,-0.09564682,0.14015461493223869,-0.11366121250627323,89.34491809325901
1729571877606365,-0.20444956,0.14388016,-2.7788594,-0.0010183053,0.008124515,0.07553206,0.012236829,0.00039121366,-0.092861705,0.1420791435107912,-0.10857416608960416,89.34432394364173
1729571877614365,-0.20425372,0.1442057,-2.778428,-0.0009249585,0.008104689,0.07480394,0.011668351,-0.0024782491,-0.09101442,0.1437110496198594,-0.10622698479976701,89.3439312719255
1729571877622365,-0.20406121,0.14452559,-2.777996,-0.0008626465,0.008087619,0.07408966,0.0077889995,-0.0021337764,-0.08928496,0.14559844686118104,-0.10387438755273223,89.34353848293564
1729571877630365,-0.20387192,0.14483984,-2.777563,-0.000775615,0.008047661,0.07340161,0.010878938,-0.004994799,-0.0860067,0.14770291535658348,-0.10151471348660346,89.34308088958059
1729571877646365,-0.20352304,0.1454403,-2.7767112,-0.00064209534,0.007964774,0.0720767,0.008344977,-0.005180423,-0.08280668,0.15255661802426282,-0.09630531910848347,89.34207687717935
1729571877654365,-0.20336325,0.1457267,-2.7762916,-0.0006132752,0.007896554,0.07142661,0.0036025157,-0.008527539,-0.08126161,0.1552713011488794,-0.09347719669649227,89.34213842333914
1729571877662365,-0.2031318,0.14614366,-2.776635,-0.0004954211,0.007925457,0.07062915,0.014731762,0.0036129493,-0.09968224,0.1581839121395899,-0.09044654981230452,89.34217948024391
1729571877678365,-0.20268014,0.14695483,-2.7772605,-0.00031538893,0.007927616,0.069073215,0.011252011,0.00013492536,-0.0972459,0.16391704547967728,-0.08458027758372495,89.34262702463762
1729571877686365,-0.20245989,0.14734933,-2.777544,-0.00023422483,0.007931213,0.06833277,0.0101455115,0.00044959594,-0.09255576,0.16683046878613889,-0.08145110050378684,89.34291053746071
1729571877694365,-0.20224321,0.1477367,-2.7778084,-0.00014109015,0.007924253,0.06763105,0.011641836,-0.00086997164,-0.08771475,0.16965568639322148,-0.07831821508405543,89.3432214083802
1729571877702365,-0.20202997,0.14811695,-2.7780542,-5.1973984e-05,0.007891033,0.066972695,0.0111395195,-0.0041525345,-0.08229445,0.1727340033938372,-0.07522341624003957,89.34344003852927
1729571877710365,-0.20182025,0.14849001,-2.778294,2.7846545e-06,0.007843016,0.066360116,0.0068448293,-0.0060021407,-0.07657241,0.1758406841738535,-0.07214987526211226,89.34370985262073
1729571877726365,-0.20142499,0.1492143,-2.7787194,0.000111898626,0.0077501293,0.06527754,0.006819623,-0.005805399,-0.06766105,0.18239788123226966,-0.06545425066171315,89.34410958826874
1729571877734365,-0.20123243,0.14956611,-2.7789052,0.00014871155,0.0076835137,0.06480692,0.0046016155,-0.008326955,-0.058826987,0.18580565850473865,-0.06200837807256518,89.34433504803027
1729571877742365,-0.2010432,0.14991102,-2.7790737,0.0001963512,0.0075967074,0.06437795,0.005954956,-0.010850781,-0.053621825,0.1892189314157737,-0.05843572692526223,89.34442038076953
1729571877758365,-0.2006747,0.15058057,-2.7793586,0.00025729177,0.0074440264,0.06366756,0.0038087855,-0.009542564,-0.044399403,0.19619142844717047,-0.050822730577309086,89.34454351153123
1729571877766365,-0.2004953,0.1509055,-2.779489,0.00027728593,0.0073644225,0.063370764,0.0024992696,-0.009950482,-0.037099235,0.19978580411630356,-0.04699320753243917,89.34462888333199
1729571877774365,-0.20031917,0.15122394,-2.7796025,0.0002878551,0.0072634663,0.06312587,0.0013211465,-0.012619536,-0.03061164,0.20356061814066387,-0.04318242103229187,89.34470750350654
1729571877782365,-0.20014632,0.15153584,-2.7796988,0.00029672176,0.007150483,0.0629147,0.0011083321,-0.014122924,-0.026396474,0.20742043505054902,-0.03948527335641467,89.34470750350654
1729571877798365,-0.19873431,0.15302864,-2.7794917,0.00069407537,0.007515091,0.06274543,0.0248346,0.022788007,-0.010579358,0.21519261354947603,-0.03248601560927575,89.34567410740922
1729571877806365,-0.1980517,0.1537536,-2.7793696,0.00086721295,0.0076615727,0.06270244,0.021642197,0.018310208,-0.005373731,0.21913472396165218,-0.029143457949778212,89.34658595631363
1729571877814365,-0.19738418,0.15446451,-2.7792354,0.0010419618,0.007795304,0.06267856,0.02184361,0.016716424,-0.0029848886,0.22304615191759974,-0.02593895160007436,89.3474843014052
1729571877822365,-0.19673136,0.15516183,-2.779089,0.0011995282,0.007935284,0.06265971,0.019695798,0.017497456,-0.002356246,0.22687303004417814,-0.022697052710907526,89.34835183463811
1729571877838365,-0.19546878,0.15651676,-2.7787895,0.0014651163,0.008164411,0.06264044,0.016599253,0.014320481,-0.0012042001,0.23465346327072836,-0.016167898413420836,89.35007653992403
1729571877846365,-0.19485845,0.15717478,-2.7786224,0.0015729662,0.0082573835,0.0626417,0.013481243,0.011621508,0.0001573935,0.23878549627096401,-0.01255532853799336,89.3508347582764
1729571877854365,-0.19426173,0.15782028,-2.778444,0.0016690872,0.008361053,0.06263361,0.012015123,0.012958654,-0.0010114163,0.2432900913711689,-0.008608653068397573,89.35164761459237
1729571877862365,-0.19367725,0.15845434,-2.7782545,0.0017548379,0.008449961,0.06261612,0.010718838,0.011113588,-0.0021867454,0.24799493564438077,-0.004455644561079646,89.35233749674326
1729571877878365,-0.19254722,0.15968639,-2.777845,0.0018859861,0.008563803,0.06254135,0.008196759,0.007115071,-0.004672911,0.2577456119461089,0.005065292307463328,89.354393522305
1729571877886365,-0.19200118,0.16028486,-2.7776408,0.0019412157,0.008615116,0.062504604,0.0069037047,0.0064141345,-0.004593283,0.26261706272545376,0.01041154288971263,89.35530199512489
1729571877894365,-0.19146739,0.16087188,-2.7774262,0.0019852878,0.008634004,0.06247265,0.0055090054,0.0023610191,-0.0039944425,0.26766921834195473,0.016304142016534275,89.356193278432
1729571877902365,-0.19094563,0.16144751,-2.7772021,0.0020197816,0.008639092,0.062432535,0.0043117325,0.00063597684,-0.0050142403,0.2726836483141243,0.02254677519724073,89.3570847153305
1729571877910365,-0.19063057,0.16208819,-2.7776136,0.0019109765,0.008589919,0.062250767,-0.013600641,-0.006146612,-0.02272101,0.27786826062393183,0.02908305345650805,89.35788383554194
1729571877926365,-0.19002084,0.16333292,-2.778361,0.0017049699,0.008466664,0.061798494,-0.012875411,-0.007703434,-0.028267035,0.2889822327251842,0.04212496871752032,89.35896301439587
1729571877934365,-0.18972608,0.16393755,-2.7786992,0.0015700132,0.008393325,0.061559957,-0.016869584,-0.009167357,-0.029817222,0.29460635598168433,0.04827982485173417,89.35905513979155
1729571877942365,-0.18943906,0.164529,-2.7790143,0.0014408053,0.008293479,0.061348647,-0.016150996,-0.012480769,-0.026413703,0.30015422861816515,0.05415805875748268,89.35909604197545
1729571877958365,-0.1888876,0.16567269,-2.7796016,0.0011568703,0.008053589,0.061016075,-0.017745936,-0.014993128,-0.020785721,0.3114006308604274,0.06575224454001793,89.35889103440054
1729571877966365,-0.18862322,0.16622531,-2.779862,0.0009952246,0.007929931,0.060883176,-0.020205712,-0.01545716,-0.016612466,0.316987424789921,0.07163333512940508,89.35870993095062
1729571877974365,-0.18836641,0.16676542,-2.780101,0.00082215364,0.007801674,0.060775224,-0.021633865,-0.016032193,-0.013493932,0.3222741230580645,0.07747508614873484,89.35850837638286
1729571877982365,-0.18811698,0.16729309,-2.7803195,0.0006647442,0.00764482,0.060691953,-0.019676182,-0.019606726,-0.010408926,0.32719720795967305,0.0834005612402425,89.35821792005827
1729571877990365,-0.18787491,0.16780838,-2.7805173,0.00048384792,0.0074853413,0.06062389,-0.022612032,-0.019934842,-0.008507632,0.3317739004295307,0.08947768895229136,89.35793778478545
1729571878006365,-0.18740821,0.16880617,-2.780866,0.00014122429,0.0071419757,0.060589656,-0.021413974,-0.021460349,-0.0021397136,0.3393057059442407,0.10144737198462779,89.3572067314933
1729571878014365,-0.18718345,0.16928886,-2.7810168,-3.350412e-05,0.006951294,0.06060653,-0.02184105,-0.023835221,0.0021094456,0.3424445237825993,0.10720476409403275,89.35641424823031
1729571878022365,-0.18696573,0.1697597,-2.7811484,-0.0002068789,0.006747019,0.06064425,-0.021671847,-0.025534362,0.0047148205,0.3453357320050178,0.11297763196333843,89.35562184146109
1729571878030365,-0.186755,0.1702188,-2.7812612,-0.00039346365,0.0065353904,0.060691543,-0.023323093,-0.026453577,0.0059115696,0.34802142526201796,0.11851577942476463,89.35480192320627
1729571878046365,-0.18574935,0.17041574,-2.7814217,-0.00028664686,0.005802298,0.06075168,0.006676049,-0.045818273,0.0037585848,0.35264153308642243,0.12980234670075821,89.3538864260412
1729571878054365,-0.1852638,0.17050862,-2.7814763,-0.00025486064,0.005407594,0.06081181,0.0039732764,-0.049337976,0.0075162384,0.35468032532764626,0.13551865673154806,89.35384180144844
1729571878062592,-0.18478952,0.1705977,-2.7815142,-0.00023145785,0.005029514,0.060902715,0.0028446333,-0.04595602,0.011049536,0.35648539623394476,0.1412262569255595,89.35373920076873
1729571878070592,-0.18432629,0.17068286,-2.781549,-0.00021891136,0.004620606,0.06095003,0.0015683108,-0.051113483,0.0059143635,0.3582651274856996,0.14649302972985745,89.35366395767355
1729571878086592,-0.18340932,0.17082691,-2.7815711,-0.00015892182,0.0037750134,0.06104394,0.0037493464,-0.052849542,0.005869427,0.3617956230091849,0.15500015317478244,89.35403587247727
1729571878094592,-0.18296646,0.17089269,-2.781559,-0.00015085106,0.0033404252,0.061107125,0.0010088442,-0.05432352,0.007898081,0.3639170788516242,0.15811777264398008,89.35444569780157
1729571878102592,-0.18253379,0.1709541,-2.7815323,-0.00015317218,0.0028831374,0.061167344,-0.00029013972,-0.05716097,0.0075274142,0.36631933721546467,0.16070587740811668,89.35472560345288
1729571878110592,-0.18211107,0.17101103,-2.7814908,-0.00015787163,0.002434917,0.06124154,-0.0005874317,-0.05602755,0.009274576,0.36892113588478825,0.16302326845560433,89.35508416708034
1729571878126592,-0.18129508,0.17111142,-2.7813792,-0.00024113199,0.0015357827,0.06137048,-0.005203772,-0.056195892,0.008058734,0.37465801442346863,0.16682331063646122,89.35570563908529
1729571878134592,-0.18090156,0.17115481,-2.7813096,-0.00030923297,0.0010733258,0.061418656,-0.008512623,-0.057807118,0.0060219313,0.3775426000277152,0.16799218510839636,89.35597537725779
1729571878142592,-0.18051752,0.17119351,-2.7812266,-0.0003851815,0.00061106385,0.06146667,-0.009493567,-0.057782736,0.006001908,0.3806779733435712,0.16868493203080714,89.35636812840713
1729571878158592,-0.1797286,0.17126967,-2.7810218,-0.00049113506,-0.00031859064,0.061563104,-0.006622096,-0.0581034,0.0060270536,0.38718521551672663,0.16848820305480622,89.35677112425266
1729571878166592,-0.17909336,0.17152928,-2.7812274,-0.00047404759,-0.0006748256,0.06146141,0.0021359336,-0.04452937,-0.012711621,0.390423901006309,0.1676369337065055,89.35684974348848
1729571878174592,-0.17847306,0.17177923,-2.7814136,-0.0004635261,-0.0010305052,0.061361384,0.0013151838,-0.04445994,-0.01250347,0.39359743359547045,0.16604106391328402,89.3572015925227
1729571878182592,-0.17786737,0.17201991,-2.7815814,-0.00047818944,-0.001346099,0.061293345,-0.0018329155,-0.039449222,-0.008504838,0.39662609382331715,0.16397687080005688,89.35752600744948
1729571878198592,-0.17669855,0.17247415,-2.7818875,-0.00050326023,-0.0020138181,0.061199088,-0.0015669247,-0.041732445,-0.0058910805,0.40295827439938825,0.1587808237972237,89.35804879241401
1729571878206592,-0.17613488,0.17268792,-2.7820134,-0.00055007293,-0.0023578675,0.061177056,-0.005851587,-0.043006174,-0.0027539206,0.4061298301676674,0.1559140011649023,89.35826408369715
1729571878214592,-0.17558499,0.1728929,-2.7821217,-0.00063850894,-0.0027182775,0.061167467,-0.0110545,-0.045051243,-0.0011986122,0.40932643999180635,0.1527374314092853,89.35846563885148
1729571878222592,-0.17504868,0.17308922,-2.7822127,-0.00070943276,-0.003058046,0.06115032,-0.0088654775,-0.042471074,-0.002143439,0.4124604045605388,0.14965800588701172,89.35870487246137
1729571878238592,-0.17405573,0.17343542,-2.7823448,-0.0009248115,-0.0037494316,0.06118527,-0.013461173,-0.04321159,0.002184417,0.4194570059385058,0.14388574338521695,89.35903630801484
1729571878246592,-0.17357822,0.17359656,-2.7824001,-0.0010535207,-0.004094989,0.06122568,-0.016088648,-0.04319468,0.0050510275,0.4231607097736273,0.14123554174216954,89.35903296953138
1729571878254592,-0.1731132,0.17374998,-2.782439,-0.0012070988,-0.004419398,0.061262153,-0.019197265,-0.040551122,0.0045592897,0.4270562152222941,0.1386563905848646,89.35909789065941
1729571878262592,-0.1726606,0.17389598,-2.7824621,-0.0013785337,-0.0047359806,0.06129624,-0.021429352,-0.039572824,0.004260801,0.43106502740045116,0.13609692991877967,89.35903642262602
1729571878270592,-0.17222019,0.17403463,-2.78247,-0.0015366635,-0.005070547,0.061350543,-0.01976623,-0.041820806,0.006787944,0.4352124391553104,0.1335554255000494,89.3589682394362
1729571878286592,-0.17217547,0.17456888,-2.7822108,-0.0023135275,-0.00563911,0.06150868,-0.048554,-0.035535194,0.00988366,0.443437200171465,0.12870271012676923,89.35880102448479
1729571878294592,-0.17255075,0.17495413,-2.7819502,-0.0029072827,-0.005877848,0.0616138,-0.07421939,-0.029842192,0.013139564,0.4480091368085201,0.12627209058004252,89.3568919871577
1729571878302592,-0.17292148,0.17532629,-2.7816813,-0.003498004,-0.0061193327,0.061744172,-0.07384017,-0.030185618,0.016296748,0.452604203908163,0.12377709124124142,89.35530728784624
1729571878318592,-0.17365028,0.1760325,-2.7811494,-0.0046603917,-0.0065954267,0.062004067,-0.072649226,-0.029755872,0.01624343,0.46127293476004616,0.1194864287726487,89.35197397492936
1729571878326592,-0.17400903,0.17636718,-2.7808712,-0.0052465335,-0.006833519,0.06212547,-0.07326773,-0.029761517,0.015175435,0.4649455508320859,0.11792859534959045,89.35032443175956
1729571878334592,-0.17436446,0.17668991,-2.7805848,-0.0058369483,-0.0070737847,0.06223267,-0.07380184,-0.03003323,0.013399868,0.4681369455742643,0.11680916234849886,89.34864419377583
1729571878342592,-0.17471686,0.17700094,-2.7802908,-0.0064137075,-0.007302676,0.06233454,-0.0720949,-0.028611392,0.012733973,0.470690883476252,0.11616577587527491,89.34690582551703
1729571878358592,-0.1754137,0.17758903,-2.7796805,-0.0075940276,-0.0077903117,0.062483717,-0.07377,-0.030477239,0.00932347,0.47382160850612676,0.1152321324688979,89.34327534177481
1729571878366592,-0.17575355,0.17786872,-2.7793806,-0.008147385,-0.008057808,0.06252769,-0.06916967,-0.03343698,0.0054961997,0.4743310030664315,0.11488269821918032,89.34144131811671
1729571878374592,-0.17609134,0.17813748,-2.779074,-0.008702126,-0.008309809,0.06253125,-0.069342665,-0.031500123,0.00044517216,0.4739702137006222,0.1148509084271853,89.3390710411283
1729571878382592,-0.17642735,0.17839539,-2.7787607,-0.009252136,-0.008592029,0.062502496,-0.068751164,-0.035277568,-0.0035939736,0.4728703971962896,0.11528514658351109,89.33677251571558
1729571878390592,-0.17676185,0.1786426,-2.7784412,-0.009815542,-0.008869931,0.06242292,-0.07042579,-0.034737747,-0.00994699,0.4710153071734704,0.11619551127167989,89.33434418547711
1729571878406592,-0.17742723,0.17910574,-2.7777855,-0.010915565,-0.009442562,0.062249646,-0.068751454,-0.035789445,-0.010829651,0.4658543947080929,0.11900032369028077,89.32945333572128
1729571878414592,-0.1775084,0.17920294,-2.7779095,-0.011462838,-0.009838503,0.06206972,-0.06840913,-0.049492575,-0.022490507,0.4624117567839603,0.1204172975511097,89.32693959296041
1729571878422592,-0.17759608,0.17929192,-2.7780163,-0.01200046,-0.010247337,0.061888915,-0.06720272,-0.05110423,-0.022600869,0.4584053782027547,0.12178144412184536,89.32419705384416
1729571878430592,-0.17768495,0.17938097,-2.7781208,-0.012512366,-0.010637806,0.06168871,-0.06398826,-0.048808634,-0.025025567,0.4534812978721278,0.12327145596438288,89.32150228219598
1729571878446592,-0.17788157,0.17953502,-2.7782803,-0.0135327615,-0.011422134,0.061306525,-0.0637747,-0.04902051,-0.02388656,0.44219595544695983,0.12627997466520488,89.31540244653159
1729571878454592,-0.17798899,0.17960022,-2.7783365,-0.014021372,-0.011814564,0.061140317,-0.061076365,-0.049053688,-0.020775942,0.4361744314174783,0.12751280015359193,89.31242761438283
1729571878462592,-0.17810221,0.17965761,-2.7783773,-0.014502455,-0.012218639,0.06099611,-0.060135264,-0.050509464,-0.018025748,0.4300203357691277,0.12843391749382393,89.30949729827499
1729571878478592,-0.17834516,0.17974892,-2.778413,-0.01541163,-0.013064333,0.06080637,-0.05682348,-0.05285587,-0.011858762,0.41685132373728867,0.12924999376085095,89.30367752117135
1729571878486592,-0.17847449,0.17978284,-2.7784238,-0.01584209,-0.013489942,0.0607247,-0.053807393,-0.0532011,-0.0102086915,0.4097442290339312,0.12902623779612699,89.30091453353488
1729571878494592,-0.17860875,0.17980903,-2.7784197,-0.016263435,-0.01391663,0.060652703,-0.05266815,-0.053336028,-0.008999836,0.40238853440989625,0.1285000317567447,89.29809336829008
1729571878502592,-0.17874776,0.1798277,-2.7784011,-0.016656129,-0.014325042,0.060579527,-0.04908675,-0.051051494,-0.009146985,0.3947204194040946,0.1276312748808937,89.29534745500747
1729571878518592,-0.17904675,0.17983454,-2.7783227,-0.017389445,-0.015181809,0.060486592,-0.045832243,-0.053547904,-0.0058084256,0.378667737102553,0.12511643846787301,89.29029277122616
1729571878526592,-0.17920241,0.17982697,-2.7782633,-0.017755413,-0.015599167,0.060439374,-0.045746095,-0.052169777,-0.0059022564,0.37065972242415984,0.1235875663904101,89.28806262670409
1729571878534592,-0.179362,0.17981234,-2.7781909,-0.018101538,-0.01600224,0.060395766,-0.043265518,-0.050384082,-0.0054510306,0.36281941366158144,0.12217675555612281,89.28584614209039
1729571878542592,-0.17922893,0.18031771,-2.7781265,-0.01841943,-0.016025,0.060337722,-0.039736506,-0.0028449574,-0.007255468,0.35521036734712064,0.12069103933238012,89.28366717851299
1729571878558592,-0.17899778,0.18128037,-2.7779903,-0.019010872,-0.016129177,0.060202908,-0.036965124,-0.0065111085,-0.008425908,0.3408921618883597,0.11615232891271175,89.27604415813487
