timestamp,x,y,z,vx,vy,vz,ax,ay,az,roll,pitch,yaw
1729569901846853,0.036215518,-0.005236337,-4.280641,-0.0107867895,-0.0210743,-0.22642179,0.0,0.0,0.0,1.0772220175897145,-2.60466568917143,94.46375662502626
1729569901855058,0.036130566,-0.0058660177,-4.2795687,-0.011171412,-0.021397874,-0.22648458,-0.04687657,-0.03943609,-0.007653076,1.0690433293918438,-2.6135727382851246,94.46489948800945
1729569901863331,0.036024664,-0.006479197,-4.278683,-0.011571273,-0.02167455,-0.22663401,-0.048333313,-0.033443183,-0.018062232,1.060925580206714,-2.6224535695416407,94.46579563900622
1729569901879400,0.03580645,-0.0076733483,-4.277367,-0.012328439,-0.022117767,-0.22713473,-0.04711968,-0.027582193,-0.03116085,1.0452369880830876,-2.639664152354849,94.46840784377913
1729569901887679,0.03569393,-0.008256156,-4.276899,-0.012702222,-0.022329533,-0.2274816,-0.045148276,-0.02557869,-0.041897476,1.0377308628262476,-2.648200730786039,94.46934440588801
1729569901895887,0.03557897,-0.008830441,-4.276539,-0.013066945,-0.022530468,-0.2278861,-0.044435024,-0.024480348,-0.049280215,1.030292969857759,-2.656846554992174,94.46993774599076
1729569901904155,0.035461627,-0.009396791,-4.276256,-0.013412517,-0.022719799,-0.22832873,-0.04179631,-0.022899183,-0.053536408,1.0229685381099247,-2.6655356020078327,94.47031924103246
1729569901920222,0.03522003,-0.010507069,-4.2759542,-0.0140692275,-0.023019154,-0.2294195,-0.040873278,-0.018631669,-0.06788853,1.0087969068008753,-2.68259785111275,94.4706765870305
1729569901928498,0.035095837,-0.0110515235,-4.275923,-0.014381943,-0.023163386,-0.22998841,-0.03778586,-0.017427752,-0.06874232,1.0020916254407517,-2.6907533102666883,94.4705142283305
1729569901936703,0.034337364,-0.011741027,-4.274876,-0.014835646,-0.023311066,-0.23038125,-0.05529593,-0.017998759,-0.04787804,0.9957022278473812,-2.6986727071229724,94.47023491306865
1729569901944979,0.033594042,-0.012419691,-4.273929,-0.015282351,-0.023452276,-0.23076445,-0.05397586,-0.017062694,-0.046302352,0.9894717030579366,-2.706460527602773,94.46926174630528
1729569901961046,0.03214986,-0.0137456255,-4.2723136,-0.016126454,-0.023667075,-0.23156306,-0.052536458,-0.013368916,-0.049705163,0.9772111701749939,-2.7215367245329665,94.46667057152068
1729569901969046,0.031447835,-0.014393536,-4.2716208,-0.016513329,-0.023762593,-0.23198956,-0.048359387,-0.011939787,-0.053312626,0.9711009906772305,-2.7287530829291446,94.46501660630881
1729569901977046,0.030758476,-0.015031598,-4.271012,-0.016913261,-0.023815768,-0.23245303,-0.04999153,-0.0066468487,-0.05793385,0.9648933681658036,-2.736020769524339,94.46314420362006
1729569901985046,0.030081226,-0.015659973,-4.270484,-0.017277258,-0.023866532,-0.23291604,-0.04549953,-0.006345566,-0.057876106,0.9587455519453125,-2.743278243136681,94.46117527184448
1729569902001046,0.028761666,-0.016888551,-4.26966,-0.01799709,-0.023936385,-0.23393361,-0.044989515,-0.0043658074,-0.063598156,0.9461108030192013,-2.7573259807230306,94.45686600754847
1729569902009046,0.02812783,-0.01749439,-4.2693596,-0.018330013,-0.023972502,-0.23447612,-0.04161545,-0.004514586,-0.06781332,0.9393446081896191,-2.7640307625947007,94.45462793388516
1729569902017046,0.027504524,-0.018091302,-4.269131,-0.018647058,-0.023985604,-0.23504747,-0.039630566,-0.0016377306,-0.0714194,0.9323080420712048,-2.770547318627156,94.45186745454038
1729569902025046,0.026891435,-0.018679308,-4.2689533,-0.018950278,-0.023986401,-0.23561764,-0.0379025,-9.965151e-05,-0.07127039,0.924828509440625,-2.7766399409696803,94.44911978475861
1729569902041046,0.025694778,-0.01982943,-4.2688017,-0.019520111,-0.023955466,-0.23682576,-0.035614587,0.0019334255,-0.07550791,0.9090584340462207,-2.7881709414752454,94.44305186483462
1729569902049046,0.025110682,-0.02039171,-4.268824,-0.019796113,-0.023931043,-0.23745866,-0.034500144,0.0030528752,-0.07911212,0.9011388272768197,-2.794012560369891,94.43981580920406
1729569902057046,0.024535775,-0.02094554,-4.26891,-0.02004228,-0.023867836,-0.23809354,-0.030770896,0.007900875,-0.07935985,0.8933468107632884,-2.799981572651144,94.43650498971603
1729569902065046,0.023773924,-0.021746716,-4.267279,-0.020253196,-0.023935981,-0.23835213,-0.026364576,-0.008518109,-0.032324344,0.8857651294836952,-2.805999552560786,94.43298172363843
1729569902081046,0.022286842,-0.023325792,-4.2643332,-0.020618739,-0.02404764,-0.2388749,-0.02284639,-0.0069786324,-0.03267266,0.870742516647772,-2.8174645942161067,94.42656445577435
1729569902089046,0.021564843,-0.024095478,-4.263,-0.020784607,-0.024078919,-0.23913385,-0.020733567,-0.003909925,-0.032369047,0.8635352951976095,-2.8231022733210906,94.423389601224
1729569902097046,0.020856656,-0.024852239,-4.261764,-0.02095439,-0.024102764,-0.23944236,-0.021222744,-0.0029806977,-0.038564205,0.8563883772458192,-2.828480115979751,94.42019347092064
1729569902105046,0.02016202,-0.02559637,-4.260624,-0.021094916,-0.024118092,-0.23983295,-0.017565908,-0.0019159633,-0.04882365,0.8492144695583798,-2.833794726972561,94.41704556511804
1729569902121046,0.018812569,-0.02704737,-4.2586226,-0.021346198,-0.024065621,-0.24074024,-0.015705125,0.0032794194,-0.056705434,0.8348972340402477,-2.8443034916336174,94.41029491918361
1729569902129046,0.018156977,-0.027754525,-4.2577577,-0.021477778,-0.024021327,-0.24132848,-0.01644739,0.0055367122,-0.07352978,0.827474770157575,-2.8496891263626956,94.40694079429917
1729569902137046,0.017513791,-0.028449656,-4.256981,-0.021577444,-0.023943914,-0.24196452,-0.012458301,0.009676674,-0.07950514,0.8199186826084243,-2.8550980805377355,94.40351163496061
1729569902145046,0.016881872,-0.029141013,-4.2562757,-0.021666417,-0.023865627,-0.24264823,-0.01112162,0.009785872,-0.08546374,0.8123523640679983,-2.8605668988952457,94.40000062053477
1729569902161046,0.015653495,-0.030488314,-4.255118,-0.021853792,-0.023649395,-0.24416237,-0.011710915,0.013514537,-0.09463354,0.7972402500124172,-2.872019445628732,94.39373404565819
1729569902169046,0.015056513,-0.031144636,-4.2546616,-0.021920165,-0.023524337,-0.24496086,-0.008296687,0.01563225,-0.099811696,0.7900308829358579,-2.8780679343031226,94.39055389667799
1729569902177046,0.014470784,-0.031789716,-4.254285,-0.02198591,-0.023408515,-0.245775,-0.008218223,0.014477641,-0.10176747,0.7827517749053521,-2.884156633332522,94.3874500293406
1729569902185046,0.014052729,-0.032499403,-4.2528586,-0.021909267,-0.02328086,-0.246363,0.009580515,0.015956815,-0.07349998,0.7753397170245673,-2.8902470746821325,94.38426377908247
1729569902201046,0.013241539,-0.03387984,-4.250316,-0.021726705,-0.022951908,-0.24754861,0.011410098,0.020559527,-0.07410068,0.7597288043571783,-2.9016266149201737,94.376159213485
1729569902209046,0.012848211,-0.034550894,-4.2491837,-0.021615818,-0.022770328,-0.24816182,0.013860873,0.022697493,-0.07665157,0.7518919889381401,-2.9070095282583384,94.37213362495193
1729569902217046,0.01245083,-0.03521,-4.2481475,-0.021491278,-0.022587214,-0.24880795,0.015567522,0.022889346,-0.08076615,0.7440216372281651,-2.912426662390524,94.36821736445972
1729569902225046,0.012061623,-0.035856847,-4.2472057,-0.021373855,-0.022389526,-0.24951449,0.014677876,0.024711013,-0.08831731,0.7363569614146861,-2.9177363211789484,94.36441803451017
1729569902241046,0.011306929,-0.037114114,-4.245598,-0.021136785,-0.02193046,-0.25105822,0.014816876,0.028691603,-0.09648315,0.7217748701845141,-2.92783465872675,94.35692655596895
1729569902249046,0.010941144,-0.037724733,-4.2449284,-0.021022107,-0.021685977,-0.2518912,0.014334683,0.030560417,-0.10412186,0.715215789440105,-2.932893479168091,94.35322155247873
1729569902257046,0.010582853,-0.038323473,-4.244345,-0.020893877,-0.021414356,-0.2527642,0.01602876,0.033952527,-0.10912492,0.7092283180001545,-2.9378262251485645,94.34953645581339
1729569902265046,0.010232062,-0.03891045,-4.2438335,-0.020742156,-0.021141432,-0.2536752,0.01896522,0.03411551,-0.11387467,0.7039309217986903,-2.9427820752500833,94.3458998416853
1729569902281046,0.009565933,-0.040056024,-4.2430596,-0.020403065,-0.020574773,-0.25560597,0.021193175,0.035416216,-0.12067332,0.6946244185008014,-2.9520552250442758,94.3384395406957
1729569902289046,0.009250188,-0.0406147,-4.2427936,-0.020234147,-0.020264974,-0.25658706,0.02111471,0.03872486,-0.12263655,0.6904964628557475,-2.9562930127146947,94.33469035547223
1729569902297046,0.008941321,-0.04116209,-4.2426057,-0.020051375,-0.019958967,-0.25757343,0.022846505,0.038250815,-0.123295926,0.686825008489913,-2.960453874255639,94.33101037287855
1729569902305046,0.008639336,-0.041698337,-4.242494,-0.019857086,-0.019645507,-0.25854266,0.024286097,0.039182603,-0.12115388,0.6834779855778147,-2.964583974382522,94.32735686682479
1729569902321046,0.007277253,-0.041794285,-4.239115,-0.019889887,-0.018505853,-0.25982627,-0.0020500738,0.07122836,-0.08022598,0.6777015355854201,-2.9727544538768265,94.31961097801586
1729569902329046,0.006617938,-0.041840978,-4.2375913,-0.019902505,-0.017955193,-0.26045242,-0.0015771947,0.06883242,-0.07826835,0.6752719423255975,-2.9768437772080247,94.31549761703099
1729569902337046,0.005972588,-0.041886747,-4.236178,-0.019921497,-0.017407214,-0.26109555,-0.0023739412,0.068497375,-0.08039176,0.6732070131531588,-2.980478292808221,94.31152011380665
1729569902345046,0.005340787,-0.041931394,-4.2348723,-0.019926652,-0.016845725,-0.26173913,-0.00064447516,0.07018609,-0.08044764,0.6714384579591559,-2.9839379866425317,94.30761786261357
1729569902361046,0.004213315,-0.04202395,-4.232575,-0.019843448,-0.015722157,-0.26320797,0.005200272,0.070222996,-0.09180232,0.6677728064196594,-2.989454454335997,94.29846820840991
1729569902369046,0.0036676293,-0.042067785,-4.231579,-0.019787053,-0.015162959,-0.26402834,0.007049413,0.06989983,-0.10254606,0.6655204470096261,-2.991071141558779,94.29331706766334
1729569902377046,0.0031336625,-0.042109836,-4.230682,-0.019716453,-0.014607856,-0.26493075,0.00882498,0.06938784,-0.11280178,0.663092367043105,-2.992088304929054,94.28828688768601
1729569902385046,0.0026110832,-0.04214998,-4.2298737,-0.019655775,-0.014037215,-0.26588187,0.0075846906,0.07133011,-0.11888891,0.6605309029711174,-2.9923157187639595,94.2832536331317
1729569902401046,0.0015985998,-0.04222365,-4.22854,-0.01954335,-0.012888724,-0.26785272,0.0070265955,0.0717807,-0.12317858,0.6552094566222645,-2.9905568962635787,94.27334265475223
1729569902409046,0.0011080845,-0.042257097,-4.2280097,-0.019486504,-0.012329878,-0.2688611,0.007105758,0.06985571,-0.1260452,0.6524167464904548,-2.9886506000344504,94.26848617696476
1729569902417046,0.00062769046,-0.04228822,-4.2275686,-0.019412963,-0.011781538,-0.26988256,0.0091926195,0.06854255,-0.12768432,0.6497941096137523,-2.9861791952428995,94.26358650473952
1729569902425046,0.00017626325,-0.042328335,-4.2272134,-0.019306626,-0.011260116,-0.27089977,0.013292068,0.06517779,-0.12715161,0.6470879406941908,-2.983423530955185,94.25880911693545
1729569902441046,-0.00046308496,-0.04249004,-4.2256136,-0.018892292,-0.010197289,-0.27263334,0.025895888,0.066426635,-0.1083482,0.6418992537776751,-2.9775666184611924,94.24943200344116
1729569902449046,-0.0006554795,-0.042608444,-4.224387,-0.018612687,-0.009653935,-0.27336997,0.034950674,0.067919254,-0.09207799,0.6392077198112456,-2.9745852753778133,94.24287043764672
1729569902457046,-0.0008429951,-0.042721175,-4.2232666,-0.018352507,-0.009118237,-0.27410585,0.03252248,0.066962324,-0.09198486,0.6366815112524989,-2.971475060687839,94.23627480530921
1729569902465046,-0.0010258227,-0.04282831,-4.2222495,-0.018088946,-0.0085901,-0.27486202,0.03294507,0.06601703,-0.09452178,0.6340483825719707,-2.9682789352336023,94.2297408485573
1729569902481046,-0.0013770417,-0.04302616,-4.220516,-0.017504487,-0.00753446,-0.27644497,0.03652868,0.06597751,-0.09893439,0.6287648974641353,-2.9619649368390295,94.21700220479693
1729569902489046,-0.0015452318,-0.043116946,-4.2197948,-0.0172034,-0.0070093204,-0.27729383,0.037635908,0.06564246,-0.106107436,0.6260491064951951,-2.9587487484009416,94.2107146618076
1729569902497046,-0.0016998723,-0.043212973,-4.2191677,-0.016900418,-0.0064953896,-0.2782012,0.0378727,0.06424135,-0.11342018,0.6233257767616198,-2.9554504978597538,94.20455750529388
1729569902505046,-0.001849798,-0.043303687,-4.218624,-0.016596872,-0.0060035237,-0.2791357,0.037943244,0.061483234,-0.11681392,0.6206332382800244,-2.952067193758116,94.1987846098764
1729569902513046,-0.0019950434,-0.043389194,-4.218171,-0.016284384,-0.0054966877,-0.28007877,0.039061066,0.06335449,-0.11788308,0.6179480522718831,-2.9486279036479814,94.19310042078834
1729569902529046,-0.0022713654,-0.04354461,-4.217529,-0.015639752,-0.00450869,-0.28197634,0.040289477,0.061749857,-0.118598334,0.6126094970822685,-2.9414373167837846,94.18203227139657
1729569902537046,-0.0024024034,-0.043614864,-4.217334,-0.015308237,-0.0040344805,-0.28291216,0.04143943,0.059276175,-0.11697783,0.6102495925491802,-2.9376644358642876,94.17669680782943
1729569902545046,-0.0025287531,-0.04368025,-4.217221,-0.014977509,-0.0035505977,-0.2838398,0.04134094,0.06048535,-0.11595338,0.6082632716929381,-2.9338599366092493,94.17158039960022
1729569902561046,-0.0028266963,-0.043289676,-4.2165856,-0.014337454,-0.002325513,-0.28552708,0.040003445,0.07656779,-0.10545551,0.6057409111848395,-2.9261753193059166,94.16169122526132
1729569902569046,-0.002997366,-0.042843733,-4.216068,-0.014058439,-0.0015692747,-0.28626624,0.034876864,0.09452978,-0.09239464,0.6050064336707002,-2.9226506203801055,94.15458788153225
1729569902577046,-0.0031626478,-0.04240277,-4.2156396,-0.013786591,-0.00083714747,-0.2870055,0.033981048,0.0915159,-0.09240954,0.6046657900752468,-2.9189784652284394,94.1476348950937
1729569902585046,-0.0033226444,-0.04196662,-4.2152987,-0.013525023,-0.000118753844,-0.28773707,0.03269594,0.089799196,-0.09144469,0.6045926751834222,-2.9151806547204053,94.14092118972302
1729569902601046,-0.0036269708,-0.0411081,-4.2148705,-0.012957475,0.001275643,-0.28922722,0.03547175,0.0871498,-0.09313411,0.6051647118250485,-2.906971913814767,94.1277397306684
1729569902609046,-0.0037715384,-0.04068539,-4.214779,-0.012696084,0.0019505228,-0.28997487,0.032673936,0.084359966,-0.09345635,0.6059705990297578,-2.9024810574654523,94.12143618102165
1729569902617046,-0.003911277,-0.040266857,-4.2147665,-0.012427131,0.0026038892,-0.2907153,0.033619113,0.0816708,-0.09255483,0.6070239479722532,-2.897607666085555,94.11534973473016
1729569902625046,-0.0040462823,-0.039852466,-4.2148204,-0.012158675,0.003240094,-0.2914615,0.03355695,0.079525605,-0.09327381,0.6082710062613029,-2.8923419136638393,94.1094409418589
1729569902633046,-0.004200918,-0.039458208,-4.2149496,-0.011936033,0.003850791,-0.29216984,0.027830245,0.0763371,-0.08854269,0.6097054995753272,-2.886527366552208,94.10380505692144
1729569902649046,-0.0044963346,-0.038680423,-4.215427,-0.011496359,0.0050397734,-0.29351482,0.027479662,0.074311405,-0.08406117,0.6132340095550869,-2.8733850651369917,94.09603672293284
1729569902657046,-0.004637441,-0.038296614,-4.2157707,-0.011283755,0.0056051463,-0.29414997,0.026575405,0.0706716,-0.07939338,0.6153024073020599,-2.866204361111585,94.09245227368896
1729569902665046,-0.004774353,-0.037916124,-4.216182,-0.011079476,0.0061468533,-0.2947871,0.025534885,0.06771338,-0.079642974,0.6175623177906598,-2.8586821945417404,94.08890173264034
1729569902681046,-0.0050365683,-0.037164852,-4.2172008,-0.010725208,0.007188381,-0.29595855,0.022141786,0.065095484,-0.07321499,0.6224290097139425,-2.84311955721147,94.08253918802855
1729569902689046,-0.005383749,-0.03681289,-4.2174273,-0.010623903,0.0077008666,-0.29640248,0.012663076,0.06406067,-0.05549192,0.6250186519926756,-2.8350436181486085,94.0795620086938
1729569902697046,-0.005734093,-0.03646191,-4.2177234,-0.0105454475,0.008179958,-0.29682472,0.009806942,0.059886426,-0.05277991,0.6276703726163494,-2.8269784206304003,94.07714103581769
1729569902705046,-0.0060761306,-0.036113333,-4.2180877,-0.010463639,0.008618974,-0.2972174,0.010226037,0.054877017,-0.04908442,0.6304590626542691,-2.818713467819803,94.07518539419345
1729569902721046,-0.006736645,-0.035423245,-4.219012,-0.010327398,0.009476426,-0.29786313,0.008515082,0.053590745,-0.04035793,0.6358509894501878,-2.802256609463392,94.07169319543797
1729569902729046,-0.007055505,-0.035081804,-4.2195673,-0.010259211,0.009873781,-0.298152,0.008523348,0.04966941,-0.03610924,0.6383992056369043,-2.7940352122995167,94.07021777867091
1729569902737046,-0.0073670987,-0.034742907,-4.2201824,-0.010181894,0.010247169,-0.2984192,0.009664684,0.04667346,-0.033400953,0.6406517180368733,-2.785834601216717,94.06912020833539
1729569902745046,-0.0076715085,-0.034406632,-4.220842,-0.010098543,0.010604242,-0.29862872,0.010418821,0.044634096,-0.026188789,0.6426333198401672,-2.7775571172394264,94.06822118962096
1729569902761046,-0.008260025,-0.03374234,-4.222329,-0.009986868,0.011240727,-0.298946,0.00697968,0.039780337,-0.019829718,0.645887747606231,-2.7612356742732667,94.06706799242114
1729569902769046,-0.008509664,-0.03342426,-4.223154,-0.009886488,0.011525587,-0.29908562,0.012547475,0.035607487,-0.017452985,0.6471697040297492,-2.7532639389817066,94.06680089061318
1729569902777046,-0.008753539,-0.033108953,-4.2240305,-0.009796974,0.011797932,-0.29916698,0.011189258,0.0340431,-0.010170042,0.6480033918194648,-2.7454702596927705,94.06632137706323
1729569902785046,-0.008991793,-0.03279653,-4.224957,-0.0097039705,0.012038826,-0.29921493,0.011625466,0.030111752,-0.0059939916,0.6485729386867533,-2.7378426662825226,94.06599410889052
1729569902801046,-0.009452095,-0.032180857,-4.226955,-0.009532364,0.012468932,-0.2991853,0.010725401,0.026881635,0.0018514692,0.6490009419310632,-2.7233408634982705,94.06614366712432
1729569902809046,-0.009197988,-0.031970117,-4.2271776,-0.009144006,0.01265263,-0.2989577,0.04854472,0.022962222,0.02845004,0.6488554836958034,-2.716333092598932,94.0663803061923
1729569902817046,-0.008947743,-0.031759858,-4.227466,-0.008743599,0.01283358,-0.29868123,0.050050903,0.022618797,0.034559518,0.6481966975836245,-2.709577293783248,94.06433549360543
1729569902825046,-0.008701212,-0.031550195,-4.2278185,-0.008362704,0.012994956,-0.29837543,0.047611885,0.02017198,0.038225204,0.6471756069032001,-2.7029377752016774,94.06242150639686
1729569902841046,-0.008218977,-0.031133162,-4.228705,-0.0076187206,0.013264874,-0.29764387,0.046498954,0.01686986,0.045722347,0.6446313504123287,-2.6905887774475574,94.05897332345268
1729569902849046,-0.007968418,-0.030922921,-4.2292356,-0.0072290897,0.013384501,-0.2972732,0.04870386,0.014953431,0.046335157,0.6431331176020222,-2.685042111314572,94.05739844013362
1729569902857046,-0.0077211387,-0.030713772,-4.2298226,-0.006851712,0.013489931,-0.2969052,0.047172245,0.013178679,0.04599988,0.6416412860704677,-2.679842054557128,94.0556196805452
1729569902865046,-0.007476949,-0.030505847,-4.230448,-0.006467939,0.013579318,-0.29651794,0.04797161,0.011173425,0.04840642,0.6402752459903188,-2.6747140287660938,94.05384799811726
1729569902881046,-0.0069970526,-0.030093921,-4.2318554,-0.005726537,0.013727526,-0.29571307,0.046337605,0.009262992,0.050304454,0.6388559568032568,-2.664742442143897,94.05081911296173
1729569902889046,-0.00676112,-0.029890133,-4.232635,-0.005359901,0.013792547,-0.29530764,0.04582951,0.008127652,0.050678845,0.6388758752801876,-2.659863622781308,94.04934998788453
1729569902897046,-0.0065277047,-0.029687865,-4.2334633,-0.0050143907,0.013831319,-0.29489315,0.043188803,0.0048464863,0.051811334,0.6391533295449827,-2.655107470896331,94.04812103885693
1729569902905046,-0.00629674,-0.029487321,-4.2343383,-0.0046769097,0.013859055,-0.29447055,0.042185128,0.0034669645,0.052824613,0.6397900640509034,-2.650603683945149,94.0468994023278
1729569902921046,-0.0058416333,-0.02909147,-4.236224,-0.0040136417,0.013891424,-0.29361966,0.041454244,0.0020230655,0.053180378,0.6425772520606419,-2.6425843854698257,94.04491987720661
1729569902929046,-0.0056182505,-0.0289142,-4.237213,-0.0037140332,0.013845962,-0.29315752,0.03745107,-0.0056828135,0.057768073,0.6447112545667235,-2.639169719769662,94.04406625652499
1729569902937046,-0.0055142124,-0.028168602,-4.237024,-0.0034457417,0.014169562,-0.29241878,0.03353643,0.040450014,0.09234249,0.647361455908919,-2.636057619441506,94.0441109346188
1729569902945046,-0.0054093194,-0.027435608,-4.236905,-0.0031810333,0.014476856,-0.29166457,0.03308855,0.038411815,0.094275914,0.6503613679524295,-2.63381772396741,94.04252657405627
1729569902961046,-0.005196938,-0.026006443,-4.2368746,-0.0026569492,0.015072566,-0.2901595,0.032755252,0.03723189,0.0940673,0.6569286510961159,-2.630461200170441,94.03945207546361
1729569902969175,-0.0050895154,-0.025309544,-4.2369576,-0.0024054695,0.015348285,-0.28941852,0.030936116,0.033917945,0.09115207,0.6603863037525287,-2.6291546176613227,94.03804939501204
1729569902977175,-0.004981435,-0.024624113,-4.2371044,-0.002169387,0.015610763,-0.28872168,0.029510323,0.03280968,0.08710473,0.6640751104452991,-2.627549114878446,94.03682404839566
1729569902985175,-0.004872741,-0.023949927,-4.2372994,-0.0019296438,0.015856864,-0.28805178,0.029967893,0.030762631,0.08373707,0.6680185568643482,-2.6254421359850344,94.035699808184
1729569903001175,-0.004662624,-0.022649078,-4.2378707,-0.0014661489,0.016301524,-0.28682688,0.028968431,0.027791247,0.07655658,0.6764690710482788,-2.6195551775768045,94.03398822720379
1729569903009175,-0.004561335,-0.022021864,-4.2382436,-0.0012698721,0.016491393,-0.28625664,0.0245346,0.02373359,0.071279705,0.6812224796505701,-2.615909601866496,94.03418907698023
1729569903017175,-0.004459708,-0.021404758,-4.2386727,-0.0010785144,0.016684895,-0.2857572,0.023919709,0.024187842,0.06242841,0.6861405939297335,-2.611856576816769,94.03440846248898
1729569903025175,-0.004357869,-0.020797571,-4.239157,-0.0009075365,0.016842421,-0.28530005,0.021372236,0.019690719,0.05714595,0.6908485187672324,-2.6073995249883444,94.03486045908306
1729569903041175,-0.004153869,-0.019612653,-4.2402854,-0.00056218856,0.017118338,-0.284451,0.021584244,0.017244834,0.053064894,0.6997150608432495,-2.5974090343988516,94.03604848770804
1729569903049175,-0.004051732,-0.019034425,-4.2409086,-0.00038377257,0.017239362,-0.2840562,0.022301998,0.015127937,0.049352642,0.7037552082866623,-2.5918649209921436,94.0369218834098
1729569903057175,-0.00394946,-0.01846546,-4.2415814,-0.0002015577,0.017359147,-0.28365695,0.022776857,0.014973105,0.049903985,0.70749243921608,-2.5859321824742705,94.03792389203181
1729569903065175,-0.0038139706,-0.017434925,-4.241216,-8.448931e-05,0.017599717,-0.2830172,0.014633549,0.03007124,0.0799708,0.7110813460720176,-2.579768291613397,94.03903525408691
1729569903081175,-0.0035292325,-0.015432453,-4.240708,0.000186727,0.017997505,-0.28176415,0.016951019,0.024861772,0.078314915,0.718062484123318,-2.567234846924971,94.04253931847306
1729569903089175,-0.0033803354,-0.014459622,-4.24056,0.00031095522,0.018170299,-0.28116027,0.015528526,0.021599231,0.07548556,0.7214480607335103,-2.560739237471903,94.04363603772674
1729569903097175,-0.0032333275,-0.013505973,-4.240481,0.0004410352,0.018314965,-0.2805781,0.016259996,0.018083258,0.07276982,0.7246359540614516,-2.5541103398136467,94.04484138284664
1729569903105175,-0.003088191,-0.012571226,-4.240455,0.0005626383,0.018437482,-0.2800379,0.015200384,0.0153146675,0.06752461,0.727725861659888,-2.54746182014679,94.0462878238661
1729569903121175,-0.0028035466,-0.010757257,-4.240599,0.0007830228,0.018629342,-0.2791174,0.013774031,0.011991243,0.057531517,0.7344586857920976,-2.533518158173785,94.04941742449329
1729569903129175,-0.0026641411,-0.009877299,-4.240766,0.0008715275,0.018704673,-0.27872136,0.011063086,0.00941637,0.04950538,0.7380153920196423,-2.526217467715516,94.05118314062702
1729569903137175,-0.0025267699,-0.009014981,-4.240994,0.0009505366,0.018758675,-0.2783665,0.009876137,0.0067502256,0.044357028,0.74156059379462,-2.518687358383757,94.05303773424151
1729569903145175,-0.0023914203,-0.008170132,-4.2412815,0.0010264124,0.018765751,-0.2780422,0.009484473,0.00088452356,0.040538605,0.7451490328604118,-2.5110682011306826,94.05506352263828
1729569903161175,-0.002124953,-0.0065442296,-4.24203,0.0011588088,0.018738871,-0.27743885,0.008274779,-0.0016799894,0.03770925,0.7522629862354774,-2.4955539890838567,94.05960042495573
1729569903169175,-0.0019947598,-0.005756314,-4.242471,0.0012225888,0.018703012,-0.2771536,0.007972499,-0.0044824556,0.035654753,0.7558941924589139,-2.4876615010086884,94.06211883546773
1729569903177175,-0.0018666957,-0.004984716,-4.242966,0.0012436958,0.018651478,-0.27689207,0.0026383784,-0.006441725,0.032693148,0.7596022230112142,-2.4796210052460723,94.06475338779047
1729569903185175,-0.001462507,-0.0043957024,-4.241619,0.0014851643,0.018493226,-0.27619088,0.030183552,-0.019781522,0.08764862,0.7632359129245644,-2.471651487543323,94.06737426942546
1729569903201175,-0.0006740971,-0.0032547181,-4.2392206,0.001971484,0.018120576,-0.27489072,0.030394977,-0.02329063,0.08125975,0.7694596024799282,-2.4555790707803564,94.06999131601086
1729569903209175,-0.00028954152,-0.0027025195,-4.2381635,0.002196159,0.017925523,-0.27430713,0.02808438,-0.024381557,0.072948635,0.7724679580026093,-2.4476220879770882,94.07144094350932
1729569903217175,0.00012117997,-0.0021675932,-4.2371974,0.0024350826,0.017715666,-0.27381214,0.029865447,-0.026232095,0.061873343,0.7755073665199453,-2.4396741251643554,94.07292489237784
1729569903225175,0.00052527606,-0.0016444958,-4.236314,0.002657679,0.01748273,-0.27341518,0.027824542,-0.0291171,0.049620863,0.7783529750484431,-2.4318067500220195,94.0734695114231
1729569903241175,0.0013141823,-0.0006330203,-4.23481,0.0030749107,0.017028663,-0.27291635,0.026076987,-0.028379144,0.031176953,0.7841308274004697,-2.4173150564585715,94.07477570497896
1729569903249175,0.0016993111,-0.00014440584,-4.234186,0.003276732,0.01677597,-0.27282962,0.025227664,-0.031586736,0.010840594,0.7870803779120388,-2.41055912689255,94.07547517924658
1729569903257175,0.0020784484,0.00033275748,-4.233646,0.003475153,0.016491264,-0.27281716,0.024802603,-0.035588164,0.0015571712,0.7902192404405657,-2.404091206014808,94.07632636347334
1729569903265175,0.0024517863,0.00079857727,-4.233187,0.0036619322,0.016218053,-0.27286044,0.023347411,-0.034151364,-0.005409121,0.7935753909328072,-2.3979706789157706,94.07704091919379
1729569903281175,0.0031813919,0.0016967297,-4.232508,0.0040179817,0.015626438,-0.27316853,0.022253092,-0.03697595,-0.019256026,0.8001195555862146,-2.386992893152315,94.07888643247144
1729569903289175,0.0035379662,0.0021292053,-4.2322726,0.0041621886,0.015315509,-0.2734272,0.018025864,-0.03886607,-0.032331795,0.803428276871691,-2.382074740288635,94.079844731092
1729569903297175,0.0038942273,0.002557194,-4.2321124,0.0042969137,0.015006268,-0.27374363,0.01684064,-0.038655125,-0.03955513,0.8070279222591399,-2.3775206258673314,94.08083200036236
1729569903305175,0.0042450177,0.0029743284,-4.2320266,0.004426052,0.014697942,-0.274096,0.016142264,-0.038540803,-0.04404783,0.8108440662563641,-2.373283121134615,94.08136094969352
1729569903321175,0.0037470201,0.0029085684,-4.229638,0.004071953,0.0137650315,-0.27426425,-0.022131192,-0.058306903,-0.010514631,0.8198639353138161,-2.365629326673973,94.0842783779704
1729569903329175,0.003508557,0.002875078,-4.228593,0.0038843148,0.013287591,-0.27438062,-0.023454746,-0.05968008,-0.014547258,0.8249151504253606,-2.3622010693754847,94.08674988954202
1729569903337175,0.0032767658,0.0028408396,-4.227644,0.0037004682,0.01280185,-0.27451903,-0.02298082,-0.06071757,-0.017300248,0.8301590436616144,-2.3590810806036324,94.0893784607742
1729569903345175,0.0030512228,0.0028057175,-4.2267814,0.0034775669,0.012322729,-0.27471706,-0.027862668,-0.05989009,-0.024754552,0.8355123664620079,-2.3563704024431398,94.09202285136308
1729569903361175,0.002617259,0.0027322613,-4.225331,0.0030412227,0.011345811,-0.27528736,-0.027271511,-0.06105739,-0.035643578,0.8453429369567041,-2.352299588568121,94.09717816303144
1729569903369175,0.0023776172,0.002685618,-4.2247386,0.0027898762,0.010851496,-0.27564996,-0.031418312,-0.06178941,-0.045325603,0.8494006308830184,-2.3511436727101653,94.0998615051835
1729569903377175,0.0021433088,0.002637594,-4.224233,0.0025336393,0.010344138,-0.27604252,-0.032029606,-0.063419685,-0.04906952,0.8530463867529298,-2.3503359634542385,94.10297076420288
1729569903385175,0.0019140372,0.0025881308,-4.223812,0.0022727596,0.009856304,-0.2765234,-0.032609966,-0.060979273,-0.06011128,0.8560961409547017,-2.349804255606187,94.1061289722664
1729569903401175,0.001469411,0.00248479,-4.223218,0.0017439536,0.008897778,-0.2776692,-0.033050373,-0.059907902,-0.071611255,0.8601670432208696,-2.3494340469267727,94.11262437500523
1729569903409175,0.0012534745,0.002430786,-4.2230306,0.0014835722,0.008417213,-0.27832115,-0.03254767,-0.060070537,-0.08149444,0.861335784532793,-2.3497719985275047,94.1160322071395
1729569903417175,0.0010416073,0.0023749843,-4.222921,0.0012408348,0.007917481,-0.27898285,-0.030342167,-0.062466595,-0.08271261,0.8619629898432475,-2.3506801103453285,94.11941350537553
1729569903425175,0.0008335997,0.002317315,-4.2228885,0.0009914545,0.0074439305,-0.2796567,-0.031172544,-0.059193753,-0.08423253,0.8622648747045981,-2.3521855136653973,94.12284523850673
1729569903441175,0.00036984147,0.0022926652,-4.222498,0.0004826515,0.006523716,-0.28089753,-0.03180018,-0.057513416,-0.07755123,0.8612457549072506,-2.3562785441063485,94.13001899504157
1729569903449175,0.000115405535,0.0023234035,-4.222151,0.00022243022,0.006077728,-0.28146085,-0.03252766,-0.0557485,-0.07041544,0.8599244263004885,-2.358815545422442,94.13342594527955
1729569903457175,-0.00013444148,0.002349969,-4.221886,-2.7948678e-05,0.0056446227,-0.28204045,-0.03129736,-0.054138128,-0.072449446,0.8580095494346558,-2.361576216561349,94.13684703731226
1729569903465175,-0.00037990493,0.0023724532,-4.221693,-0.0002846295,0.005221752,-0.2826377,-0.032085102,-0.05285884,-0.07465482,0.8555451194175824,-2.3646893749269275,94.14037970081955
1729569903481175,-0.0008582602,0.0024051804,-4.2215424,-0.000764358,0.0043588327,-0.28381488,-0.029983029,-0.05393245,-0.07357448,0.8497684557837225,-2.372101339010463,94.1473932518025
1729569903489175,-0.0010912773,0.002415607,-4.2215805,-0.0009923027,0.003952224,-0.2843961,-0.028493086,-0.050826114,-0.07265434,0.8462203097990058,-2.3759577293840155,94.15092720463929
1729569903497175,-0.001320322,0.0024222378,-4.221692,-0.0012109424,0.0035505819,-0.28495592,-0.027329965,-0.050205242,-0.06997585,0.8422552980416734,-2.3797859316763725,94.15439349017164
1729569903505175,-0.001545366,0.0024250913,-4.221875,-0.0013992657,0.0031406535,-0.28552583,-0.023540413,-0.051241044,-0.07123873,0.8379731236269515,-2.383542792765026,94.15784566354263
1729569903513175,-0.0017527181,0.0024196424,-4.2221274,-0.0015780124,0.0027474174,-0.28608772,-0.02234333,-0.049154505,-0.07023662,0.8333943411945164,-2.387185586320815,94.16130417785543
1729569903529175,-0.0021562593,0.0023983791,-4.2228208,-0.001891089,0.0019869318,-0.28718337,-0.01956729,-0.04753035,-0.068478286,0.8232627626168467,-2.3947301219234998,94.16827779270768
1729569903537175,-0.0023525478,0.0023826605,-4.223259,-0.002029885,0.0016171759,-0.2877109,-0.017349506,-0.046219487,-0.06594136,0.8176619415755073,-2.3987273583031827,94.17171058223568
1729569903545175,-0.0025451877,0.002363727,-4.22376,-0.0021609745,0.0012606271,-0.2882107,-0.016386183,-0.0445686,-0.062473115,0.8117812152498007,-2.4026865800066104,94.17514264570333
1729569903561175,-0.0026954946,0.00234027,-4.2240286,-0.002354013,0.0005568573,-0.28891364,-0.012064905,-0.043985605,-0.043934207,0.7994035685958996,-2.4105326364682864,94.1819527846197
1729569903569175,-0.002658845,0.0023352501,-4.2238154,-0.0024126205,0.00022967548,-0.28910273,-0.0073259287,-0.040897727,-0.023636965,0.7930740581474525,-2.414375248803547,94.18522709380622
1729569903577175,-0.0026241816,0.0023266783,-4.223681,-0.0024576718,-9.293695e-05,-0.28926408,-0.005631416,-0.040326554,-0.02016872,0.7868193832622167,-2.4182283400542146,94.18852287372083
1729569903585175,-0.0025913469,0.0023146782,-4.223612,-0.0024941068,-0.00041178177,-0.28938472,-0.004554371,-0.039855603,-0.015079974,0.7807562251091791,-2.422062215163669,94.19171440424535
1729569903601175,-0.002527076,0.0022513375,-4.223693,-0.002536753,-0.0010537163,-0.2896235,-0.0026653868,-0.040120907,-0.014923512,0.7684810304017181,-2.429596903057734,94.19872952488483
1729569903609175,-0.0024972993,0.0022150632,-4.2238393,-0.0025644195,-0.0013733464,-0.2897369,-0.0034583206,-0.039953765,-0.014174729,0.7625298814244248,-2.433145392644418,94.20257914016968
1729569903617175,-0.002469052,0.0021757667,-4.224054,-0.0025944666,-0.0016729797,-0.2898735,-0.0037558782,-0.037454154,-0.01707673,0.756734970867016,-2.4365533187069945,94.20636034521101
1729569903625175,-0.0024423143,0.0021335955,-4.2243357,-0.0026282142,-0.0019661137,-0.29003802,-0.0042184545,-0.03664175,-0.0205636,0.7510761319282688,-2.439693138862248,94.21005118029149
1729569903633175,-0.0024170137,0.0020885796,-4.224682,-0.0026496053,-0.002256262,-0.2902059,-0.002673885,-0.03626855,-0.020984558,0.74560477133301,-2.442668679078278,94.21367259747286
1729569903649175,-0.002369844,0.0019898277,-4.2255487,-0.0026365612,-0.002874196,-0.29049543,0.00081525644,-0.038620867,-0.018095598,0.7351848324127763,-2.448381358774945,94.22087482177206
1729569903657175,-0.002308187,0.0019449712,-4.226066,-0.0025878544,-0.0031677503,-0.29063097,0.0060883462,-0.03669428,-0.01694262,0.7302068564712686,-2.451363327428739,94.22429831483576
1729569903665175,-0.0022478316,0.0018972354,-4.226642,-0.0025125665,-0.003443424,-0.29074824,0.009410985,-0.034459196,-0.014659016,0.7255708809571658,-2.4544967730635654,94.22675546567478
1729569903681175,-0.002130495,0.0017934202,-4.227963,-0.0023746928,-0.0039880653,-0.2909502,0.008617105,-0.034040086,-0.012623145,0.7176992324363197,-2.4606382794598143,94.23165591381635
1729569903689175,-0.0023112863,0.0013600198,-4.227464,-0.002362092,-0.004508709,-0.2907172,0.0015750992,-0.06508047,0.029124318,0.7145021898501894,-2.4635081140195068,94.23390654446081
1729569903697175,-0.002487006,0.0009307435,-4.2270484,-0.0023307495,-0.0050171935,-0.29047734,0.003917812,-0.06356055,0.02998486,0.7117191820124522,-2.466031855871697,94.23743893891098
1729569903705175,-0.0026577145,0.0005054333,-4.226704,-0.00230596,-0.005511826,-0.29021913,0.0030986846,-0.06182905,0.032275915,0.7092852053737287,-2.468548552336371,94.24088119970891
1729569903721175,-0.002984782,-0.0003335037,-4.226248,-0.0022509138,-0.0064370753,-0.28964323,0.0034403927,-0.057828087,0.035993755,0.7055804244482978,-2.4739122508794664,94.24756829654645
1729569903729175,-0.0031481704,-0.0007466547,-4.226131,-0.002229244,-0.0068830447,-0.28939053,0.0027087224,-0.05574617,0.031586736,0.7043575603136778,-2.4769438418603014,94.25070379619038
1729569903737175,-0.0033069018,-0.0011562931,-4.226086,-0.0021845163,-0.0073284814,-0.28919917,0.005590962,-0.055679582,0.023920087,0.7033761391486575,-2.4803397020128224,94.25417011195478
1729569903745175,-0.0034609826,-0.0015625526,-4.226112,-0.002129711,-0.0077650617,-0.28905663,0.006850663,-0.05457253,0.017818063,0.702515053852221,-2.4843013006258166,94.25757004485637
1729569903761175,-0.003755984,-0.0023653766,-4.2263694,-0.0020734693,-0.008605595,-0.2889128,0.0035151022,-0.052533314,0.0089891255,0.7010494303880912,-2.4935615276919334,94.26407782842003
1729569903769175,-0.0038972115,-0.0027622522,-4.2265863,-0.002032206,-0.009031738,-0.28890166,0.005157926,-0.053267922,0.0013932585,0.7008034714126468,-2.498841791994921,94.26722836795089
1729569903777175,-0.004034275,-0.003156291,-4.2268677,-0.0019828156,-0.009437423,-0.28890538,0.006173795,-0.05071063,-0.00046566126,0.7008892105327784,-2.504443616952335,94.27028297586749
1729569903785175,-0.0041672573,-0.00354756,-4.2272115,-0.0019219673,-0.009836382,-0.2889216,0.0076060384,-0.049869876,-0.002026558,0.7010908832944597,-2.5104379380251145,94.27328612348202
1729569903801175,-0.0043960335,-0.0043450017,-4.2280836,-0.0017960565,-0.010621627,-0.288968,0.007869421,-0.049077787,-0.0029001383,0.7020954926824358,-2.522769571698636,94.27942784139269
1729569903809175,-0.0051340903,-0.0049297963,-4.227726,-0.0018824624,-0.011045543,-0.2888132,-0.010800737,-0.052989457,0.019349158,0.7027446062174706,-2.529232301136548,94.2826101249162
1729569903817175,-0.0058528003,-0.005507297,-4.2274475,-0.0019623907,-0.011442972,-0.28865647,-0.009991039,-0.049678724,0.019591302,0.7035058204656259,-2.5356583145265463,94.28600379129843
1729569903825175,-0.006552688,-0.0060776942,-4.2272363,-0.0020375024,-0.011830466,-0.28849563,-0.009388953,-0.048436686,0.02010539,0.7040590433345294,-2.5422362675979735,94.28942680660643
1729569903841175,-0.007898009,-0.0071980003,-4.227037,-0.0021628623,-0.012574265,-0.2882022,-0.007834998,-0.04648743,0.018339604,0.7048081562056305,-2.5562159180790363,94.29599341527036
1729569903849175,-0.008544581,-0.007748258,-4.2270446,-0.0022579818,-0.0129462285,-0.2881032,-0.011889933,-0.046495464,0.012375413,0.7049337969097113,-2.563556518675092,94.29918627012063
1729569903857175,-0.009174515,-0.008292168,-4.2271223,-0.0023162386,-0.013297157,-0.2880545,-0.0072820983,-0.043866105,0.006087124,0.7047445757551827,-2.5707174746237174,94.30229555356148
1729569903865175,-0.009787444,-0.008833786,-4.2272677,-0.0023674124,-0.013631218,-0.28803146,-0.0063967304,-0.04175759,0.0028796492,0.7042106002661663,-2.577477218027999,94.30525282653986
1729569903881175,-0.010966011,-0.009897845,-4.2277565,-0.0024580718,-0.014238458,-0.28804907,-0.00566621,-0.037952498,-0.0011008233,0.7021123757362382,-2.590560301567727,94.31083738327324
1729569903889175,-0.011532436,-0.010420562,-4.2280836,-0.0024852387,-0.014529634,-0.28806657,-0.0033958638,-0.036397018,-0.0021867454,0.70040219124259,-2.5972541287880513,94.3135482763686
1729569903897175,-0.012084135,-0.010937174,-4.228472,-0.0025109139,-0.014803678,-0.2880721,-0.0032093956,-0.03425544,-0.00069290394,0.6981285748019207,-2.6042458391790366,94.31614329485731
1729569903905175,-0.012621463,-0.011447773,-4.228921,-0.0025255582,-0.015074668,-0.28809124,-0.0018305435,-0.03387383,-0.0023916364,0.6955505893409569,-2.611340361375743,94.31858834862496
1729569903921175,-0.013654297,-0.012451627,-4.2299943,-0.0025179938,-0.015604643,-0.28817898,0.00047277714,-0.03312342,-0.005483627,0.6896004440042289,-2.625952588206871,94.3230818121699
1729569903929175,-0.014150407,-0.012945009,-4.230615,-0.0025030952,-0.015840216,-0.2882244,0.0018623249,-0.029446555,-0.005677342,0.6863305716881196,-2.6333521390264574,94.32521962499916
1729569903937175,-0.014870452,-0.013390093,-4.231126,-0.0026320843,-0.016076595,-0.2882282,-0.016123638,-0.029547371,-0.00047683713,0.6826906252230756,-2.6410164713509374,94.32726882990552
1729569903945175,-0.01556036,-0.013824948,-4.231679,-0.002747032,-0.01629078,-0.28821623,-0.014368474,-0.026773194,0.0014975666,0.6788849429530599,-2.648765678628603,94.32961381386977
1729569903961175,-0.016891075,-0.014682379,-4.2329507,-0.002941974,-0.016662456,-0.28817248,-0.012183867,-0.023229744,0.0027343628,0.6701683352131015,-2.6640462909387326,94.33121033853469
1729569903969361,-0.017532662,-0.0151049765,-4.233666,-0.0030297074,-0.016848825,-0.28812557,-0.010717491,-0.022766775,0.0057303756,0.6653366919883121,-2.6715251293387907,94.3318743717969
1729569903977361,-0.018158969,-0.015523606,-4.2344327,-0.0031167849,-0.017019011,-0.28807437,-0.010884686,-0.021273268,0.0064000483,0.6602114063185266,-2.6788258067304667,94.33242829006402
1729569903985361,-0.01877023,-0.015938219,-4.235249,-0.0031622704,-0.017176334,-0.28801095,-0.005685695,-0.01966534,0.007927418,0.6548382381157644,-2.6859393455675895,94.33302968374339
1729569904001361,-0.019948563,-0.016755208,-4.237025,-0.0032207184,-0.017422356,-0.2877866,-0.0036529962,-0.015376368,0.014021992,0.6434140127997628,-2.699833846919028,94.33373036940996
1729569904009361,-0.020516284,-0.01715748,-4.237963,-0.0032428433,-0.017541401,-0.28761753,-0.0027656204,-0.014880671,0.02113357,0.637219434973759,-2.70651159754482,94.33388445992968
1729569904017361,-0.02107013,-0.017555691,-4.238946,-0.003249094,-0.017649064,-0.28744882,-0.0007813214,-0.013457843,0.021088867,0.6309276322538763,-2.712901340381234,94.3338736210912
1729569904025361,-0.021614753,-0.01795588,-4.239972,-0.0032392845,-0.017746482,-0.28726146,0.0012261734,-0.012177275,0.023420898,0.6243859765300854,-2.71910115189725,94.33373772683342
1729569904041361,-0.022663899,-0.018743444,-4.2421474,-0.0031869744,-0.017889606,-0.28676134,0.0032693786,-0.008945237,0.03125705,0.6109203395690296,-2.7311286292901955,94.3340695708849
1729569904049361,-0.023168853,-0.019130921,-4.2432933,-0.0031235525,-0.017944884,-0.2864748,0.007927737,-0.0069097145,0.035818666,0.60401662104309,-2.736858850236624,94.33414478868553
1729569904057361,-0.023661071,-0.01951414,-4.2444773,-0.0030768753,-0.017987581,-0.28616455,0.0058346484,-0.0053371764,0.038780272,0.5969986261998641,-2.7423933602278914,94.33398688743848
1729569904065361,-0.02409485,-0.01967808,-4.2446365,-0.002914669,-0.01799117,-0.28559732,0.020275794,-0.00044866462,0.07090345,0.5898667491504921,-2.7476507410601,94.33381379750912
1729569904081361,-0.024924884,-0.020010037,-4.2451386,-0.0025276723,-0.017956022,-0.28433505,0.024187291,0.0021967571,0.07889233,0.5749981691513135,-2.7579288026605,94.33293870882662
1729569904089361,-0.025321389,-0.02017764,-4.2454777,-0.00231601,-0.017934198,-0.28367013,0.026457796,0.0027280764,0.083114944,0.5677643963336767,-2.762888579301351,94.33239482490994
1729569904097361,-0.025705798,-0.020346217,-4.2458725,-0.0020886979,-0.017906245,-0.28298745,0.028414011,0.0034940892,0.08533522,0.5606154349850235,-2.7676994328542657,94.33187061750083
1729569904105361,-0.026081692,-0.020492174,-4.246321,-0.001851324,-0.017829545,-0.28231886,0.029671732,0.0095875,0.083573155,0.5537309893585457,-2.7724494032754357,94.3311743899569
1729569904121361,-0.026798071,-0.020786386,-4.247375,-0.001355765,-0.017657472,-0.2809997,0.030972432,0.010754563,0.08244812,0.5401346969436592,-2.7819055938326707,94.32688892607032
1729569904129361,-0.027138827,-0.020934401,-4.24796,-0.001090643,-0.017556086,-0.28037414,0.033140253,0.012673204,0.07819384,0.5338321488236027,-2.7862139116083258,94.32477923090914
1729569904137361,-0.027468149,-0.021082731,-4.2485933,-0.0008099695,-0.01743582,-0.279747,0.035084184,0.015033175,0.078391284,0.5279109051169871,-2.790013433150219,94.3226053155449
1729569904145361,-0.027786106,-0.021231337,-4.2492743,-0.0005154965,-0.017342769,-0.27914676,0.036809128,0.0116315195,0.07503107,0.5224104961361029,-2.7934458348765814,94.32028612925389
1729569904161361,-0.028388603,-0.021529518,-4.250773,8.20057e-05,-0.017165186,-0.27794304,0.037343882,0.011098919,0.07523224,0.5122584636748632,-2.799262691000267,94.31550773528379
1729569904169361,-0.028673477,-0.021678885,-4.2515883,0.00039003068,-0.017055405,-0.27733523,0.03850312,0.013722572,0.075977296,0.5075522707894355,-2.801881140468328,94.31302781589345
1729569904177361,-0.028958447,-0.021830156,-4.2524457,0.0006971873,-0.016946638,-0.2767359,0.038394578,0.013595912,0.07491559,0.5030572774466185,-2.8041756276084424,94.3104923054066
1729569904185361,-0.029358748,-0.021557359,-4.252445,0.00092703744,-0.016584285,-0.2759441,0.028731264,0.045294173,0.098973505,0.4987734885918666,-2.80612072025946,94.30820857651521
1729569904201361,-0.030121652,-0.021036034,-4.25263,0.0013693777,-0.015881334,-0.27441305,0.027646266,0.043934442,0.095691524,0.49137159005313186,-2.809868590837368,94.30255146746832
1729569904209361,-0.03048473,-0.020786814,-4.252812,0.001610246,-0.01550873,-0.27365533,0.030108538,0.04657544,0.0947155,0.48804784454372296,-2.811291835980373,94.29970367202252
1729569904217361,-0.030835837,-0.020544687,-4.253051,0.0018478036,-0.015149643,-0.27289948,0.029694695,0.044885904,0.094480805,0.48519687820549556,-2.812315462314158,94.29671036104843
1729569904225361,-0.031175083,-0.020309405,-4.2533455,0.002117512,-0.014790381,-0.2721726,0.033713557,0.044907674,0.09085982,0.48265476338204333,-2.812938613983552,94.2937571926348
1729569904241361,-0.03181903,-0.019858122,-4.254096,0.0026334804,-0.014084428,-0.27093062,0.032248016,0.044122104,0.077623874,0.47873289610009395,-2.812413123579163,94.28794018007909
1729569904249361,-0.032110132,-0.019636529,-4.2545314,0.0029344233,-0.0137505755,-0.27035376,0.037617862,0.041731514,0.07210672,0.4774735154384211,-2.8113993273882496,94.28493970340831
1729569904257361,-0.03239043,-0.019420953,-4.2550178,0.0032149341,-0.013420135,-0.2698145,0.035063855,0.041305084,0.06740913,0.47656768524412946,-2.8100049316632907,94.28125244892117
1729569904265361,-0.032660212,-0.019211112,-4.255554,0.0035048216,-0.013095088,-0.26931062,0.036235925,0.040630806,0.06298348,0.4760343452629797,-2.8083581577996997,94.27756341737047
1729569904281361,-0.033169072,-0.018807992,-4.256772,0.0040862295,-0.012465268,-0.26832768,0.036337994,0.039363742,0.06143376,0.4759153171842683,-2.8039010240394866,94.27010655591434
1729569904289361,-0.033408564,-0.018614255,-4.2574506,0.0043706098,-0.012153612,-0.26784438,0.035547532,0.03895699,0.06041303,0.47620817047673314,-2.801192389175738,94.26637333808306
1729569904297361,-0.03363849,-0.018425453,-4.2581735,0.0046401364,-0.011854844,-0.26734647,0.033690825,0.037346035,0.06223842,0.4767564044996846,-2.7982903636663803,94.26274192024566
1729569904305361,-0.033859104,-0.018241461,-4.258918,0.004914292,-0.011559397,-0.2668573,0.034269467,0.036930896,0.06114691,0.47738121522464855,-2.7951844777555626,94.25917846115314
1729569904321361,-0.0342112,-0.017821277,-4.258652,0.0055328915,-0.011025315,-0.26544762,0.03866246,0.033380114,0.08810497,0.47908274325420264,-2.7886581693340515,94.2523872749146
1729569904329361,-0.034371074,-0.017615683,-4.2586155,0.0058611697,-0.010762614,-0.2647527,0.04103477,0.03283762,0.08686631,0.4800465517819801,-2.785292027297118,94.24841065090426
1729569904337361,-0.034522776,-0.017415509,-4.2586403,0.006178352,-0.010503075,-0.26407084,0.039647795,0.032442387,0.08523091,0.4810724804556406,-2.7817194652861033,94.24448936665894
1729569904345361,-0.034666426,-0.017220667,-4.258725,0.00650037,-0.010260533,-0.2634379,0.040252224,0.030317808,0.07911771,0.48210734902834257,-2.7781114408009064,94.24049965805972
1729569904361361,-0.03493029,-0.016846841,-4.2590685,0.007118332,-0.009824337,-0.2622858,0.038622644,0.027262198,0.072006136,0.48412688258463477,-2.7701197186231155,94.23289361981504
1729569904369361,-0.035050783,-0.016667772,-4.2593055,0.0074250856,-0.009620159,-0.2617433,0.03834418,0.025522312,0.06781146,0.4850867882393702,-2.7658373163007837,94.2292174316214
1729569904377361,-0.03516384,-0.01649385,-4.259597,0.007728501,-0.009434256,-0.26124448,0.037926946,0.023237893,0.062353905,0.4861078784035003,-2.7614812058507763,94.22567033625224
1729569904385361,-0.035269536,-0.016324962,-4.2599416,0.008039719,-0.009238255,-0.26077902,0.038902275,0.024500068,0.05818158,0.48734279963974986,-2.7569560819824614,94.22217100425672
1729569904401361,-0.03544974,-0.016015945,-4.2607865,0.0086504305,-0.008909107,-0.25999102,0.03816944,0.02057175,0.049250197,0.4898804767377698,-2.747651809505494,94.21529517221649
1729569904409361,-0.035529446,-0.01586866,-4.261285,0.008952298,-0.008777591,-0.25961772,0.037733465,0.016439473,0.046662983,0.4912407220164165,-2.7431260970791898,94.2118853279044
1729569904417361,-0.03560237,-0.015726168,-4.2618313,0.009251116,-0.008638873,-0.25927407,0.037352204,0.01733983,0.04295632,0.4928195139477705,-2.7389589693946257,94.20855910029715
1729569904425361,-0.0356687,-0.015588309,-4.2624035,0.009537858,-0.008518369,-0.25895113,0.03584276,0.015062978,0.040367242,0.49462587412460546,-2.7350824702684826,94.20543191666053
1729569904441361,-0.035665013,-0.015087636,-4.2636027,0.010193787,-0.008154447,-0.2582404,0.04099554,0.022745108,0.044420358,0.49865699894022003,-2.7273374159486363,94.19944708176315
1729569904449361,-0.035597533,-0.014729599,-4.2642274,0.010538533,-0.007937867,-0.25782204,0.043093342,0.027072499,0.05229562,0.5005250452262417,-2.723321845555967,94.1962654029885
1729569904457361,-0.03552617,-0.014380936,-4.264896,0.01088367,-0.0077422378,-0.25738245,0.043142118,0.024453677,0.05494803,0.5023071514265224,-2.719253294911373,94.19309738467011
1729569904465361,-0.035454288,-0.014035,-4.2656064,0.011222174,-0.007539813,-0.25695458,0.04231301,0.025303101,0.05348399,0.5039368652272864,-2.7151146698674986,94.19008016804861
1729569904481361,-0.035299096,-0.013369864,-4.2671485,0.011880815,-0.0071687307,-0.25610742,0.04116504,0.023192639,0.052947547,0.5068078474389379,-2.7067729303781816,94.18424406316578
1729569904489361,-0.03521594,-0.013050245,-4.267955,0.012186495,-0.0069964235,-0.2556608,0.038209952,0.021538405,0.055827197,0.5082686973442281,-2.702600586408432,94.18144588241434
1729569904497361,-0.03512922,-0.012738968,-4.268799,0.0124983415,-0.0068252296,-0.2552209,0.038980853,0.02139923,0.054989006,0.5096745166625004,-2.6983936405651523,94.17884016456921
1729569904505361,-0.035038833,-0.012435803,-4.26968,0.012827956,-0.006659764,-0.25479063,0.041201826,0.020683218,0.053782012,0.5111584689305029,-2.6941025195198125,94.17637767574244
1729569904513361,-0.03494478,-0.012140611,-4.2705975,0.013145679,-0.0065120524,-0.2543683,0.039715316,0.018463936,0.052791085,0.5126817259235334,-2.689734916576546,94.17399046875411
1729569904529361,-0.03474604,-0.011573554,-4.272535,0.013774536,-0.0062489845,-0.25344792,0.039303556,0.016441742,0.057524066,0.5162435470420188,-2.6813241197629902,94.16935423785816
1729569904537361,-0.034632135,-0.011306478,-4.2735534,0.014111155,-0.0061536394,-0.25296444,0.042077385,0.011918134,0.06043538,0.5183006218005158,-2.677325368356546,94.16714712306202
1729569904545361,-0.034514774,-0.011046889,-4.274576,0.014439974,-0.0060702055,-0.25245878,0.041102406,0.010429241,0.063207,0.5205905356658228,-2.673436032094639,94.16476804315644
1729569904561361,-0.033666994,-0.010863082,-4.2757354,0.015268837,-0.0060022427,-0.25123593,0.051803943,0.0042476747,0.076428056,0.525890579964869,-2.666253121527707,94.16032908738171
1729569904569361,-0.032951217,-0.010930904,-4.2758956,0.015762826,-0.0060205236,-0.25052747,0.06174866,-0.0022851164,0.08855759,0.5287319255081797,-2.662706980887212,94.15818489177042
1729569904577361,-0.03224627,-0.010998145,-4.2761083,0.016245963,-0.0060536074,-0.24978837,0.060392074,-0.0041354797,0.09238719,0.5318158707040611,-2.659183927191549,94.15602024989388
1729569904585361,-0.031551905,-0.011064946,-4.276372,0.016696222,-0.006091456,-0.24904548,0.056282382,-0.0047310605,0.09286217,0.5349691957655893,-2.6557237033883663,94.15395208503237
1729569904601361,-0.030196678,-0.011196301,-4.2770457,0.01759747,-0.0061823055,-0.24767587,0.056328017,-0.0056780986,0.085600644,0.5416740074652154,-2.649144732280137,94.15021404600293
1729569904609361,-0.029535163,-0.011261167,-4.2774305,0.018032921,-0.0062441337,-0.24700423,0.05443138,-0.0077285217,0.083955,0.545589489299742,-2.6461843135256786,94.14840802515943
1729569904617361,-0.02888291,-0.011326095,-4.277861,0.01845372,-0.0063257874,-0.24635154,0.0525997,-0.010206712,0.08158571,0.5498397095081032,-2.6435730398849118,94.14672649554392
1729569904625361,-0.028239686,-0.011391265,-4.278337,0.018857393,-0.0064099105,-0.24570656,0.050459288,-0.010515388,0.080622725,0.5544125234228341,-2.641246594354002,94.14522425869971
1729569904633361,-0.02760525,-0.011456748,-4.2788563,0.019251797,-0.006515114,-0.24506383,0.049300488,-0.013150449,0.080341466,0.5594521204134182,-2.6392325387648237,94.14375736046871
1729569904641361,-0.026979383,-0.011522737,-4.279418,0.019628098,-0.0066163572,-0.2444312,0.04703761,-0.012655392,0.07907859,0.5648492483652936,-2.637558221325832,94.14244247311179
1729569904657361,-0.025752608,-0.011656159,-4.280664,0.020335972,-0.0067997165,-0.24323146,0.04424213,-0.011459953,0.074983574,0.5767203911908872,-2.634827738340816,94.14003414375212
1729569904665361,-0.025151199,-0.01172373,-4.2813196,0.020684993,-0.006916172,-0.24263597,0.04362757,-0.01455692,0.07443689,0.5833474212935793,-2.634052546360238,94.138941687059
1729569904681361,-0.023975017,-0.011827008,-4.282746,0.021352584,-0.0070840046,-0.24148573,0.041724414,-0.010489544,0.07188972,0.5977743280720139,-2.6330805656970107,94.13713530788617
1729569904689361,-0.023939496,-0.011718304,-4.2829804,0.021469023,-0.007102126,-0.24081947,0.014554941,-0.0022651511,0.08328258,0.6054687017332453,-2.633136119638422,94.13636074785562
1729569904697361,-0.02389846,-0.011613854,-4.283264,0.021574998,-0.007109999,-0.2401687,0.013246899,-0.0009841751,0.08134543,0.6134088639262094,-2.6339963513704814,94.13592503304825
1729569904705361,-0.023852147,-0.011513483,-4.283595,0.021673875,-0.007106228,-0.23953967,0.012359581,0.00047142382,0.078629695,0.6215775187518475,-2.635373877192448,94.13554560033522
1729569904721361,-0.02374443,-0.011324586,-4.2843943,0.021845544,-0.0071215634,-0.23828146,0.010729301,-0.0009584764,0.07863808,0.6381386089893586,-2.6388024210145544,94.13504982288164
1729569904729361,-0.023683464,-0.011235924,-4.2848334,0.021944225,-0.0071284324,-0.23767357,0.012335134,-0.00085862115,0.07598661,0.6463785550735351,-2.640482081886171,94.13507545866354
1729569904737361,-0.023618018,-0.0111509105,-4.285316,0.022007767,-0.0071242396,-0.23708636,0.007942785,0.0005241018,0.07340126,0.6543389138894554,-2.6420649522683766,94.13522532747042
1729569904745361,-0.023543164,-0.011054697,-4.28584,0.022075873,-0.007113863,-0.23653665,0.00851322,0.0012970994,0.06871298,0.6619705034429432,-2.643565134065199,94.13540099614038
1729569904761361,-0.0233823,-0.010872969,-4.287011,0.022140231,-0.0070929476,-0.2354685,0.004022382,0.0013071984,0.066759065,0.675512386056324,-2.6464802482472134,94.13438954818643
1729569904769361,-0.023296785,-0.010787483,-4.287656,0.022165477,-0.007095424,-0.23497409,0.0031557863,-0.0003095483,0.061802562,0.6816025071096913,-2.6480137681490454,94.13413458983474
1729569904777361,-0.023208119,-0.010705433,-4.288338,0.022184018,-0.0070977923,-0.23451732,0.0023175962,-0.00029604416,0.057095658,0.6875241086590401,-2.64953532432655,94.13378974234111
1729569904785361,-0.023116428,-0.01062665,-4.2890286,0.02221156,-0.0070762136,-0.23405786,0.0034426337,0.0026973428,0.057432797,0.6931624649472324,-2.65085645796581,94.13357496158547
1729569904801361,-0.022924619,-0.010478665,-4.2905183,0.02221473,-0.0070832386,-0.2331447,0.00019813886,-0.00043906036,0.057072375,0.7036565787598377,-2.6527780122897733,94.13339625035506
1729569904809361,-0.022624798,-0.010864053,-4.2897973,0.022345735,-0.007252824,-0.23233257,0.016375678,-0.021198181,0.101516016,0.7082093417631954,-2.6535504382262216,94.13346083144262
1729569904817361,-0.022317145,-0.011242588,-4.289148,0.022485103,-0.0074301367,-0.2315127,0.017421087,-0.022164078,0.10248459,0.7121801341574281,-2.6539662450297277,94.13336584797031
1729569904825361,-0.022010718,-0.011613846,-4.2885675,0.022625657,-0.007602485,-0.23066968,0.017569168,-0.021543527,0.10537728,0.7156098882230817,-2.654213250576349,94.1333324885283
1729569904841361,-0.021401534,-0.012335504,-4.2876077,0.022889726,-0.0079155,-0.22912593,0.016504316,-0.01956342,0.09648408,0.7219584410942084,-2.65450576845449,94.13344283646526
1729569904849361,-0.021098804,-0.0126862265,-4.2872024,0.022997882,-0.00807961,-0.22844857,0.013519543,-0.020513775,0.08467025,0.7249387510556519,-2.654656621382915,94.13355318443753
1729569904857361,-0.020797433,-0.013030581,-4.2868605,0.023090705,-0.008215273,-0.2278573,0.011602881,-0.01695787,0.0739079,0.7278406536345344,-2.6551506328015044,94.13373320848423
1729569904865361,-0.020497382,-0.013368625,-4.2865806,0.02318026,-0.008350459,-0.22733176,0.011194264,-0.016898265,0.06569363,0.7307868093897035,-2.6559151543222668,94.13402358084636
1729569904881361,-0.019901048,-0.014026902,-4.286202,0.02335794,-0.008623547,-0.22647612,0.011105089,-0.017067999,0.05347747,0.7366944890643091,-2.6584452581242677,94.13464212275503
1729569904889361,-0.0195994,-0.014349212,-4.2861013,0.023437956,-0.00875849,-0.22616372,0.010001938,-0.016867882,0.039050356,0.7394925711543139,-2.6602074236796707,94.1350733288325
1729569904897361,-0.01929901,-0.014666104,-4.286058,0.023508858,-0.008884595,-0.22592255,0.008862698,-0.0157631,0.030145047,0.7422726960467724,-2.662172582053226,94.13546361760619
1729569904905361,-0.018999899,-0.014977726,-4.286045,0.023577532,-0.009006855,-0.22574864,0.008584233,-0.015282537,0.02173893,0.7449590611289321,-2.664330477847256,94.1359304045097
1729569904921361,-0.018405551,-0.01558581,-4.286185,0.023673726,-0.009226863,-0.22550008,0.0060121524,-0.013750511,0.015535391,0.7505484231636405,-2.6686076055842847,94.13712387523859
1729569904929361,-0.018110361,-0.015882598,-4.286335,0.023715388,-0.009333269,-0.22542578,0.0052077225,-0.013300682,0.009287149,0.7531729462838571,-2.6708984188399993,94.13775557605527
1729569904937361,-0.01783013,-0.016130298,-4.2852674,0.023780705,-0.009366313,-0.22504847,0.008164672,-0.004130532,0.047164034,0.7555494231947851,-2.6733445787807946,94.13841505191698
1729569904945361,-0.017550487,-0.016373765,-4.284282,0.023826852,-0.0094000725,-0.2247117,0.0057683787,-0.004219939,0.042095777,0.7576151566672653,-2.6762099767372334,94.13910279668437
1729569904961361,-0.016985828,-0.016839508,-4.28255,0.023907421,-0.009454967,-0.22413033,0.0050355443,-0.003430934,0.03633555,0.7610503044510084,-2.68287541831166,94.14068930839257
1729569904969361,-0.01670459,-0.017066687,-4.2817783,0.023939598,-0.009480803,-0.22391163,0.0040221494,-0.0032294772,0.027338041,0.7626867009447891,-2.6864904216596317,94.14144165188132
1729569904977609,-0.016424133,-0.017290065,-4.2810817,0.023968646,-0.009489784,-0.22378477,0.0035218173,-0.0010888389,0.01537992,0.76434885314657,-2.690099880058861,94.14220838028072
1729569904985609,-0.016144473,-0.017509699,-4.280459,0.024000743,-0.009488852,-0.22373708,0.0040121377,0.00011653173,0.0059623267,0.7663880493146187,-2.693801017658911,94.14313271150982
1729569905001609,-0.015587724,-0.017938029,-4.279431,0.024021897,-0.009509301,-0.2238496,0.0013221287,-0.0012780655,-0.0070324163,0.7709588469927651,-2.7012238399818016,94.14509782326493
1729569905009609,-0.015310824,-0.018146915,-4.2790217,0.024032414,-0.009502889,-0.22398461,0.0013145617,0.00080151943,-0.016877428,0.7734454901790776,-2.704832273674479,94.14624846458631
1729569905017609,-0.015034877,-0.018352361,-4.278681,0.024034645,-0.009506408,-0.22420117,0.0002789311,-0.00043993347,-0.02706982,0.7762932375586322,-2.708285584901132,94.14741176366427
1729569905025609,-0.014755759,-0.018548071,-4.278383,0.024019672,-0.009474882,-0.22445482,-0.0018717254,0.003940775,-0.031705946,0.7793069707442531,-2.711585481809713,94.14856800193654
1729569905041609,-0.014201263,-0.018929243,-4.2779846,0.023981515,-0.009404889,-0.22503538,-0.0023847679,0.0043745385,-0.03628526,0.7855432961956166,-2.71804726289356,94.15059939478292
1729569905049609,-0.013925876,-0.019114839,-4.2778807,0.023965318,-0.009357437,-0.22535291,-0.0020246953,0.005931593,-0.0396911,0.7887435138989798,-2.721189487389564,94.15162483439931
1729569905057609,-0.013651739,-0.019297067,-4.277838,0.023942338,-0.009291187,-0.22571021,-0.0028724314,0.008281204,-0.0446625,0.7918010448556898,-2.724032988591597,94.15277229591955
1729569905065609,-0.013857147,-0.019619009,-4.276479,0.023688711,-0.009333225,-0.22579901,-0.031703383,-0.0052547543,-0.0110995015,0.7947321721053304,-2.7267008471431002,94.15400259286093
1729569905081609,-0.01424141,-0.020245438,-4.27404,0.023180306,-0.009395342,-0.22604933,-0.03177533,-0.0038823343,-0.015645288,0.8006553323217073,-2.7309801174388784,94.15710229909789
