timestamp,x,y,z,vx,vy,vz,ax,ay,az,roll,pitch,yaw
1729571585627364,-0.24810286,0.19400333,-1.7295805,0.03268061,0.0067454176,-0.22555594,0.0,0.0,0.0,0.6093996290873432,0.29908867197040784,90.2359937641557
1729571585643364,-0.24848641,0.19263382,-1.732965,0.031374447,0.0050078495,-0.2272734,-0.08163507,-0.108598,-0.10734144,0.6023185007733797,0.29211663690064077,90.21721015533697
1729571585651364,-0.24866831,0.19196619,-1.7346693,0.030740375,0.00416531,-0.22804098,-0.07925904,-0.10531744,-0.09594671,0.5986338540464499,0.28829731154259497,90.20891124973308
1729571585659364,-0.24884503,0.19130924,-1.7363812,0.030102294,0.0033239422,-0.22876959,-0.07976009,-0.105170965,-0.09107589,0.5949534251674843,0.28425720421752504,90.20121340950466
1729571585667364,-0.2490157,0.19066271,-1.7381002,0.029479098,0.0024979908,-0.22945812,-0.077899545,-0.10324391,-0.08606724,0.5912080794801831,0.2796617119199477,90.1942942211517
1729571585683364,-0.24933957,0.18939993,-1.7415577,0.028272841,0.0009261136,-0.23063478,-0.075391024,-0.09824233,-0.073540956,0.5829901926773549,0.2687253332332493,90.18230003498994
1729571585691364,-0.24949308,0.1887829,-1.7432951,0.027699342,0.00014531275,-0.23111366,-0.071687385,-0.097600095,-0.059859823,0.5784579981844998,0.2622530458589124,90.17709527254232
1729571585699364,-0.24964108,0.18817508,-1.7450376,0.02714617,-0.00059939496,-0.23157918,-0.06914651,-0.093088455,-0.058190893,0.573728346916347,0.25521569146114237,90.172443742401
1729571585707364,-0.24978386,0.18757622,-1.746785,0.026567556,-0.0013218985,-0.23202118,-0.07232674,-0.09031294,-0.055249777,0.5689335692437004,0.24759899671155608,90.16834546579766
1729571585723364,-0.25005493,0.18640432,-1.7502934,0.025433332,-0.002726879,-0.23272842,-0.07088901,-0.08781128,-0.04420243,0.5586687096290341,0.2308249730739402,90.16143984850522
1729571585731364,-0.25018188,0.18583018,-1.7520534,0.024894856,-0.0034016853,-0.23301075,-0.06730948,-0.08435079,-0.035291538,0.5533446716480287,0.22178608100639302,90.15864619506861
1729571585739364,-0.25030437,0.18526399,-1.7538168,0.024361584,-0.004057381,-0.23327821,-0.066658944,-0.081961945,-0.033432618,0.5477780182469938,0.21235739074598703,90.1577581543522
1729571585747364,-0.2504226,0.18470553,-1.7555834,0.023832409,-0.0046858275,-0.2334949,-0.06614695,-0.07855583,-0.027084721,0.5420495345239053,0.20257905705854282,90.1573892198205
1729571585755364,-0.25159454,0.1837312,-1.757586,0.022815922,-0.005540376,-0.23376285,-0.1270608,-0.106818564,-0.033494085,0.5360874742144163,0.19255972361662468,90.15733449377419
1729571585771364,-0.2538599,0.18182895,-1.7615825,0.020839369,-0.007191555,-0.23414074,-0.123534575,-0.103198685,-0.023618339,0.5252933310930042,0.17229106109397,90.15714306078675
1729571585779364,-0.254955,0.18090014,-1.763576,0.019856313,-0.007980345,-0.23429674,-0.12288196,-0.09859871,-0.019500032,0.519868548732443,0.16177978216533725,90.15752547652802
1729571585787364,-0.25602606,0.17998582,-1.7655663,0.01891816,-0.008729564,-0.23440243,-0.117269106,-0.0936524,-0.013211741,0.5140920614417418,0.15096206957785613,90.15822208048587
1729571585803364,-0.25809935,0.17819712,-1.7695369,0.017119786,-0.010159602,-0.2344856,-0.11239841,-0.089377396,-0.005197711,0.5016196922054246,0.12825337059510447,90.16304406486377
1729571585811364,-0.25910237,0.17732337,-1.7715162,0.016252657,-0.010826223,-0.23443623,-0.10839104,-0.083327524,0.006170943,0.49462284345763996,0.11627236439819949,90.16701917803027
1729571585819364,-0.26008388,0.17646317,-1.7734913,0.0153915435,-0.011459361,-0.23436071,-0.10763923,-0.07914227,0.009439886,0.48708256360127455,0.10394366339392101,90.17126069441659
1729571585827364,-0.2610445,0.17561619,-1.7754622,0.014558593,-0.012072368,-0.23426017,-0.10411883,-0.07662584,0.012567266,0.47882031369879174,0.09125398057286528,90.17569345255488
1729571585843364,-0.26290536,0.17396078,-1.77939,0.01295895,-0.013253745,-0.2338989,-0.09997765,-0.073836066,0.022579914,0.45970492559482373,0.0649026191478111,90.18516686535806
1729571585851364,-0.2638066,0.1731518,-1.7813464,0.012202289,-0.013793236,-0.23365542,-0.09458267,-0.06743637,0.030433757,0.4490681569496596,0.051271728982055155,90.19013238862463
1729571585859364,-0.26468912,0.17235515,-1.7832979,0.0114626745,-0.014308462,-0.2333887,-0.0924518,-0.06440328,0.033339486,0.43772657111039354,0.0375265560869244,90.19524136545579
1729571585867364,-0.2655536,0.1715707,-1.7852441,0.010748941,-0.014778543,-0.23309644,-0.08921663,-0.058760166,0.036533922,0.4257339244217894,0.02384791300058398,90.20049379739046
1729571585883364,-0.26691583,0.16904013,-1.7906823,0.0095138615,-0.016137289,-0.23260094,-0.07719249,-0.0849216,0.030968336,0.399860246064517,-0.003068435805668528,90.2129862677679
1729571585891364,-0.2675767,0.16780795,-1.7933617,0.008941348,-0.01678385,-0.23227756,-0.07156422,-0.080820166,0.04042312,0.3861302151858402,-0.01606978114128527,90.22046541370239
1729571585899364,-0.2682244,0.16659711,-1.7960149,0.008401503,-0.017396707,-0.23192656,-0.0674806,-0.0766071,0.043874603,0.37181696228984945,-0.029037043055185043,90.2279923185313
1729571585907364,-0.26885915,0.16540721,-1.7986425,0.007899172,-0.01797215,-0.23152831,-0.06279139,-0.07193046,0.04978105,0.3571389038554058,-0.04184401041140711,90.23545782076646
1729571585923364,-0.27009016,0.16308902,-1.8038217,0.0069720824,-0.01899333,-0.23056318,-0.057943076,-0.06382365,0.060320828,0.3269334924437915,-0.06764175362118899,90.25055958622302
1729571585931364,-0.27068648,0.16196023,-1.8063735,0.006573895,-0.019457657,-0.22997984,-0.049773425,-0.05804095,0.07291697,0.31154516138704436,-0.08088786279611004,90.25797053156221
1729571585939364,-0.27126846,0.16085182,-1.8089001,0.0061934697,-0.01989893,-0.22933865,-0.047553156,-0.055159207,0.08014961,0.2962609631520513,-0.09440508981461398,90.26538829759535
1729571585947364,-0.27183792,0.1597628,-1.8114017,0.0058369646,-0.020304447,-0.22864345,-0.044563144,-0.050689556,0.08689984,0.2810066875637983,-0.10833241431249095,90.27166542202632
1729571585963364,-0.27293965,0.15764178,-1.8163301,0.0052116592,-0.02101139,-0.2270814,-0.03908158,-0.04418392,0.097627744,0.2510339714405489,-0.13702116919640808,90.28401488276498
1729571585971364,-0.27347192,0.15660922,-1.8187572,0.0049521104,-0.021331044,-0.22621198,-0.03244361,-0.039956763,0.10867789,0.23646444117433021,-0.15171152537103677,90.29004619057277
1729571585979364,-0.27399194,0.15559481,-1.8211596,0.0047160634,-0.021624321,-0.22529563,-0.02950587,-0.03665965,0.114543356,0.22213328108731537,-0.16646501767427124,90.2959888014876
1729571585987364,-0.27449968,0.1545983,-1.8235375,0.0045081587,-0.021895025,-0.22432369,-0.025988089,-0.033837974,0.121492885,0.20816364478203622,-0.18111556073461002,90.3017674632668
1729571586003364,-0.27554855,0.15264878,-1.8285483,0.004122355,-0.022398693,-0.2223187,-0.024112726,-0.031479284,0.12531224,0.18119582344043939,-0.2099998522310912,90.31272387203181
1729571586011364,-0.2760897,0.15169439,-1.831173,0.0039526583,-0.022649843,-0.22127256,-0.021212094,-0.031393718,0.130767,0.1684018076216027,-0.22394502408607428,90.31938370480057
1729571586019364,-0.2766176,0.15075594,-1.833765,0.0037844232,-0.0228769,-0.22020358,-0.02102938,-0.028382054,0.13362244,0.15617636349217365,-0.23763576912968382,90.32535376245703
1729571586027364,-0.27713236,0.14983322,-1.8363253,0.003663523,-0.02306831,-0.2191167,-0.015112542,-0.023926374,0.13585947,0.1444834497081842,-0.2510552652389837,90.33115988915578
1729571586043364,-0.27812254,0.14803462,-1.8413516,0.003499548,-0.023370126,-0.21686012,-0.010248433,-0.018863473,0.14103669,0.12243797890704228,-0.27730847051053564,90.3422121652871
1729571586051364,-0.2785983,0.14715847,-1.8438184,0.0034385843,-0.023472777,-0.21565646,-0.0076204594,-0.012831296,0.15045702,0.11220979055096279,-0.2902102958161261,90.34743780476059
1729571586059364,-0.27906135,0.14629772,-1.8462547,0.0033967465,-0.023544993,-0.21444213,-0.005229725,-0.009027077,0.15179068,0.10252710064654555,-0.30301605827750727,90.35240388900505
1729571586067364,-0.27951193,0.14545214,-1.8486607,0.0033714175,-0.023593102,-0.21319532,-0.0031661182,-0.0060135494,0.15585124,0.09316771101766745,-0.3157634315351606,90.35715148273083
1729571586075364,-0.27995217,0.14462453,-1.8510369,0.0033656494,-0.023604166,-0.21191399,-0.00072101824,-0.0013830139,0.16016698,0.08424766356677671,-0.32830025503860066,90.36171463095219
1729571586091364,-0.28079635,0.1430143,-1.8557007,0.003360132,-0.02354855,-0.20926556,-0.0003448367,0.0034759284,0.16552675,0.06784377084522845,-0.35280049650622314,90.36194095403782
1729571586099364,-0.28120068,0.1422316,-1.8579891,0.003397253,-0.023474168,-0.20792076,0.00464014,0.009297859,0.16809998,0.06042387604111436,-0.3645664216170329,90.36162721832486
1729571586107364,-0.28159323,0.14146368,-1.8602488,0.0034417645,-0.023385517,-0.20655489,0.0055639246,0.011081341,0.17073376,0.053436624501285876,-0.37600794780495783,90.36113593966085
1729571586115364,-0.28197423,0.14071035,-1.8624803,0.003505501,-0.023276191,-0.20517033,0.007967057,0.013665761,0.17306952,0.04694752671662167,-0.38705092767359484,90.36041917670042
1729571586131364,-0.28319103,0.13984266,-1.8688817,0.0033013676,-0.022584159,-0.20283934,-0.012758333,0.043252014,0.14568679,0.03564931843161081,-0.40821034953594,90.35432732266132
1729571586139364,-0.28377652,0.13942225,-1.8720038,0.0032311562,-0.022216462,-0.2016613,-0.008776435,0.045962162,0.14725514,0.030643286941372774,-0.41821347508724777,90.3488155716134
1729571586147364,-0.28434557,0.13900925,-1.8750747,0.0031799553,-0.021840347,-0.20046803,-0.0064001065,0.047014326,0.14915876,0.02603008475978431,-0.42785284230111564,90.34317399041318
1729571586155364,-0.2849,0.13860534,-1.8780956,0.0031224699,-0.021434598,-0.19923778,-0.007185677,0.05071866,0.15378185,0.021753318074652486,-0.43707028507318224,90.33994354107692
1729571586171364,-0.28596595,0.13782498,-1.8839899,0.0030999994,-0.020623442,-0.19656602,-0.0014044052,0.05069724,0.1669852,0.013856833603010352,-0.4534890082534243,90.33245801835432
1729571586179364,-0.28647786,0.13744843,-1.8868645,0.0030999351,-0.020201264,-0.1951679,-8.032657e-06,0.052772228,0.17476453,0.010101643012186358,-0.46074081887498175,90.32838740055553
1729571586187364,-0.28697607,0.13708109,-1.8896917,0.0031166673,-0.019761316,-0.19374093,0.0020915177,0.054993432,0.17837061,0.0063476446267408185,-0.4672698400512589,90.32418009016705
1729571586203364,-0.28793254,0.13637413,-1.8952065,0.003164128,-0.018843794,-0.19070412,0.0029662913,0.057345137,0.18980074,-0.001048150420023265,-0.4783749318497548,90.31525309741153
1729571586211364,-0.28839123,0.13603461,-1.897895,0.0032104333,-0.018376324,-0.18909237,0.0057881693,0.058433738,0.20146927,-0.00473733135613584,-0.4830022810573172,90.31044460321696
1729571586219364,-0.28883997,0.13570818,-1.9005382,0.0032608304,-0.017869439,-0.187447,0.00629964,0.06336067,0.2056714,-0.008262906307332339,-0.4869598237652696,90.30549949616746
1729571586227364,-0.28927618,0.13539115,-1.9031368,0.0033297911,-0.017372372,-0.1857972,0.008620089,0.062133417,0.2062246,-0.011741231930869692,-0.4902945714509527,90.29560903411863
1729571586243364,-0.2901117,0.13478509,-1.9082031,0.0034990422,-0.016364038,-0.18234786,0.010578194,0.06302085,0.21558347,-0.01859855358058408,-0.4954360798543778,90.27552753000516
1729571586251364,-0.2912657,0.13435066,-1.9108009,0.0032719646,-0.016046355,-0.18063152,-0.028384702,0.03971043,0.21454318,-0.021740057351546316,-0.4974157350804307,90.26542526862598
1729571586259364,-0.29239148,0.13392653,-1.9133539,0.0030682818,-0.015721334,-0.17892757,-0.02546035,0.040627547,0.21299346,-0.024480165880023528,-0.4986478837215133,90.25621776608787
1729571586267364,-0.29348966,0.13351262,-1.9158628,0.0028787164,-0.015387446,-0.17720674,-0.023695668,0.041736055,0.21510383,-0.027245779811556046,-0.49943856147027715,90.24702390733786
1729571586283364,-0.2956062,0.13271502,-1.9207511,0.0025138315,-0.014705186,-0.17371196,-0.022805309,0.04264124,0.218424,-0.033062601482937645,-0.499504144450401,90.22841764295325
1729571586291364,-0.2966248,0.13232915,-1.9231318,0.0023738432,-0.014360459,-0.17194493,-0.017498532,0.043090895,0.22087803,-0.036100122716236034,-0.49907532035461916,90.2193057341137
1729571586299364,-0.29761815,0.1319529,-1.9254712,0.0022610386,-0.014025838,-0.17018922,-0.014100572,0.041827556,0.21946429,-0.03930658822956091,-0.4985516170978621,90.21302850675691
1729571586307364,-0.29858676,0.13158609,-1.92777,0.0021609713,-0.013677001,-0.16845171,-0.012508418,0.04360464,0.21718813,-0.04280415002667407,-0.49821468392616486,90.20693566341365
1729571586315364,-0.2995312,0.13122874,-1.9300292,0.0020714109,-0.013306329,-0.1667022,-0.01119505,0.046333995,0.21868943,-0.04655603884931863,-0.4979191603570639,90.20084968897301
1729571586331364,-0.30134973,0.13054182,-1.9344298,0.0019310077,-0.012581426,-0.16311654,-0.008775197,0.045306455,0.22410321,-0.05523629567922979,-0.49751472319358825,90.18890315661055
1729571586339364,-0.30222484,0.1302119,-1.9365724,0.0018868068,-0.012217503,-0.16135386,-0.0055251145,0.045490332,0.220336,-0.06035797071728901,-0.49736162513672316,90.18309724166897
1729571586347364,-0.3030778,0.12989086,-1.9386778,0.0018681013,-0.011839287,-0.15960509,-0.002338187,0.04727696,0.2185963,-0.06617437995725566,-0.49720431141729987,90.17746209801723
1729571586363364,-0.30472267,0.12927167,-1.9427787,0.0018775335,-0.011061365,-0.156062,0.00058951264,0.048620157,0.22144242,-0.07919339549712265,-0.49713878182293375,90.16855516477325
1729571586371364,-0.30551332,0.12897505,-1.9447752,0.0019297622,-0.010671169,-0.154263,0.0065285857,0.048774526,0.22487527,-0.08626234136790573,-0.4971681847597391,90.16515358714646
1729571586379364,-0.3066338,0.1287308,-1.9470472,0.0018263864,-0.010270316,-0.15251237,-0.012921969,0.050106548,0.21882913,-0.09353888731452088,-0.4974140274687882,90.16186129627391
1729571586387364,-0.3077266,0.12849371,-1.9492759,0.0017216855,-0.009868962,-0.15079212,-0.0130876135,0.050169297,0.21503119,-0.10077294359702209,-0.49761376467109636,90.15820700268408
1729571586395364,-0.30879235,0.12826364,-1.9514618,0.0016376326,-0.009467555,-0.14907935,-0.010506613,0.050175816,0.21409614,-0.10796182852964518,-0.49774300953245143,90.15492836341312
1729571586411364,-0.3108447,0.12782454,-1.955709,0.0015688264,-0.008631434,-0.14559832,-0.004300389,0.052257556,0.21756439,-0.12244953280577539,-0.4979726299509249,90.14936154217648
1729571586419364,-0.31183222,0.12761548,-1.9577717,0.0015462243,-0.008217069,-0.14391734,-0.002825254,0.05179562,0.21012312,-0.13005421433552058,-0.4981072111062551,90.14690258952803
1729571586427364,-0.3127947,0.12741381,-1.9597949,0.0015693629,-0.007778227,-0.14222446,0.002892324,0.054855306,0.21160951,-0.13792529582240293,-0.4980012324484178,90.14462121879964
1729571586443364,-0.31464538,0.12703189,-1.9637264,0.0016880895,-0.0068637817,-0.13891259,0.0074204067,0.05715282,0.20699202,-0.1548282109215843,-0.4970895279018635,90.14013357808246
1729571586451364,-0.3155344,0.12685163,-1.965636,0.0017700512,-0.006400257,-0.13724066,0.010245217,0.057940602,0.20899063,-0.16358473620086275,-0.49644415749004533,90.13835078728879
1729571586459364,-0.31639978,0.12667854,-1.9675093,0.0018768643,-0.0059253233,-0.13563655,0.013351643,0.059366688,0.20051374,-0.17264592980282992,-0.49576853040489,90.13658168277227
1729571586467364,-0.31724182,0.12651262,-1.9693471,0.0020243248,-0.0054532774,-0.134061,0.018432561,0.059005745,0.1969449,-0.1817238879304717,-0.49502214425645097,90.1350174993982
1729571586483364,-0.31885666,0.12620161,-1.9729197,0.0024030367,-0.0045435694,-0.13095021,0.023669489,0.056856744,0.19442382,-0.19974715466072307,-0.49326026345244206,90.13243555922382
1729571586491364,-0.31963027,0.12605645,-1.9746556,0.0026108322,-0.004089193,-0.12938873,0.02597444,0.056797054,0.19518471,-0.20866480547099484,-0.4922844708076827,90.13139731126277
1729571586499364,-0.32087767,0.12547007,-1.9768351,0.0026444176,-0.0038987123,-0.1279541,0.0041981693,0.023810076,0.17932987,-0.2175886036335289,-0.4913815185482549,90.13063228048442
1729571586507364,-0.32209212,0.12489917,-1.9789704,0.002702739,-0.0037026813,-0.12658016,0.007290189,0.024503881,0.17174146,-0.2262322993595023,-0.4899899765574222,90.13449146050704
1729571586523364,-0.32442448,0.12380259,-1.9831127,0.0029125283,-0.0032714093,-0.123826325,0.013111828,0.026954496,0.17211492,-0.24346974547855618,-0.48690539372970604,90.14268111407203
1729571586531364,-0.3255435,0.12327638,-1.9851211,0.0030675223,-0.0030473538,-0.122398704,0.019374244,0.028006935,0.17845257,-0.25220600009094934,-0.4851704632574715,90.14697742633115
1729571586539364,-0.3266318,0.12276447,-1.9870887,0.003230026,-0.0028288844,-0.121000856,0.02031296,0.027308676,0.174731,-0.26097935255044225,-0.48362187596397543,90.1513967193428
1729571586547364,-0.32768995,0.12226658,-1.9890164,0.0034387307,-0.0025886267,-0.119626716,0.02608809,0.030032212,0.17176753,-0.269909788716657,-0.482445547520005,90.15583646567198
1729571586555364,-0.32871833,0.121782556,-1.9909053,0.0036655487,-0.002333388,-0.118235834,0.028352251,0.03190484,0.17386022,-0.278995645048346,-0.4817405723374502,90.16035822168185
1729571586571364,-0.33068806,0.12085733,-1.9945685,0.0041838554,-0.0018011432,-0.11539319,0.032394163,0.0332653,0.17766514,-0.29774871194861585,-0.4813364563263285,90.16970225997505
1729571586579364,-0.3316303,0.12041561,-1.9963441,0.004489479,-0.0015207533,-0.11402169,0.038202967,0.035048738,0.17143784,-0.3072109711497026,-0.4816480947112409,90.17271452730871
1729571586587364,-0.33254462,0.11998684,-1.9980841,0.0048048766,-0.0012343321,-0.11267253,0.039424688,0.035802644,0.16864482,-0.31651947918197976,-0.48238796911881326,90.17576092688776
1729571586595364,-0.33343166,0.11957079,-1.9997888,0.005133717,-0.0009404101,-0.111304484,0.041105025,0.03674025,0.17100571,-0.32573385899910906,-0.4833706974862613,90.17870486029909
1729571586611364,-0.3351256,0.118776165,-2.003095,0.0058537987,-0.00032021492,-0.108531095,0.045005113,0.038762197,0.17333682,-0.3438226637345642,-0.48570627881251716,90.18493434643405
1729571586619364,-0.33593333,0.11839713,-2.0046978,0.0062357285,-6.3965854e-07,-0.107186966,0.047741223,0.039946906,0.16801617,-0.3525001978830375,-0.48693874546713156,90.18809686560675
1729571586627364,-0.33702156,0.11828878,-2.0060081,0.0064891824,0.0004367711,-0.10582627,0.03168173,0.054676346,0.1700865,-0.3610587593533809,-0.48805162633622534,90.19131403972594
1729571586643364,-0.33910134,0.118085854,-2.0085547,0.0070655355,0.0013295495,-0.10306507,0.03602207,0.055798646,0.172575,-0.3767561066530459,-0.4905455900982225,90.19849295062905
1729571586651364,-0.34009558,0.11799337,-2.0097916,0.007385621,0.0017639865,-0.10169878,0.040010665,0.05430463,0.17078686,-0.3840529491011335,-0.4918827021287344,90.2032743246853
1729571586659364,-0.34106,0.11790678,-2.0110052,0.0077351816,0.002194323,-0.100420654,0.043695092,0.05379207,0.15976559,-0.39121753719583957,-0.49305369593926335,90.20808304686184
1729571586667364,-0.3419951,0.11782618,-2.0121958,0.008117135,0.0026385617,-0.099187866,0.047744133,0.055529814,0.1540985,-0.39825323570211985,-0.49382420186775394,90.21278243475449
1729571586683364,-0.34377873,0.11768316,-2.014512,0.0089375265,0.0035399145,-0.09677792,0.051274486,0.05633455,0.1506214,-0.41184585739140994,-0.49409208330435045,90.22176453162294
1729571586691364,-0.3446283,0.11762078,-2.0156384,0.009367748,0.003981042,-0.09560105,0.053777706,0.055140957,0.14710891,-0.41853994230959546,-0.49378119142296373,90.22597211885427
1729571586699364,-0.34545028,0.11756457,-2.0167444,0.00983558,0.0044446397,-0.09449633,0.058479022,0.05794968,0.13808998,-0.42536489571857666,-0.49351266964490603,90.230049901367
1729571586707364,-0.34624535,0.117515594,-2.017831,0.010317251,0.004903815,-0.09345741,0.06020884,0.05739694,0.12986548,-0.4322395011480829,-0.49321293062206717,90.2340184247588
1729571586715364,-0.34701356,0.11747282,-2.0188985,0.010826518,0.005359833,-0.092411056,0.06365834,0.057002235,0.130794,-0.4390071429614724,-0.49277578233309066,90.2369896840012
1729571586731364,-0.348471,0.1174055,-2.0209773,0.011878388,0.0062454306,-0.090323925,0.06574188,0.055349838,0.13044569,-0.4520456839987375,-0.4914115618133589,90.24254282679885
1729571586739364,-0.3491612,0.11738097,-2.0219896,0.012420627,0.006707979,-0.089357786,0.067779906,0.05781854,0.120767385,-0.45807891197345146,-0.49036180858769124,90.2450359438986
1729571586747364,-0.34982616,0.11736274,-2.0229847,0.013002166,0.007191262,-0.088457026,0.07269228,0.06041041,0.11259503,-0.4638307102948094,-0.48896589105945765,90.24746749878013
1729571586763364,-0.35015082,0.11821577,-2.0244882,0.014424052,0.008405181,-0.08658584,0.0888679,0.075869896,0.11694896,-0.47459345787905394,-0.48561444148550714,90.25190722485205
1729571586771364,-0.35029414,0.118636124,-2.025224,0.015153195,0.009002659,-0.085683666,0.09114283,0.07468473,0.11277198,-0.47949635076526204,-0.48355581287503363,90.25399727176018
1729571586779364,-0.35042447,0.119051255,-2.0259497,0.015906818,0.009594569,-0.08486659,0.09420293,0.0739888,0.102134414,-0.48426618330325283,-0.48116628256359256,90.25610779306308
1729571586787364,-0.35054204,0.119462885,-2.0266662,0.016670953,0.010183159,-0.084076576,0.095516905,0.07357378,0.09875185,-0.4884759329521892,-0.4785078050059687,90.25961176723895
1729571586803364,-0.35073894,0.12027662,-2.0280719,0.018212559,0.011334834,-0.08256686,0.09635032,0.07197965,0.09435741,-0.49557910408329314,-0.4721980405204717,90.26608000108709
1729571586811364,-0.3508183,0.12067906,-2.0287614,0.018998437,0.011901697,-0.08185529,0.098234735,0.07085793,0.088945955,-0.49864064126890323,-0.46853821645815935,90.26909208723004
1729571586819364,-0.3508849,0.12107881,-2.029443,0.019801484,0.012462601,-0.08122651,0.10038097,0.07011299,0.0785971,-0.5012863064735414,-0.4645938648802663,90.27211784662218
1729571586827364,-0.35093883,0.12147607,-2.0301168,0.020603042,0.013015442,-0.08063517,0.10019471,0.06910507,0.07391814,-0.503407665136591,-0.4602863298107528,90.27493867638672
1729571586843364,-0.3510082,0.1222639,-2.0314436,0.02225375,0.014118455,-0.0795158,0.10316923,0.06893836,0.06996048,-0.5062765430283791,-0.45106811101592864,90.28000654565382
1729571586851364,-0.3510219,0.12265521,-2.0320966,0.023095574,0.014681991,-0.078979425,0.10522804,0.070441976,0.06704684,-0.5068379660566326,-0.44620846920591434,90.2823970389038
1729571586859364,-0.35102275,0.12304488,-2.032743,0.023957355,0.015230168,-0.07850364,0.10772259,0.06852206,0.059473325,-0.5067895027082066,-0.4414156403761572,90.28448696172599
1729571586867364,-0.35101086,0.123432904,-2.0333834,0.024814777,0.01574675,-0.07804494,0.107177764,0.06457278,0.05733687,-0.5060901432713375,-0.43648842142620053,90.2862695521296
1729571586883364,-0.35109577,0.12514828,-2.033595,0.026414469,0.01734977,-0.076744206,0.099980734,0.10018877,0.08129607,-0.5030153378384968,-0.425775206528084,90.28965703562022
1729571586891364,-0.35111758,0.12599081,-2.0337102,0.027232286,0.01814875,-0.07612714,0.102227084,0.09987247,0.07713307,-0.5004543842064424,-0.41992509690700064,90.2911868467677
1729571586899364,-0.3511258,0.12682372,-2.0338316,0.028027864,0.018919215,-0.075590625,0.09944732,0.09630806,0.06706454,-0.49742465875700326,-0.4136735208130276,90.29257318495888
1729571586907364,-0.3511206,0.12764731,-2.0339596,0.028835693,0.019664092,-0.07514952,0.10097864,0.09310967,0.055138018,-0.4938866470570538,-0.4068826979297465,90.29389121811631
1729571586923364,-0.3510724,0.12926896,-2.0342364,0.030446073,0.021097882,-0.074378654,0.10064872,0.08961185,0.048179176,-0.4861803720905507,-0.3912909721315378,90.29572803185424
1729571586931364,-0.35102877,0.13006684,-2.0343852,0.031234682,0.021797815,-0.07406311,0.09857607,0.0874917,0.03944337,-0.4821936953413977,-0.3824775860154524,90.29634247227378
1729571586939364,-0.35097244,0.13085645,-2.0345414,0.032012712,0.022471081,-0.073872544,0.09725382,0.084158264,0.023820436,-0.47792560181168464,-0.3730848578682117,90.29703202640793
1729571586947364,-0.3509035,0.13163808,-2.0347056,0.032795537,0.023145352,-0.07378231,0.097853124,0.084283754,0.011279247,-0.4731679105738802,-0.36296956591038154,90.29749618134682
1729571586963364,-0.35072815,0.13317838,-2.0350587,0.034390587,0.024407865,-0.07359262,0.09969062,0.07890712,0.011855735,-0.4618948203917568,-0.341171192477525,90.29786433929507
1729571586971364,-0.35062203,0.13393733,-2.035247,0.0351717,0.025012871,-0.07355392,0.09763892,0.07562572,0.0048372895,-0.45542737144291506,-0.32967565369505647,90.29785034154277
1729571586979364,-0.35050386,0.13468908,-2.0354438,0.03595364,0.025595333,-0.073625386,0.097742766,0.07280777,-0.008933246,-0.4486369761859654,-0.3178277010024723,90.29774749794738
1729571586987364,-0.35037288,0.13543387,-2.0356493,0.0367144,0.026158296,-0.07376595,0.095095016,0.070370264,-0.017570332,-0.44148473610685574,-0.3057996931361514,90.29755591532393
1729571586995364,-0.35023025,0.13617171,-2.0358639,0.037481558,0.026681185,-0.073883206,0.09589455,0.06536115,-0.014657154,-0.43421213190584285,-0.2935788500909275,90.29728921879727
1729571587011364,-0.34886527,0.13753346,-2.0366611,0.039128263,0.027812595,-0.07406591,0.10291906,0.07071311,-0.011418945,-0.4191038345954262,-0.26923792323469964,90.29806722045585
1729571587019364,-0.3481868,0.13820802,-2.0370648,0.039951105,0.028341694,-0.07421643,0.10285526,0.0661374,-0.01881551,-0.41140162035726746,-0.256920534376476,90.2989207423539
1729571587027364,-0.34751067,0.1388784,-2.0374718,0.04076933,0.028842527,-0.074404925,0.10227831,0.0626042,-0.023561528,-0.4036031041074628,-0.24463127881791719,90.29966498017025
1729571587043364,-0.34616438,0.1402068,-2.038297,0.04237432,0.029813416,-0.074788116,0.100311816,0.060680553,-0.023949424,-0.3869948869625154,-0.21996206009912772,90.30103050916898
1729571587051364,-0.34549382,0.14086477,-2.0387151,0.04316326,0.030258164,-0.07498138,0.09861728,0.055593435,-0.024157574,-0.37793842202358985,-0.20755205359660672,90.30150157348476
1729571587059364,-0.3448241,0.14151654,-2.0391376,0.043939065,0.030667022,-0.07524738,0.09697582,0.051107254,-0.03325008,-0.36841162945405576,-0.19513231841900244,90.30196578895354
1729571587067364,-0.34415567,0.14216399,-2.0395641,0.04471896,0.031052902,-0.07551809,0.09748665,0.048235055,-0.033838674,-0.35830524924844104,-0.18287214217225198,90.30367314103003
1729571587075364,-0.34348828,0.14280711,-2.0399952,0.045480553,0.031428695,-0.07581686,0.095199324,0.046974044,-0.037346967,-0.3477085895093032,-0.17068845408043454,90.30525760293787
1729571587091364,-0.3421563,0.14408037,-2.0408707,0.046960786,0.032104157,-0.076377705,0.09251455,0.042216383,-0.035052653,-0.3257570062194796,-0.14673610255080866,90.3081874306998
1729571587099364,-0.34149146,0.14471038,-2.0413148,0.047676284,0.03241883,-0.07668641,0.08943723,0.03933394,-0.03858842,-0.3145294476975537,-0.13525534686785992,90.30958069956817
1729571587107364,-0.34082723,0.14533609,-2.0417635,0.04837466,0.032733355,-0.07700937,0.08729705,0.03931578,-0.040370036,-0.30296877189931354,-0.12412253687098694,90.31092608253894
1729571587115364,-0.34016365,0.14595746,-2.042217,0.049038414,0.03300012,-0.07729763,0.082969196,0.03334554,-0.03603194,-0.2912834750541321,-0.11299298657861209,90.31223053912271
1729571587131364,-0.3381965,0.14642166,-2.0439923,0.050499134,0.033304542,-0.0779127,0.09129499,0.019026455,-0.038442202,-0.2677000061801909,-0.09099665420445407,90.31543376100043
1729571587139364,-0.3372258,0.14666177,-2.0448694,0.051211584,0.033421144,-0.078247264,0.08905632,0.014575197,-0.041820105,-0.256104328792837,-0.08016500928849715,90.31666995118886
1729571587147364,-0.33626297,0.1469065,-2.0457397,0.051917937,0.033537023,-0.07859398,0.08829403,0.014484859,-0.043339092,-0.24438898525475874,-0.06947488032325518,90.31785834896986
1729571587163364,-0.3343601,0.14740866,-2.047461,0.053240422,0.033703186,-0.07917057,0.08265534,0.010385177,-0.03603706,-0.22035554368332455,-0.0485376045539498,90.32003712765638
1729571587171364,-0.3334195,0.14766556,-2.0483117,0.053901713,0.033773717,-0.07938824,0.08266139,0.008816365,-0.027208587,-0.2080748750737475,-0.038465660613563886,90.32109575247155
1729571587179364,-0.33248577,0.14792597,-2.0491562,0.054527238,0.03381556,-0.079635695,0.07819058,0.005230307,-0.030932015,-0.1956427034929114,-0.028902553678389453,90.32198366317756
1729571587187364,-0.33155876,0.14818954,-2.0499945,0.055135228,0.033845514,-0.07987259,0.075998716,0.0037443822,-0.02961233,-0.1829686616279867,-0.01984028587278915,90.3227759718389
1729571587195364,-0.33063868,0.14846008,-2.050827,0.0557036,0.033867434,-0.08007611,0.071046405,0.0027399508,-0.025440006,-0.1701938099526766,-0.011386699153732553,90.32363656198511
1729571587211364,-0.32881752,0.1490087,-2.0524743,0.056824856,0.033869766,-0.080338664,0.07007853,0.00014575198,-0.016409438,-0.14422020898578128,0.0038972098938792137,90.31723656506851
1729571587219364,-0.32791612,0.14928631,-2.053289,0.057328153,0.03385113,-0.080489695,0.06291223,-0.0023292378,-0.01887884,-0.1311130132741112,0.01104771098903402,90.31401268955257
1729571587227364,-0.3270207,0.14956586,-2.054098,0.057830382,0.03382306,-0.08062616,0.06277859,-0.0035087576,-0.017058104,-0.11803335907795547,0.017909199857492977,90.31065904188972
1729571587243364,-0.32524693,0.15012982,-2.055699,0.05880125,0.033713162,-0.080730096,0.060679156,-0.0068687364,-0.0064959745,-0.09181245609335296,0.030921771982743554,90.30370578917648
1729571587251364,-0.32408655,0.150393,-2.0569553,0.0593523,0.033728275,-0.08068876,0.06888155,0.0018891877,0.005166977,-0.07871626225709295,0.0367543276668014,90.3000994092581
1729571587259364,-0.32293788,0.15065926,-2.0581923,0.05990225,0.033731908,-0.08068156,0.06874371,0.00045401973,0.00089965755,-0.0657712804164155,0.04193078185150231,90.29775668588613
1729571587267364,-0.3218012,0.15092881,-2.0594103,0.06040582,0.033729363,-0.08070056,0.06294623,-0.00031804663,-0.0023748726,-0.05267805004687268,0.046534127286844425,90.29536608038634
1729571587283364,-0.3195612,0.15147573,-2.061792,0.061381545,0.033688307,-0.08056123,0.060982767,-0.0025660263,0.008708332,-0.025770015670064147,0.05429815773949657,90.28981310262665
1729571587291364,-0.31845728,0.15175281,-2.0629554,0.061837398,0.033663154,-0.080435224,0.05698157,-0.0031441448,0.015750527,-0.012048376605232577,0.0574948612154845,90.28694442385272
1729571587299364,-0.31736383,0.15203212,-2.0641012,0.06226847,0.03362866,-0.080302656,0.053883992,-0.004311558,0.016571023,0.0017326144820673144,0.060436253057049284,90.28395276850007
1729571587307364,-0.31628057,0.15231353,-2.06523,0.06267514,0.03359203,-0.0801836,0.05083391,-0.0045788474,0.0148816025,0.015534739795840623,0.06302854480566952,90.28083817102944
1729571587323364,-0.3141441,0.15288171,-2.0674367,0.063412964,0.033473033,-0.07976585,0.046113968,-0.007437309,0.026109627,0.04320610882715906,0.0675307629699566,90.27436992155596
1729571587331364,-0.31309053,0.15316826,-2.0685148,0.063760154,0.03340225,-0.07952034,0.043398697,-0.00884803,0.03068894,0.057115468454067134,0.06973554161186667,90.2709479844225
1729571587339364,-0.31204346,0.15345334,-2.0695767,0.06407045,0.033338666,-0.07932381,0.03878679,-0.007947907,0.024565494,0.07103995744146067,0.07186979059418881,90.26751238633898
1729571587347364,-0.31100586,0.15373985,-2.0706234,0.06436986,0.033260528,-0.079127155,0.03742613,-0.0097672455,0.024582257,0.08498232728165615,0.07407663717720632,90.26659710245563
1729571587363364,-0.30895823,0.15431651,-2.0726707,0.06488894,0.033067863,-0.078574225,0.032442622,-0.012041534,0.03455812,0.1127936541453802,0.07821772316408758,90.26461633571381
1729571587371364,-0.30794817,0.15460627,-2.0736713,0.065103255,0.03295832,-0.07820794,0.026789492,-0.013692769,0.045785677,0.12670813043633394,0.08022032453680498,90.26363281383223
1729571587379364,-0.3067886,0.15433088,-2.0743139,0.065413915,0.032577932,-0.07783406,0.038832426,-0.04754867,0.046734694,0.1404582190085821,0.0822303365035994,90.26282001346073
1729571587387364,-0.3056408,0.1540683,-2.074951,0.06566119,0.032215796,-0.07745691,0.030909663,-0.04526693,0.047144476,0.15401942583086167,0.08465479609605299,90.25974642611432
1729571587395364,-0.3045046,0.15381816,-2.0755823,0.06592537,0.031864844,-0.077021584,0.033021905,-0.043869015,0.05441531,0.16769954411543414,0.08703030387115995,90.25678893488573
1729571587411364,-0.30226538,0.15335463,-2.0768268,0.06635068,0.031155735,-0.076086715,0.026582273,-0.04431931,0.058429312,0.19485971133745159,0.09167856008011492,90.2509696032761
1729571587419364,-0.30116218,0.15314029,-2.0774403,0.066521965,0.030796248,-0.07570938,0.021410173,-0.044935845,0.047166828,0.20849637908167068,0.09350323015725316,90.24714463950836
1729571587427364,-0.30006996,0.15293646,-2.078049,0.06668845,0.03043567,-0.07536336,0.020810401,-0.045072284,0.04325248,0.22210847324187644,0.09479350399222045,90.24334704032972
1729571587443364,-0.2979175,0.15255883,-2.0792513,0.0669508,0.029736515,-0.074589066,0.016396865,-0.043697186,0.04839338,0.2497140326820572,0.09541950103022154,90.23573127898675
1729571587451364,-0.29685703,0.15238431,-2.0798447,0.06703915,0.029388482,-0.07420255,0.011043622,-0.04350417,0.048314217,0.2634913587934241,0.09500125808780319,90.23201565422995
1729571587459364,-0.29580703,0.15221874,-2.0804338,0.067098565,0.029030565,-0.07388621,0.007427297,-0.04473957,0.03954302,0.27711004855416643,0.09413108813426878,90.22845706728302
1729571587467364,-0.2947674,0.15206176,-2.0810187,0.067142375,0.028685998,-0.07359955,0.0054761763,-0.04307087,0.035832636,0.29052850356027493,0.09294410106035095,90.2248575136537
1729571587483364,-0.29272044,0.151774,-2.0821753,0.06718077,0.028014202,-0.07291348,0.0023995526,-0.041987278,0.04287902,0.31694812393235466,0.08947819588101197,90.217057341585
1729571587491364,-0.29171202,0.15164182,-2.0827467,0.067144714,0.027692739,-0.072548255,-0.00450667,-0.04018284,0.04565343,0.32983779335412644,0.08730540606660783,90.21272696329274
1729571587499364,-0.2905466,0.15114029,-2.0827491,0.067208014,0.027154526,-0.07212309,0.007912517,-0.06727664,0.05314592,0.342583888908082,0.0847273535950363,90.20848535226472
1729571587507364,-0.28939402,0.15065318,-2.082762,0.06724731,0.026624218,-0.07176965,0.004911795,-0.06628851,0.044180077,0.35478923341902324,0.08200494669960565,90.20173708862457
1729571587515364,-0.2882541,0.15018003,-2.0827851,0.067282476,0.026103014,-0.0714029,0.0043958426,-0.06515043,0.04584342,0.3668939396847892,0.07901572213006383,90.19508438827035
1729571587531364,-0.28601167,0.1492738,-2.0828602,0.06724515,0.025127646,-0.0706493,-0.002332963,-0.06096053,0.047099773,0.390462784474313,0.07226671561241112,90.18156054134774
1729571587539364,-0.28490886,0.14884011,-2.0829117,0.0671926,0.024675207,-0.0704006,-0.0065686177,-0.056554794,0.031087546,0.40187516545689556,0.06823187170814374,90.1747302741709
1729571587547364,-0.2838185,0.14841942,-2.0829735,0.067136474,0.024220604,-0.070209876,-0.0070156525,-0.056825344,0.023840925,0.4132735109337384,0.06358537898570149,90.16821422770862
1729571587563364,-0.28167352,0.14761415,-2.0831265,0.066935994,0.023372006,-0.06984247,-0.012530013,-0.05303742,0.022962688,0.43588268646381045,0.052741994507684825,90.15417809452147
1729571587571364,-0.28061882,0.14722915,-2.0832174,0.0668046,0.02297965,-0.06967473,-0.016423874,-0.049044374,0.020967795,0.4469377891059603,0.04667367596847673,90.1472727324543
1729571587579364,-0.27957582,0.14685547,-2.0833178,0.06665406,0.022589639,-0.06964497,-0.018818304,-0.048751473,0.0037197021,0.45785594311102934,0.040227282875817956,90.14050399200653
1729571587587364,-0.2785445,0.14649281,-2.0834284,0.06647076,0.022209432,-0.069700114,-0.022912396,-0.047525853,-0.006892718,0.46879719958124033,0.03354675616969941,90.13379670726862
1729571587603364,-0.27651626,0.14579943,-2.0836802,0.06609823,0.02149896,-0.06972572,-0.023283063,-0.044404525,-0.0016004777,0.4907970788001868,0.019990043115473508,90.1207714923847
1729571587611364,-0.27551898,0.14546822,-2.0838203,0.065880336,0.021159936,-0.069736175,-0.027236527,-0.042377967,-0.0013066455,0.5018335023696016,0.013030160099278473,90.1144535459874
1729571587619364,-0.27453703,0.1451474,-2.0839703,0.06563977,0.020842804,-0.0698493,-0.030070541,-0.03964151,-0.01414027,0.5127399729599272,0.0059640891775139,90.10821756268234
1729571587627364,-0.27376908,0.14468978,-2.084002,0.06524307,0.02054206,-0.069978595,-0.049587335,-0.037593067,-0.016162172,0.5233762880813456,-0.001094190969017263,90.1007248520224
1729571587643364,-0.27225503,0.14381567,-2.0841036,0.06440631,0.020019246,-0.070175484,-0.052297484,-0.0326758,-0.012305564,0.5436229397069755,-0.015079136870757697,90.08815727663212
1729571587651364,-0.271509,0.14339846,-2.0841725,0.063961536,0.019747548,-0.070251144,-0.05559716,-0.033962306,-0.009457581,0.5529887572426085,-0.02218362788522586,90.08204425936779
1729571587659364,-0.27077046,0.142994,-2.0842535,0.06350022,0.019499198,-0.07043313,-0.057664696,-0.031043774,-0.022748483,0.5620930130283858,-0.029250953401883766,90.07602686806732
1729571587667364,-0.27003938,0.1426021,-2.0843472,0.06303691,0.019268546,-0.07068952,-0.05791336,-0.028831417,-0.032048672,0.5710257764359777,-0.03631737222890641,90.07026218359049
1729571587675364,-0.26931584,0.14222257,-2.0844536,0.062562115,0.01904879,-0.07090101,-0.05934946,-0.02746959,-0.02643559,0.5799400789216946,-0.0434113524967712,90.06464776315286
1729571587691364,-0.26788884,0.14150089,-2.0847008,0.061536305,0.018646626,-0.071212105,-0.06411318,-0.02513523,-0.019443687,0.5965599137169498,-0.05737053036578621,90.05411561463438
1729571587699364,-0.26718557,0.1411583,-2.0848415,0.061013024,0.01846341,-0.07148812,-0.06541004,-0.022901919,-0.034501776,0.6041657040091511,-0.06411425206731075,90.04885637788495
1729571587707364,-0.26649022,0.14082718,-2.0849943,0.060474176,0.018304018,-0.07181331,-0.06735604,-0.019924015,-0.0406485,0.6114469732238967,-0.07062788248398132,90.04387034091863
1729571587715364,-0.26580274,0.1405074,-2.085159,0.05994509,0.018166747,-0.072084986,-0.06613554,-0.01715892,-0.033959746,0.6183027324962912,-0.07700779139512075,90.03930094448589
1729571587731364,-0.2644517,0.13990116,-2.0855215,0.058807626,0.017908536,-0.07257356,-0.07109158,-0.01613819,-0.030535737,0.6307057067349123,-0.08914633099348236,90.030872494384
1729571587739364,-0.26378822,0.13961414,-2.085719,0.058247395,0.017792558,-0.07290016,-0.07002894,-0.014497199,-0.040825453,0.6360192841966484,-0.0950419658044339,90.02695196303202
1729571587747364,-0.2631327,0.13933761,-2.0859282,0.057676706,0.017682446,-0.07326687,-0.071336046,-0.013764015,-0.045838762,0.6408764728161201,-0.10070606852253727,90.02327048789844
1729571587763364,-0.2605001,0.13873413,-2.085577,0.056939248,0.017485084,-0.07369109,-0.04609115,-0.012335134,-0.02651382,0.649174827686114,-0.11148727382302155,90.01654274926288
1729571587771364,-0.2592219,0.13844892,-2.0854318,0.05654545,0.017391121,-0.07385678,-0.049224585,-0.011745374,-0.02071075,0.6527012354532918,-0.11669148808336222,90.01231485584067
1729571587779364,-0.2579672,0.1381744,-2.0853062,0.05611461,0.017316047,-0.07407604,-0.05385512,-0.009384239,-0.02740789,0.6559875888944557,-0.12176846406506285,90.0082645475574
1729571587787364,-0.25673553,0.13791038,-2.0852005,0.05569768,0.017242791,-0.07438927,-0.052116342,-0.009156996,-0.039153732,0.6591606656377724,-0.12681505192268208,90.00439182209864
1729571587803364,-0.2543391,0.1374129,-2.085047,0.05483256,0.017123632,-0.07490077,-0.054070026,-0.007447437,-0.03196858,0.6649427557753779,-0.13645647636256217,89.99759576653501
1729571587811364,-0.25317356,0.13717917,-2.084998,0.05437499,0.01707937,-0.07513478,-0.05719624,-0.005532754,-0.029250978,0.6675709106274844,-0.14094045533103203,89.99452217165063
1729571587819364,-0.2520292,0.13695513,-2.0849671,0.053914133,0.017039089,-0.07548415,-0.057606954,-0.005035195,-0.043671574,0.6702532912469823,-0.14514098140091633,89.99161933147325
1729571587827364,-0.2509056,0.13674064,-2.084955,0.053453077,0.01700087,-0.07589165,-0.0576321,-0.004777219,-0.050937753,0.6730093592696109,-0.14904017849310217,89.9889589624899
1729571587843364,-0.24871936,0.13633779,-2.0849845,0.052507762,0.016944828,-0.076605126,-0.05908217,-0.003502704,-0.044592187,0.6792774253843321,-0.15615608691196847,89.98527405805417
1729571587851364,-0.24765575,0.13615,-2.0850248,0.0520253,0.016942166,-0.076919444,-0.06030779,-0.00033271496,-0.0392897,0.6828444225111729,-0.15964387222373558,89.98424269199427
1729571587859364,-0.24661125,0.13597119,-2.0850823,0.05152772,0.01695177,-0.07734057,-0.062197443,0.0012004748,-0.052641142,0.6863955864930377,-0.16312085251056968,89.98331378268738
1729571587867364,-0.24558562,0.13580121,-2.0851567,0.051025786,0.016972018,-0.07781843,-0.0627418,0.0025311017,-0.059732232,0.690128207188329,-0.16650287735922276,89.98260002102593
1729571587883364,-0.24438171,0.13467924,-2.084751,0.049900178,0.01658079,-0.07864367,-0.070350476,-0.024451757,-0.05157757,0.6981879873965064,-0.1728356644286029,89.9800011175204
1729571587891364,-0.2437908,0.13414289,-2.0845847,0.049321543,0.016384173,-0.07902795,-0.072329305,-0.024577135,-0.04803482,0.7025882461844802,-0.17560032967821745,89.97807840701147
1729571587899364,-0.24320547,0.13362028,-2.0844421,0.048748594,0.016201518,-0.07949507,-0.071618706,-0.022831837,-0.058390196,0.7072488239448391,-0.17810411286462902,89.97637426152724
1729571587907364,-0.24262752,0.13311328,-2.0843236,0.048148833,0.016047206,-0.080013864,-0.07497007,-0.019289088,-0.06484892,0.7119597076290365,-0.180523052213734,89.97708460182386
1729571587923364,-0.24149376,0.1321447,-2.0841563,0.046967756,0.01575887,-0.08093807,-0.07381732,-0.018020974,-0.05776295,0.7215065053353094,-0.18569491921074083,89.9788911918632
1729571587931364,-0.2409381,0.1316824,-2.0841057,0.046352595,0.015629798,-0.08137812,-0.07689511,-0.016134,-0.05500577,0.7261525646765081,-0.1885751666496887,89.98011721227951
1729571587939364,-0.24039005,0.13123436,-2.084077,0.04572154,0.015515245,-0.08191119,-0.07888208,-0.0143192,-0.06663427,0.7307240327251865,-0.19184198942651307,89.98159936900961
1729571587947364,-0.23984964,0.13080025,-2.0840702,0.04509599,0.015417217,-0.082506575,-0.078193374,-0.01225341,-0.07442292,0.7351919807053565,-0.1955967739825411,89.98324544757726
1729571587955364,-0.2393169,0.13037986,-2.0840852,0.04444959,0.015339029,-0.08305866,-0.080800146,-0.009773532,-0.069011,0.7395692244852117,-0.1997205519139378,89.98512717388091
1729571587971364,-0.23827316,0.12957843,-2.084177,0.043118212,0.015194329,-0.08404733,-0.08321111,-0.009043724,-0.061791852,0.74811809117825,-0.20832029485488185,89.98914675902617
1729571587979364,-0.23776235,0.12919693,-2.084253,0.04243555,0.015146905,-0.084624134,-0.08533289,-0.0059281006,-0.0721002,0.7521459176885523,-0.21289767310185953,89.99203252977125
1729571587987364,-0.23725952,0.128828,-2.0843494,0.0417569,0.015108365,-0.08523527,-0.08483137,-0.004817499,-0.076391734,0.755942018698165,-0.21775984163369577,89.99507881292939
1729571587995364,-0.23676457,0.12847148,-2.0844653,0.041092843,0.015088331,-0.08579829,-0.08300691,-0.0025042098,-0.070378184,0.7594378928135183,-0.222607497472168,89.998278779403
1729571588011364,-0.23683979,0.1277648,-2.0848007,0.039351325,0.015026373,-0.08677356,-0.10884483,-0.0038723808,-0.060954127,0.7658033566628691,-0.2324419268519844,90.00497241830725
1729571588019364,-0.2368712,0.12742935,-2.084994,0.038479988,0.015038519,-0.08727401,-0.10891724,0.0015182885,-0.062556006,0.7686542867535155,-0.23715973287486564,90.00835339199767
1729571588027364,-0.23689902,0.1271056,-2.0852044,0.037596755,0.015042381,-0.08780635,-0.1104041,0.0004827743,-0.066543,0.7712016734038425,-0.2416098267238698,90.01179584128991
1729571588035364,-0.23692371,0.12679192,-2.085431,0.036722634,0.015058531,-0.08828199,-0.10926509,0.002018758,-0.059454698,0.7734109563355562,-0.24589025963513547,90.01544320001483
1729571588051364,-0.23696448,0.12619805,-2.085931,0.034991413,0.015103775,-0.08909918,-0.10820129,0.002827728,-0.051074658,0.7766665435207545,-0.25457804963951464,90.02608474873031
1729571588059364,-0.23698102,0.1259176,-2.0862036,0.034137405,0.0151381185,-0.089573555,-0.10675098,0.0042929314,-0.059296373,0.7774287842024452,-0.2587943997438457,90.0315626264233
1729571588067364,-0.2369954,0.12564793,-2.086491,0.03328002,0.0151954815,-0.09003835,-0.10717334,0.0071703685,-0.058099624,0.7775173742559669,-0.2629263068105433,90.03717711551806
1729571588075364,-0.23700786,0.12538901,-2.0867932,0.03242846,0.015271889,-0.09045479,-0.106445044,0.009550946,-0.05205441,0.7769253626548174,-0.26692646586840413,90.04275062003498
1729571588091364,-0.23702817,0.12490245,-2.0874379,0.03071313,0.015412591,-0.09117806,-0.10720803,0.008793897,-0.04520453,0.7738098267552801,-0.27477524134098524,90.05402742437894
1729571588099364,-0.23703653,0.12467453,-2.08778,0.029877368,0.015503455,-0.09155274,-0.10447017,0.0113579435,-0.046835277,0.7713748197174827,-0.278616493809639,90.05976486738858
1729571588107364,-0.23704123,0.124459065,-2.088135,0.029040787,0.015609299,-0.09197288,-0.10457262,0.013230484,-0.052517276,0.7683046221729636,-0.2822967292014987,90.06552280410307
1729571588115364,-0.23704517,0.12425355,-2.0885031,0.028221227,0.01571666,-0.09235847,-0.102445014,0.013420241,-0.048198733,0.7645851398682864,-0.2858425747768409,90.07042697277153
1729571588131364,-0.23759975,0.123268895,-2.0878963,0.02620798,0.015781833,-0.09268875,-0.12582795,0.0040732557,-0.020642297,0.7559138865659604,-0.2927987842500202,90.08106859186344
1729571588139364,-0.23786944,0.122801825,-2.0876365,0.025201024,0.015828008,-0.09287648,-0.12586941,0.005771871,-0.023466533,0.7508689990522083,-0.296039351588765,90.08668311496702
1729571588147364,-0.23813447,0.12235118,-2.087405,0.024227882,0.015888985,-0.09311226,-0.12164283,0.0076221763,-0.029472632,0.7453442949960932,-0.2990921938346832,90.092161030802
1729571588163364,-0.23865142,0.12149794,-2.087024,0.022306722,0.01604836,-0.09347898,-0.12007251,0.00996096,-0.022919847,0.7328895510525464,-0.3044573284854984,90.10317151322376
1729571588171364,-0.23890391,0.121094696,-2.0868726,0.021365402,0.016128456,-0.09362331,-0.11766492,0.01001195,-0.01804158,0.7259923685926313,-0.3069358419777013,90.10860162549905
1729571588179364,-0.23915665,0.1207064,-2.0867465,0.020451931,0.016234836,-0.09388094,-0.114183865,0.013297423,-0.032203272,0.718506734763628,-0.3094843665043575,90.11405224477566
1729571588187364,-0.23940568,0.12033308,-2.0866458,0.019549748,0.016354788,-0.09421494,-0.11277291,0.01499406,-0.041750256,0.7106144600246141,-0.31231125266405246,90.11973507583137
1729571588203364,-0.23989342,0.1196303,-2.0865197,0.017774196,0.016621958,-0.094809294,-0.11097197,0.016698148,-0.037147198,0.6936966148212768,-0.31850411360271735,90.13082757097214
1729571588211364,-0.24013253,0.11930032,-2.086492,0.016913438,0.01677879,-0.09509228,-0.10759476,0.019603875,-0.035373494,0.6845379154441266,-0.32197689215356595,90.1361620725875
1729571588219364,-0.24036863,0.118984364,-2.0864878,0.016066631,0.016948484,-0.09546527,-0.10585086,0.021211801,-0.046623867,0.675154987110332,-0.3255868915350729,90.14144197623793
1729571588227364,-0.24060188,0.11868215,-2.086507,0.015234766,0.017125739,-0.09587783,-0.10398321,0.02215686,-0.05157012,0.6655067153292261,-0.3292790425984268,90.1465921009817
1729571588243364,-0.2410607,0.11811813,-2.086613,0.013639748,0.017523568,-0.09658661,-0.09968859,0.024864333,-0.044298355,0.645855265674984,-0.336388962604124,90.15648251862591
1729571588251364,-0.2416177,0.1176254,-2.0865269,0.012740133,0.017557787,-0.09687856,-0.112451844,0.0042773318,-0.036493875,0.6358600377316501,-0.33958570683882194,90.16165996678214
1729571588259364,-0.24216469,0.11714933,-2.086466,0.011866642,0.01760098,-0.09721587,-0.10918639,0.0053991093,-0.042163763,0.6258157827399867,-0.3423429376102527,90.16657786773968
1729571588267364,-0.24270192,0.11668959,-2.08643,0.011026595,0.017653698,-0.09757986,-0.10500592,0.0065898052,-0.04549883,0.6157136652815518,-0.3449184988572375,90.1714137780563
1729571588283364,-0.24374814,0.11581754,-2.08643,0.00939346,0.017767737,-0.0982495,-0.10207091,0.007127411,-0.0418527,0.5952202793279721,-0.34995764360810555,90.18085341697889
1729571588291364,-0.24425758,0.11540452,-2.0864646,0.008613004,0.017843379,-0.09856852,-0.09755696,0.009455252,-0.039877366,0.5847877470569074,-0.35228808921646526,90.18547078614972
1729571588299364,-0.24475822,0.11500646,-2.0865219,0.007852601,0.017917015,-0.09893374,-0.09505043,0.009204494,-0.045652498,0.5742905382469782,-0.3545199226632597,90.18985590562313
1729571588307364,-0.24525028,0.11462306,-2.0866015,0.0071067996,0.018013304,-0.099344015,-0.09322515,0.012036179,-0.051284205,0.5637072561152238,-0.3565607210934795,90.19420005641948
1729571588323364,-0.24620998,0.11389795,-2.0868256,0.005691,0.018233715,-0.1000496,-0.08848748,0.013775657,-0.04409905,0.5423437083684071,-0.3607659855408181,90.20318893238623
1729571588331364,-0.24667771,0.113556415,-2.0869684,0.005017274,0.018371483,-0.10037351,-0.084215716,0.017221086,-0.040488314,0.5318028451364063,-0.36303285315206163,90.20781994895256
1729571588339364,-0.24713759,0.11322859,-2.0871315,0.0043545747,0.01849437,-0.1007342,-0.08283741,0.015360768,-0.045086253,0.5214651265915555,-0.3653937450658605,90.21219828426024
1729571588347364,-0.24758989,0.112914085,-2.0873144,0.0037051297,0.018628985,-0.10109635,-0.08118062,0.016826903,-0.045268793,0.5111829271301194,-0.3679773703908111,90.21654245799547
1729571588363364,-0.24847202,0.112324014,-2.0877373,0.0025067416,0.018921379,-0.10175506,-0.074899256,0.018274644,-0.041169576,0.49074649758319366,-0.37303555139497535,90.22482783878417
1729571588371364,-0.24890216,0.112048164,-2.087976,0.0019251448,0.01909589,-0.10204248,-0.07269959,0.021813901,-0.03592763,0.4804353892929883,-0.37559457906649285,90.2287416978429
1729571588379364,-0.25029144,0.11130793,-2.0880487,0.0010135071,0.019094719,-0.10231849,-0.1139547,-0.00014645047,-0.034500845,0.47012483732100957,-0.3780785271323171,90.23258046700737
1729571588387364,-0.25164953,0.110589944,-2.0881436,0.0001268831,0.019123172,-0.102610484,-0.110828,0.0035567207,-0.036499463,0.46006093825260425,-0.38039099702712703,90.23656264684006
1729571588395364,-0.25297913,0.10989475,-2.0882597,-0.00072357006,0.01915429,-0.10287066,-0.10630664,0.0038896685,-0.032521784,0.44994586096896466,-0.3827537879485212,90.24113226153696
1729571588411364,-0.2555557,0.10857054,-2.0885534,-0.0023555194,0.019249935,-0.103321284,-0.10199683,0.00597781,-0.028164124,0.42947951666438017,-0.3875334008473445,90.2498821289503
1729571588419364,-0.2568042,0.10794069,-2.0887296,-0.0031302217,0.01932819,-0.10357295,-0.09683778,0.009781914,-0.031458214,0.4189296672555008,-0.3901831483840697,90.25406925577933
1729571588427364,-0.25802705,0.10733185,-2.0889254,-0.0038777662,0.019421563,-0.103847645,-0.09344305,0.011671566,-0.034336932,0.4081205298462799,-0.39284906547378784,90.2581676071328
1729571588435364,-0.25922492,0.10674359,-2.08914,-0.004617738,0.019522974,-0.10407702,-0.09249648,0.012676463,-0.028671695,0.3970165399547963,-0.3959310479075406,90.26200639540812
1729571588451364,-0.2615485,0.10562556,-2.089623,-0.0059693106,0.019754695,-0.10448866,-0.08447328,0.014482531,-0.025727784,0.3737253771313198,-0.4031201835555459,90.26980011083222
1729571588459364,-0.26267523,0.10509505,-2.0898902,-0.006598664,0.019896936,-0.104706526,-0.07866916,0.017780112,-0.027232802,0.3613310018763459,-0.4070170906276017,90.27523727501867
1729571588467364,-0.2637792,0.10458357,-2.0901744,-0.007212062,0.020039974,-0.10492124,-0.07667474,0.017879764,-0.026838852,0.3484112202302192,-0.411115602071934,90.28051051784475
1729571588483364,-0.26592073,0.1036164,-2.0907917,-0.008315217,0.020395879,-0.105329,-0.06894717,0.022244057,-0.025485175,0.3209649084719961,-0.41908018519612067,90.2905925600741
1729571588491364,-0.26695916,0.10316011,-2.0911236,-0.00882607,0.020573908,-0.10550892,-0.06385671,0.022253718,-0.022490507,0.30657348682710267,-0.422878139696101,90.29536722543502
1729571588499364,-0.26773253,0.102511324,-2.0909944,-0.009195203,0.020619443,-0.10561327,-0.04614156,0.0056917774,-0.013043172,0.2917158223212137,-0.4266710266326295,90.30006672745746
1729571588507364,-0.2684905,0.10188362,-2.0908926,-0.009514693,0.020680686,-0.10572847,-0.039936274,0.007655471,-0.014400109,0.276107940926049,-0.43033301757367254,90.30434956830554
1729571588515364,-0.26923323,0.10127655,-2.090817,-0.009808639,0.020757932,-0.10582829,-0.036743235,0.00965572,-0.012477859,0.2602459417819344,-0.43420392400780605,90.3085504678674
1729571588531364,-0.27067402,0.10012436,-2.090742,-0.010272387,0.020963762,-0.10602945,-0.028984271,0.012864358,-0.012572388,0.2283965139917003,-0.44266109306771534,90.31661759545018
1729571588539364,-0.27137223,0.099577755,-2.0907416,-0.01047408,0.021089135,-0.10619365,-0.025211599,0.015671598,-0.020524485,0.2128736235245544,-0.4471053856748361,90.32035410510785
1729571588547364,-0.2720558,0.0990504,-2.0907655,-0.010632732,0.021236911,-0.106379196,-0.019831466,0.018472085,-0.023193656,0.19763922922648652,-0.451570038769743,90.32401542890328
1729571588563364,-0.27337977,0.09805214,-2.0908835,-0.010921808,0.021559115,-0.10672149,-0.01806725,0.020137753,-0.021393409,0.16829390566513217,-0.4605329716358369,90.33087368736278
1729571588571364,-0.27402046,0.09758056,-2.0909765,-0.0110255545,0.021745132,-0.106882416,-0.012968317,0.023252096,-0.020115634,0.1542595056162871,-0.46513640252851324,90.334118415097
1729571588579364,-0.2746472,0.09712701,-2.0910914,-0.011125536,0.02194522,-0.10708141,-0.0124976495,0.025010899,-0.024874693,0.14060902517908455,-0.46996289228887195,90.33733582606375
1729571588587364,-0.27526435,0.0966901,-2.091228,-0.01117516,0.022164226,-0.107310675,-0.0062030735,0.02737576,-0.028657725,0.12737507705637882,-0.4748390660441495,90.34038244328089
1729571588603364,-0.27645722,0.09586838,-2.0915642,-0.01123613,0.022630652,-0.10774038,-0.0038106225,0.029151676,-0.026856547,0.10253167256066281,-0.4840886399879343,90.3470427276982
1729571588611364,-0.27703333,0.09548301,-2.0917628,-0.011234451,0.022871379,-0.10797214,0.00020989681,0.030090798,-0.028969718,0.09074519626134038,-0.4883124636530943,90.35010984758954
1729571588619364,-0.27759597,0.09511423,-2.0919812,-0.011196679,0.023123622,-0.10822042,0.004721456,0.03153039,-0.031035392,0.07949389133237425,-0.492450962816146,90.35303355548342
1729571588627364,-0.27784598,0.0951277,-2.092212,-0.0110685695,0.023562517,-0.10850595,0.016013741,0.05486188,-0.035691075,0.06877674737940935,-0.4965018961004758,90.35575233651208
1729571588643364,-0.27832854,0.09517921,-2.0927322,-0.010762113,0.024460658,-0.10904037,0.01915352,0.056133837,-0.03340142,0.04901510192580723,-0.5043575002531984,90.3606161616616
1729571588651364,-0.27856097,0.095217206,-2.0930204,-0.01057918,0.024920415,-0.10927731,0.022866646,0.057469584,-0.029616987,0.04027587546582044,-0.5079702776922878,90.36287044722127
1729571588659364,-0.27878788,0.095263675,-2.0933268,-0.01037444,0.025390873,-0.109527685,0.02559251,0.058807198,-0.031297095,0.03212387452935078,-0.5113209381985642,90.36477641047074
1729571588667364,-0.27900866,0.09531838,-2.093651,-0.010158923,0.025861274,-0.10978732,0.026939552,0.058800213,-0.03245473,0.024424593323790607,-0.5142978459719997,90.36647052677804
1729571588683364,-0.27943158,0.09545233,-2.0943506,-0.009674324,0.026828852,-0.11023757,0.030287482,0.060473565,-0.028140375,0.01057938288720625,-0.5188272992494468,90.36931914512557
1729571588691364,-0.27963376,0.095531665,-2.0947251,-0.009420445,0.02729705,-0.110423185,0.031734817,0.058524773,-0.023202037,0.004299034342266329,-0.5202406195401806,90.37043949515079
1729571588699364,-0.2798298,0.09561908,-2.0951152,-0.0091721015,0.027784575,-0.11061883,0.03104296,0.060940623,-0.024455598,-0.0014257808409968017,-0.5209483737469044,90.37145725817086
1729571588707364,-0.28001964,0.095714696,-2.0955205,-0.008892812,0.02828096,-0.11083203,0.034911208,0.0620482,-0.026649794,-0.006563256163639617,-0.5209751620023876,90.37220863846294
1729571588723364,-0.28038052,0.095930636,-2.0963752,-0.008311184,0.02930223,-0.111135595,0.03635173,0.063829355,-0.018972903,-0.015346331622055719,-0.5192837667160013,90.37321948221717
1729571588731364,-0.28055286,0.09604842,-2.0968237,-0.008022068,0.029803965,-0.11125714,0.036139507,0.06271689,-0.015193596,-0.018996678262907202,-0.5175051233282362,90.37358140032342
1729571588739364,-0.28071898,0.09617434,-2.0972855,-0.007709254,0.030296495,-0.11140602,0.03910175,0.06156624,-0.018609688,-0.022100692101685672,-0.5152783378581974,90.37481079112423
1729571588747364,-0.28087893,0.09630822,-2.097761,-0.007408852,0.030785002,-0.1115525,0.037550226,0.061063327,-0.018309802,-0.024599139286320924,-0.5128274819659497,90.37597181074922
1729571588763364,-0.28027144,0.09644227,-2.0979218,-0.006549364,0.031761505,-0.111457035,0.053718016,0.061031427,0.0059665176,-0.02809740471463271,-0.5069516857813164,90.37762449902225
1729571588771364,-0.27997524,0.0965246,-2.0980349,-0.006125622,0.03224572,-0.11137052,0.052967746,0.060527116,0.010814517,-0.029094075337627673,-0.5035755200652335,90.37814342206102
1729571588779364,-0.27968362,0.09661689,-2.0981686,-0.0056983302,0.032722794,-0.11133101,0.053411465,0.059633978,0.004938803,-0.029516586995731807,-0.5000178689235403,90.37845058269214
1729571588787364,-0.27939644,0.09671895,-2.0983229,-0.0052814716,0.033195883,-0.11131326,0.05210732,0.059136186,0.0022184104,-0.02926069630007271,-0.4963842310030431,90.37864848081452
1729571588803364,-0.27883154,0.09695178,-2.0986905,-0.0044233915,0.03413392,-0.11122231,0.053630006,0.058627218,0.005684327,-0.027200722830105054,-0.48831854701125976,90.37862068569773
1729571588811364,-0.2785547,0.097082235,-2.0989025,-0.0039968067,0.034619574,-0.11117476,0.053323105,0.06070686,0.0059437,-0.025506090824955304,-0.48395485955615397,90.37844285008684
1729571588819364,-0.2782814,0.09722197,-2.099133,-0.0035802266,0.03509784,-0.11115464,0.052072514,0.059783455,0.002515502,-0.023198003199097927,-0.4793989623852736,90.37809423518553
1729571588827364,-0.2780115,0.09737068,-2.0993812,-0.0031825001,0.035551798,-0.11113838,0.049715802,0.05674455,0.0020321459,-0.020332490711369233,-0.47472086769693683,90.37763635886989
1729571588843364,-0.27748108,0.0976945,-2.0999298,-0.0023548305,0.03649036,-0.111136645,0.05172935,0.05866005,0.00010849907,-0.012924477720251086,-0.4651724756538445,90.37641998636128
1729571588851364,-0.27722013,0.09786931,-2.1002293,-0.0019526234,0.036937296,-0.11111913,0.05027589,0.055867244,0.0021895394,-0.008745859457865397,-0.4605182435646923,90.3755590816873
1729571588859364,-0.27696183,0.09805239,-2.1005447,-0.001544311,0.037367903,-0.11111487,0.05103905,0.053825784,0.0005327165,-0.0041437347713532535,-0.45578557157822036,90.37461621507423
1729571588867364,-0.27670646,0.09824154,-2.1008759,-0.0011657298,0.037780285,-0.111135624,0.04732264,0.05154777,-0.0025946645,0.0009155672108650333,-0.451023179785562,90.37351623159059
1729571588883364,-0.2770627,0.09779114,-2.1016886,-0.00076232885,0.03817302,-0.111083254,0.02521256,0.024545936,0.003273133,0.012686092036952352,-0.4410955724887927,90.37412365591783
1729571588891364,-0.2772299,0.09759039,-2.1021142,-0.0005686244,0.03837521,-0.11103714,0.024213055,0.025273765,0.005763955,0.019225831175862153,-0.4358463917215912,90.37481333190236
1729571588899364,-0.27739012,0.09740548,-2.1025517,-0.00038161004,0.03857845,-0.1110255,0.023376796,0.025405081,0.0014556571,0.026105401693798665,-0.43059636081493213,90.37532535385155
