timestamp,x,y,z,vx,vy,vz,ax,ay,az,roll,pitch,yaw,failed_motor
1729710283777105,0.03726374,0.015643515,-1.8002946,-0.043907754,0.040307797,-0.11722387,0.0,0.0,0.0,0.7368951392336555,0.2572996403728453,90.40832308295926,0
1729710283785105,0.037450746,0.016009755,-1.8002348,-0.044572614,0.040111568,-0.11710696,-0.083107494,-0.024528706,0.014613382,0.7280684689705008,0.25989684625836634,90.41029719688052,0
1729710283793105,0.037619494,0.016379183,-1.80022,-0.04523624,0.039939947,-0.117000125,-0.08295336,-0.021452548,0.0133542335,0.7192219363473181,0.2625233480936376,90.41220979204367,0
1729710283809105,0.037896566,0.017114356,-1.8002691,-0.04653938,0.03960726,-0.11706232,-0.08144625,-0.020792939,-0.0038873402,0.7013145235787615,0.2679511121277459,90.41148590118189,0
1729710283817105,0.038005948,0.017480193,-1.8003325,-0.04715565,0.039442904,-0.11706286,-0.077033415,-0.020544508,-6.7055225e-05,0.6921909361643319,0.2706832179781151,90.41091907741124,0
1729710283825105,0.038096573,0.01784489,-1.8004203,-0.04778071,0.0392789,-0.1169932,-0.07813284,-0.020500736,0.008707866,0.6832423572549337,0.2733895508585895,90.41023609290072,0
1729710283841105,0.03822291,0.018570635,-1.8006653,-0.049023975,0.038931936,-0.116960146,-0.07770397,-0.021685146,0.0020656735,0.6657594723691473,0.2786223368921163,90.40863794880491,0
1729710283849105,0.03825935,0.01893174,-1.8008406,-0.0496435,0.038764372,-0.11710157,-0.077440865,-0.020945443,-0.017678365,0.6576495609707991,0.2811557269713475,90.40772964328224,0
1729710283857105,0.03827859,0.01929163,-1.8010389,-0.050229006,0.038581654,-0.11728302,-0.073187985,-0.022839753,-0.022680497,0.6496358897535888,0.2837796720779581,90.40671203125709,0
1729710283865105,0.038286015,0.019654421,-1.8012595,-0.050815552,0.038409516,-0.11746864,-0.07331837,-0.021517275,-0.023202969,0.6416798268060009,0.28646274234357244,90.4056328509639,0
1729710283873105,0.03827701,0.020015964,-1.8015022,-0.051386796,0.03823079,-0.11766961,-0.07140543,-0.022340564,-0.025121493,0.6337400342508196,0.28924706674552875,90.40346092588311,0
1729710283889105,0.03821098,0.020735132,-1.8020525,-0.052534472,0.037851173,-0.11817821,-0.071729764,-0.02372614,-0.031787436,0.6188424720127225,0.295090102746515,90.39889836432455,0
1729710283897105,0.03870663,0.020965554,-1.8016802,-0.052818965,0.037483335,-0.1183309,-0.03556162,-0.045979857,-0.019086525,0.6119880571711639,0.29815665865504115,90.39641900865057,0
1729710283909105,0.03917552,0.021195633,-1.8013461,-0.053098805,0.037121065,-0.11842681,-0.023320006,-0.030189132,-0.007991989,0.6052825280243612,0.3016830856128772,90.39626201042252,0
1729710283913105,0.03961839,0.021425387,-1.8010697,-0.0533703,0.036769424,-0.118486434,-0.06787386,-0.087910324,-0.014906748,0.5990629676261019,0.30504377255420784,90.39590700938695,0
1729710283929105,0.040428415,0.021884048,-1.8006212,-0.053960934,0.036084853,-0.11869624,-0.0369146,-0.042785656,-0.013113021,0.58768930332084,0.3109569341851889,90.39520364801643,0
1729710283937105,0.040794183,0.022113657,-1.8004477,-0.05425205,0.035735257,-0.11887867,-0.036389567,-0.043699514,-0.022803431,0.5825472247872112,0.31344102548603314,90.39476661402463,0
1729710283945105,0.041136358,0.02234275,-1.8003078,-0.05454722,0.035383116,-0.11912905,-0.036896206,-0.04401756,-0.031297095,0.578081110894902,0.31550126568692666,90.39369428367439,0
1729710283953105,0.041455455,0.022571167,-1.8002006,-0.054851238,0.03502875,-0.11938626,-0.038002152,-0.044296026,-0.03215205,0.5743728681454789,0.3172668965060643,90.39257421232054,0
1729710283969105,0.04202636,0.023026561,-1.8001035,-0.05547167,0.034385625,-0.11986271,-0.038777012,-0.040195182,-0.029778106,0.5692513758639046,0.3205720922556775,90.39032707451364,0
1729710283981105,0.042279325,0.02325322,-1.8001114,-0.055786546,0.034040786,-0.12010454,-0.026239702,-0.028736578,-0.020151958,0.5675680624732141,0.3220117907024527,90.38920697832593,0
1729710283985105,0.042511106,0.02347908,-1.8001482,-0.05613417,0.0337039,-0.12034421,-0.08690636,-0.084221356,-0.059917565,0.5663313251201726,0.323294579265529,90.38824390541417,0
1729710283993105,0.042722136,0.02370415,-1.8002135,-0.05646444,0.033379827,-0.12062871,-0.041283663,-0.04050927,-0.035562553,0.565488217561847,0.3243427365583852,90.38729451576604,0
1729710284009105,0.04307506,0.024153147,-1.8004283,-0.05713759,0.032711465,-0.12138954,-0.042071797,-0.041772608,-0.04755193,0.5645979403953671,0.3254547679309504,90.38537517648564,0
1729710284017105,0.04322242,0.024376182,-1.8005772,-0.057484068,0.03237874,-0.12175795,-0.043309756,-0.041590534,-0.046051104,0.5646262010252906,0.32566912193738184,90.38428916054835,0
1729710284025105,0.04363477,0.024718186,-1.8007449,-0.057806686,0.032101545,-0.12207951,-0.040327195,-0.03464939,-0.040194947,0.5648981191135883,0.32557872719276476,90.38324410250073,0
1729710284033105,0.04402101,0.025056418,-1.8009601,-0.058140196,0.03180943,-0.1224258,-0.04168879,-0.036514364,-0.04328694,0.5654907057867333,0.3252515398461619,90.38162526656558,0
1729710284049105,0.044717383,0.025721714,-1.8014647,-0.05884502,0.031261187,-0.12329587,-0.044051554,-0.03426522,-0.054379456,0.5673197916733741,0.32522499239413855,90.3785447562992,0
1729710284057105,0.045028523,0.026049035,-1.801753,-0.059200544,0.030993916,-0.123629846,-0.04444038,-0.03340887,-0.04174653,0.5686206083161461,0.3257310748885586,90.37713770022191,0
1729710284065105,0.045315646,0.026372898,-1.8020638,-0.059575606,0.030722065,-0.12386429,-0.046882775,-0.033981398,-0.029305926,0.5700957636875856,0.32630826189774365,90.37579894555206,0
1729710284081105,0.045819554,0.027011815,-1.8027484,-0.060344443,0.030199744,-0.12431799,-0.048052285,-0.032645065,-0.028355977,0.5737063936369697,0.32739974922349646,90.373312724784,0
1729710284089105,0.046037152,0.027326407,-1.8031435,-0.060753953,0.029938692,-0.12465286,-0.051188745,-0.032631446,-0.04185922,0.5759490471053657,0.3277773634710275,90.37207639989633,0
1729710284097105,0.046232395,0.027637873,-1.803559,-0.06116026,0.029687824,-0.124987975,-0.050788276,-0.031358562,-0.041889023,0.5782699249877092,0.3280531635561011,90.37087420378356,0
1729710284105105,0.046405748,0.027946256,-1.8039942,-0.06157659,0.029413696,-0.12532437,-0.05204137,-0.034265917,-0.04204921,0.5805995004239872,0.3280069523001443,90.36971312107931,0
1729710284113105,0.04655764,0.02825147,-1.8044486,-0.061980657,0.029139329,-0.12564506,-0.050508413,-0.034295954,-0.040085983,0.5826683825993696,0.3276225611048484,90.368674848856,0
1729710284129105,0.046798643,0.028852878,-1.8054137,-0.06285301,0.028614273,-0.12632792,-0.054521948,-0.032815963,-0.042678785,0.5865347467529394,0.326618266804846,90.3665027484768,0
1729710284137105,0.04688843,0.029149204,-1.8059233,-0.06329251,0.028369013,-0.12661393,-0.054937784,-0.030657507,-0.03575161,0.5882851659201311,0.3263225361573926,90.3654917974711,0
1729710284145105,0.046958257,0.029442908,-1.80645,-0.0637382,0.028143464,-0.12684588,-0.05571078,-0.028193694,-0.028993933,0.5899541943304534,0.3261422269126977,90.36459017274623,0
1729710284153105,0.047389578,0.029831862,-1.8063174,-0.06384665,0.027941968,-0.12690422,-0.01355633,-0.025186919,-0.0072922553,0.5916614810454106,0.32605196556812777,90.3636749310866,0
1729710284161105,0.047796305,0.030216014,-1.8062181,-0.06395728,0.027745176,-0.12699816,-0.013829208,-0.024599021,-0.011742114,0.592718465994469,0.3261230433753122,90.36207656491004,0
1729710284181105,0.048537605,0.030970912,-1.8061157,-0.064277224,0.027397709,-0.12712586,-0.015997142,-0.017373357,-0.0063851476,0.5938470938894362,0.32641655950556775,90.3588867494564,0
1729710284185105,0.048873004,0.031341825,-1.8061106,-0.06446807,0.027204307,-0.12714376,-0.04771165,-0.04835054,-0.0044740736,0.5939368788774957,0.3268796325124189,90.35737728273112,0
1729710284205105,0.049475502,0.03207081,-1.8061875,-0.064897865,0.02681905,-0.12721606,-0.02148971,-0.019262824,-0.0036150217,0.5933328919617709,0.3281789371487412,90.35469296277444,0
1729710284213105,0.049743515,0.03242901,-1.8062942,-0.06510481,0.02663191,-0.12733363,-0.025868414,-0.023392493,-0.014696269,0.5926945244258485,0.328944464531199,90.35336105835967,0
1729710284217105,0.049990065,0.032783024,-1.806428,-0.06533993,0.026409859,-0.12742274,-0.05877949,-0.055512875,-0.022277234,0.5921319083708401,0.3299886469638307,90.35210428562594,0
1729710284225105,0.0502155,0.033132847,-1.8065878,-0.065588385,0.026202742,-0.12750073,-0.031056812,-0.025889602,-0.009749085,0.5915737028918169,0.3313021462292525,90.35088172631868,0
1729710284233105,0.050418735,0.033481147,-1.8067731,-0.06586701,0.026021568,-0.12758216,-0.03482774,-0.022646736,-0.010179355,0.591166022730634,0.33286313747792645,90.34965229453988,0
1729710284249105,0.05076438,0.034166355,-1.8072178,-0.066446654,0.025653763,-0.12780759,-0.036227982,-0.022987833,-0.014089047,0.5916695327200466,0.33642898393363485,90.34682455888345,0
1729710284257105,0.05090753,0.034503333,-1.8074763,-0.06675512,0.025455931,-0.12796582,-0.038558617,-0.02472894,-0.019779427,0.5923323737016529,0.3384176706850477,90.3454244128057,0
1729710284265105,0.051031362,0.034836654,-1.8077585,-0.06708184,0.02528261,-0.1281646,-0.040839422,-0.021665122,-0.024847684,0.5930240640913841,0.3403097729962958,90.34406526760777,0
1729710284273105,0.05085127,0.03496617,-1.8074934,-0.067530766,0.02499662,-0.12825067,-0.056115907,-0.035748817,-0.010758637,0.5936625739101709,0.3423444584217072,90.34280168289564,0
1729710284289105,0.0504545,0.0352268,-1.807074,-0.06845733,0.02437969,-0.1284453,-0.0579101,-0.03855815,-0.012164003,0.5950539600473591,0.34666687236303,90.34251493746291,0
1729710284297105,0.050238084,0.035357613,-1.8069174,-0.06891958,0.024075935,-0.12851664,-0.05778111,-0.03796932,-0.008918345,0.595617163303866,0.34897455832903584,90.34243307721981,0
1729710284305105,0.05000994,0.03548869,-1.8067949,-0.06938306,0.023767615,-0.12855057,-0.05793571,-0.03853999,-0.004241243,0.5960246298476184,0.3513492139904439,90.34237851730161,0
1729710284313105,0.049770787,0.03562425,-1.806705,-0.06983578,0.023471277,-0.12858197,-0.05658995,-0.03704219,-0.0039245933,0.5962913889496081,0.35377381696565346,90.3423103173664,0
1729710284329105,0.04925802,0.03589562,-1.8066515,-0.07078366,0.022889331,-0.1288567,-0.059242357,-0.036371637,-0.017170794,0.5968840826840701,0.35802409089556686,90.33938018202724,0
1729710284337105,0.048984364,0.03603138,-1.8066863,-0.07127082,0.022592898,-0.12905017,-0.060895454,-0.037054066,-0.02418272,0.5972072604331894,0.35977692257976657,90.33801420188875,0
1729710284345105,0.048699394,0.03616705,-1.806751,-0.07173741,0.022309754,-0.12922753,-0.05832314,-0.03539305,-0.022171063,0.5973152057904231,0.36124973795509985,90.33664816067925,0
1729710284357105,0.048403293,0.03630263,-1.8068448,-0.07221349,0.022023518,-0.12942022,-0.03967372,-0.023853034,-0.016057244,0.5971531722894667,0.3626030495451589,90.33537095178202,0
1729710284369105,0.047777664,0.036573283,-1.8071185,-0.073180676,0.021469612,-0.12999614,-0.08059852,-0.04615883,-0.047992915,0.5959080925686849,0.36435292052522783,90.33306226098266,0
1729710284377105,0.047448426,0.036708266,-1.8072977,-0.07366435,0.021189526,-0.1303023,-0.060459595,-0.035010744,-0.038269907,0.5946309972318092,0.3647771745742807,90.3321128417404,0
1729710284385105,0.04710833,0.036842864,-1.807504,-0.074153185,0.020908331,-0.1305862,-0.06110407,-0.035149276,-0.035488978,0.59288642354684,0.3648757607485323,90.33114978174129,0
1729710284393105,0.04675453,0.036974408,-1.807766,-0.074630946,0.02061833,-0.13087498,-0.059720125,-0.0362501,-0.0360962,0.590616334426565,0.36469187552262655,90.3302754749735,0
1729710284413105,0.046482388,0.037599694,-1.8085018,-0.07547395,0.020347824,-0.13152985,-0.04215017,-0.013525318,-0.03274381,0.5845836517707406,0.36373493601381945,90.32692170245927,0
1729710284421105,0.046322335,0.037907045,-1.8089037,-0.07588805,0.02019698,-0.13184956,-0.051762905,-0.018855557,-0.039963048,0.5807384402285019,0.36318288020272144,90.3242646512698,0
1729710284425105,0.046146747,0.03821081,-1.8093274,-0.076293394,0.020043796,-0.13214608,-0.10133534,-0.038295984,-0.07412955,0.5764086051366721,0.36242169905676797,90.32166222284542,0
1729710284441105,0.04575021,0.038808104,-1.8102376,-0.077111214,0.019748341,-0.13270445,-0.051113773,-0.018465914,-0.03489852,0.5665611838162198,0.36074736223400417,90.31666912330702,0
1729710284449105,0.045529816,0.039101724,-1.8107502,-0.077518605,0.019600676,-0.1330038,-0.050923783,-0.018458115,-0.03741868,0.5612258005310778,0.3599400232435638,90.31421013103775,0
1729710284457105,0.04529511,0.039392125,-1.8112817,-0.07791848,0.019446464,-0.13323417,-0.04998408,-0.019276515,-0.028796492,0.5556943225643018,0.3593396751414551,90.31179213928543,0
1729710284465105,0.045046393,0.0396794,-1.8118309,-0.07831542,0.019314773,-0.1333588,-0.04961807,-0.01646136,-0.015579163,0.549916805070502,0.358859151223439,90.30936045053794,0
1729710284473105,0.044794407,0.039961986,-1.8123968,-0.078696884,0.019170929,-0.13342962,-0.04768278,-0.01798058,-0.00885129,0.5439485279159115,0.35860610909930246,90.30688102431274,0
1729710284489105,0.044250134,0.04051823,-1.8135768,-0.07946933,0.018869568,-0.1336379,-0.048277896,-0.018835068,-0.013018026,0.5316213289897369,0.3588593646710372,90.30326774397021,0
1729710284497105,0.043958355,0.040792022,-1.8141903,-0.079836376,0.018724237,-0.1337202,-0.04588067,-0.018166378,-0.010287388,0.5255547201965683,0.3594072846719808,90.30154649053992,0
1729710284505105,0.043653958,0.041063003,-1.8148187,-0.08020008,0.018572532,-0.13380854,-0.04546344,-0.018963125,-0.0110417595,0.5195203930942401,0.36028209974748443,90.29991408359092,0
1729710284513105,0.04333721,0.041331194,-1.8154893,-0.080557734,0.018420022,-0.13391206,-0.044706274,-0.019063707,-0.012939795,0.5136040515664676,0.3616099041976446,90.29845926202235,0
1729710284529105,0.041929178,0.04252229,-1.8176633,-0.08160903,0.018551307,-0.13429444,-0.0657062,0.008205301,-0.023898667,0.5020378190985626,0.3644270936107849,90.29162890309262,0
1729710284537105,0.041220393,0.043103628,-1.8187551,-0.0821252,0.01857175,-0.13445474,-0.0645211,0.002555316,-0.020038335,0.49633168688808943,0.36574385274796145,90.28635585404501,0
1729710284545105,0.04050771,0.04367645,-1.8198497,-0.082623884,0.0185924,-0.13457479,-0.06233528,0.002581393,-0.015005468,0.49047064893931713,0.36701645506650804,90.28186831578701,0
1729710284553105,0.039791193,0.044241007,-1.8209468,-0.083114155,0.018613866,-0.13466394,-0.061283816,0.00268314,-0.011144205,0.48458177964186144,0.3681579472429744,90.27761985149469,0
1729710284569105,0.038346626,0.04534616,-1.8231715,-0.084069654,0.01863445,-0.13472989,-0.059718728,0.0012865056,-0.0041220337,0.47215432464502155,0.3703740694888568,90.26924583088596,0
1729710284577105,0.037618723,0.045887057,-1.8242977,-0.08452908,0.018641777,-0.13468175,-0.05742814,0.0009159557,0.006018206,0.4655840952856046,0.3716205517822447,90.26527057308299,0
1729710284585105,0.036887117,0.046420455,-1.8254243,-0.08497445,0.01865669,-0.1346142,-0.055671666,0.001864042,0.00844337,0.4587380979696613,0.37336994427326775,90.26139095340218,0
1729710284601105,0.035413206,0.047465455,-1.8276781,-0.0858202,0.018648526,-0.13435857,-0.05285907,-0.00051024836,0.015976839,0.444203214777573,0.37856190695556396,90.25382984799086,0
1729710284609105,0.034670833,0.047977217,-1.8288045,-0.086246796,0.018625222,-0.13419268,-0.053324733,-0.002912944,0.020736827,0.4364384728736241,0.38203822965510864,90.250319102725,0
1729710284617105,0.03393551,0.048474137,-1.8299305,-0.08665704,0.018586956,-0.13398033,-0.05128048,-0.0047832727,0.026542692,0.42860587623044655,0.38597111956557106,90.24699964713857,0
1729710284625105,0.033196576,0.048964135,-1.8310555,-0.08703809,0.018538292,-0.13368316,-0.047631558,-0.006082933,0.037146732,0.4204749052197125,0.39028040079409737,90.24572250181983,0
1729710284641105,0.031708334,0.04992396,-1.8333483,-0.08777496,0.018415695,-0.1329878,-0.046054363,-0.0076623396,0.043460164,0.40369269235649513,0.39981228976172356,90.24357802440788,0
1729710284649105,0.031107966,0.050431434,-1.8340647,-0.08807088,0.01833781,-0.13255343,-0.03698934,-0.0097355805,0.054296102,0.3951024688674326,0.40473094760794776,90.24271753760291,0
1729710284657105,0.030501042,0.050931245,-1.83479,-0.088333055,0.018236028,-0.13206092,-0.03277231,-0.012722797,0.061564144,0.38631719404964954,0.40982346254113966,90.24210979981073,0
1729710284665105,0.02988784,0.05142344,-1.8355234,-0.08857796,0.018128805,-0.1315448,-0.030613502,-0.013402895,0.06451458,0.3772908794626737,0.41499679784312865,90.2416181620006,0
1729710284681105,0.028643308,0.052385345,-1.8370119,-0.08904558,0.017884633,-0.1304034,-0.029225832,-0.015260767,0.07133745,0.35881707941905405,0.4254473750835356,90.24107202476563,0
1729710284689105,0.028010473,0.052853268,-1.8377918,-0.089273416,0.01775628,-0.12981352,-0.028479842,-0.016044127,0.07373467,0.34924008908971454,0.43072451052316335,90.24102438495042,0
1729710284697105,0.027372126,0.053313766,-1.838577,-0.08948675,0.01759087,-0.12919596,-0.026666557,-0.02067629,0.077195466,0.3395247133887272,0.43617718522668875,90.2416734238837,0
1729710284709105,0.026728425,0.053766835,-1.839367,-0.08970143,0.0174225,-0.12857527,-0.017890086,-0.01403084,0.051724415,0.329685898680736,0.44159541842696826,90.24245912798848,0
1729710284713105,0.026079562,0.054212485,-1.8401616,-0.08989411,0.01724198,-0.12794882,-0.048169862,-0.04512956,0.1566112,0.3196847900114965,0.44710034292070366,90.2435044006685,0
1729710284721105,0.02542581,0.054650832,-1.8409603,-0.090067305,0.017061325,-0.12733096,-0.021649523,-0.02258201,0.07723272,0.30973107853338966,0.4523972644502787,90.24464525620878,0
1729710284737105,0.024104998,0.055505216,-1.8425698,-0.09034037,0.016624946,-0.12615024,-0.017066486,-0.027273664,0.07379521,0.28995162014028497,0.4621265918037374,90.24734359374577,0
1729710284745105,0.023438295,0.055921424,-1.8433803,-0.09046718,0.016411649,-0.12557097,-0.01585111,-0.026662134,0.07240847,0.2802358626679911,0.46662095053119496,90.24896939418248,0
1729710284753105,0.022767639,0.05633039,-1.8442202,-0.090581685,0.01619278,-0.124968216,-0.014313496,-0.02735853,0.075344,0.2705547684960508,0.4709115201465271,90.2508138126954,0
1729710284761105,0.022093127,0.056732178,-1.8450624,-0.09070736,0.015957402,-0.124371134,-0.01570955,-0.02942234,0.07463526,0.26075714611417816,0.4751617502104649,90.252897266379,0
1729710284777105,0.020877983,0.057927594,-1.8467176,-0.09081889,0.01567347,-0.12310648,-0.0069704833,-0.017745769,0.07904088,0.24125168977799646,0.48329278786897284,90.25905183234104,0
1729710284785105,0.020343136,0.05871681,-1.8475311,-0.09082162,0.015650049,-0.12245416,-0.00034086403,-0.0029276123,0.08154008,0.2317551304314398,0.48692278999592664,90.26033611092585,0
1729710284801105,0.019254915,0.06025005,-1.8491642,-0.090774626,0.015547981,-0.121139556,0.0029369255,-0.006379268,0.08216267,0.21334316688463603,0.4935253699990293,90.26308223064402,0
1729710284809105,0.018702175,0.060994565,-1.850009,-0.090723015,0.015471341,-0.12047204,0.006451271,-0.009579933,0.083439976,0.204445106726885,0.4964718528123608,90.26447578362377,0
1729710284817105,0.01814405,0.06172467,-1.8508545,-0.09067173,0.015386082,-0.119815566,0.006410293,-0.010657356,0.082058825,0.19586932205894514,0.499212409587773,90.2659034422786,0
1729710284825105,0.017580708,0.06244062,-1.8517007,-0.09061201,0.015284654,-0.119153194,0.0074654813,-0.012678559,0.08279643,0.18780694354962366,0.5018897858312381,90.26744726599576,0
1729710284833105,0.017012296,0.06314264,-1.8525472,-0.09055775,0.015167569,-0.118516624,0.006782822,-0.014635617,0.07957126,0.18038262660930832,0.5047398455887914,90.26897058399683,0
1729710284849105,0.015859585,0.06450483,-1.8542413,-0.090422735,0.014919867,-0.11723154,0.008438248,-0.015481374,0.08031772,0.16708157726043027,0.5119858942999101,90.27166895522927,0
1729710284857105,0.015276411,0.065166056,-1.8550885,-0.09035848,0.014763838,-0.11659385,0.008031726,-0.01950364,0.07971096,0.16099083093949723,0.5166064366111134,90.27290544990474,0
1729710284865105,0.014688812,0.06581415,-1.8559356,-0.09030109,0.014585229,-0.115942754,0.0071739773,-0.022326129,0.08138734,0.15528704187225337,0.5216348895334394,90.2741488908745,0
1729710284881105,0.013501083,0.06707189,-1.8576798,-0.09012584,0.01421388,-0.11467492,0.010953284,-0.023209315,0.07923971,0.14468844961725033,0.53210334410128,90.27690203431014,0
1729710284889105,0.012901534,0.06768193,-1.8585502,-0.0900299,0.013997927,-0.114019364,0.011991709,-0.026994035,0.08194427,0.13975541748724696,0.5371363987655237,90.27831622625382,0
1729710284897105,0.012418463,0.06812134,-1.8591592,-0.0897707,0.013681425,-0.11330804,0.032400712,-0.039562814,0.08891522,0.13496697804323793,0.5420038714370587,90.27971667669807,0
1729710284905105,0.01193103,0.06855167,-1.8597733,-0.08952017,0.013365229,-0.112576276,0.03131572,-0.039524514,0.09147077,0.1298891426707072,0.5468382094213725,90.28374692326602,0
1729710284913105,0.011438446,0.06896675,-1.8603917,-0.08927552,0.013036299,-0.11181872,0.030581838,-0.04111626,0.09469408,0.12500696871015646,0.5515946942060161,90.28777724428886,0
1729710284929105,0.010441321,0.069770426,-1.8616662,-0.08877462,0.012344261,-0.110254854,0.031305943,-0.043252364,0.097741835,0.11572374858800265,0.561330414097898,90.29848126653543,0
1729710284941105,0.009937214,0.07015916,-1.8623208,-0.088519566,0.011990928,-0.10946257,0.021254644,-0.029444383,0.06602394,0.11130557939699125,0.5665584300965104,90.30385722412838,0
1729710284945105,0.009429604,0.0705392,-1.8629775,-0.08826389,0.011631649,-0.1086896,0.06391853,-0.089819774,0.19324197,0.10701169239832138,0.5717099809028314,90.3092673616919,0
1729710284953105,0.008918681,0.070910566,-1.8636366,-0.08800552,0.0112552345,-0.10795924,0.032296404,-0.04705181,0.09129475,0.10291959814143013,0.5766831419610406,90.31472532224524,0
1729710284969105,0.0078872675,0.07162711,-1.8649608,-0.08750069,0.010479065,-0.10647461,0.03155181,-0.04851061,0.09278952,0.09540745801770713,0.585624159439154,90.32562070401715,0
1729710284977105,0.007366982,0.07197234,-1.8656257,-0.0872592,0.01007407,-0.10580215,0.030186025,-0.050624363,0.08405744,0.09206711333674403,0.5894749344141063,90.3309761769236,0
1729710284985105,0.0068487697,0.07230362,-1.8662928,-0.086996615,0.0096695395,-0.10515617,0.032823533,-0.050566275,0.08074752,0.08895107285194784,0.5930622554014605,90.33631112604743,0
1729710284993105,0.006327827,0.072626345,-1.8669883,-0.08674698,0.009249318,-0.10453167,0.031203961,-0.05252764,0.07806253,0.08604896350896762,0.5963227791412808,90.34271164995508,0
1729710285009105,0.0052780835,0.07324591,-1.8683828,-0.086237796,0.008372961,-0.10331918,0.031824224,-0.05477236,0.07578032,0.08106105173556495,0.6019124206231788,90.35525316123793,0
1729710285017105,0.004749531,0.073542826,-1.8690817,-0.08599091,0.007941294,-0.10271398,0.030860303,-0.053958267,0.0756504,0.07867363912331155,0.6042183775307508,90.36154437481356,0
1729710285025105,0.0043281815,0.07299475,-1.86948,-0.08564395,0.00699929,-0.10203297,0.043370757,-0.11775054,0.0851266,0.07634654775046683,0.6061908114095691,90.36787659767967,0
1729710285041105,0.0034740113,0.07192157,-1.8703005,-0.08498283,0.0051530227,-0.10064415,0.041319985,-0.11539171,0.08680112,0.07138105249609053,0.611253067694023,90.39349901470882,0
1729710285049105,0.0030415053,0.071395636,-1.8707498,-0.084646374,0.004246326,-0.09993564,0.04205666,-0.11333706,0.08856318,0.06880856589351951,0.6135950492303509,90.4062658670055,0
1729710285057105,0.0026119952,0.07087634,-1.8712054,-0.08431826,0.0033577648,-0.09925702,0.04101451,-0.11107016,0.08482765,0.0660441232923094,0.6154833849881265,90.4189780375507,0
1729710285065105,0.0021790885,0.07036336,-1.8716669,-0.08397358,0.0024766354,-0.09859111,0.04308484,-0.11014117,0.08323881,0.063384371185544,0.6167445883022037,90.43082270423184,0
1729710285073105,0.0017430125,0.06985631,-1.8721342,-0.0836338,0.0016006274,-0.097943485,0.04247203,-0.10950099,0.080953345,0.06090471384309036,0.6171687249496849,90.44243506432606,0
1729710285089105,0.0008614987,0.06885837,-1.8730859,-0.08297373,-0.0001494165,-0.09673576,0.041254327,-0.10937774,0.07548276,0.05643403409621388,0.6140707351716729,90.4653794367542,0
1729710285097105,0.00041631772,0.06836687,-1.8735698,-0.082636565,-0.0010057103,-0.09616498,0.042146068,-0.107036725,0.07134769,0.05429370285194738,0.6103982849776219,90.47661575168166,0
1729710285105105,-3.1582676e-05,0.06787996,-1.8740591,-0.08229392,-0.0018498943,-0.09561013,0.04283059,-0.10552299,0.06935652,0.05235921298443891,0.6056899384346599,90.48776325450706,0
1729710285121105,-0.00093509123,0.06691913,-1.8751075,-0.08161384,-0.003464352,-0.094571926,0.042505093,-0.10090361,0.06488757,0.04941016631817994,0.5936424257042099,90.50959344098395,0
1729710285129105,-0.0013853442,0.066446625,-1.8756385,-0.08126795,-0.004230107,-0.094107196,0.043235715,-0.09571938,0.058091242,0.04842396834229742,0.5865790485004766,90.52016692141933,0
1729710285141105,-0.0018379381,0.06597811,-1.8761737,-0.080925435,-0.0049637957,-0.0936703,0.028543174,-0.061140705,0.036407884,0.04765512270863228,0.5790894119309601,90.52966796349702,0
1729710285145105,-0.0022928065,0.06551345,-1.8767134,-0.080597326,-0.0056901257,-0.09324431,0.08202716,-0.18158251,0.10649859,0.04699577535736551,0.571123836145104,90.53905280398149,0
1729710285161105,-0.0035873405,0.064893246,-1.8772521,-0.080049604,-0.0071172733,-0.092135824,0.034232624,-0.08919672,0.069280155,0.04588741786109838,0.5544646279229111,90.55808868519416,0
1729710285169105,-0.004230854,0.06458164,-1.8775653,-0.079783104,-0.0077972366,-0.091593966,0.033312477,-0.084995404,0.0677323,0.04539446247734946,0.54586587711483,90.56784917164478,0
1729710285177105,-0.0048719067,0.06426901,-1.877887,-0.07951162,-0.00846315,-0.09103238,0.033935532,-0.08323916,0.07019844,0.04481372338931979,0.536994345934537,90.57741148798522,0
1729710285185105,-0.005510617,0.06395554,-1.8782166,-0.079257086,-0.00909803,-0.0905037,0.031816773,-0.07935997,0.06608479,0.04401611837719031,0.5278630559671189,90.58668687555151,0
1729710285193105,-0.0061471174,0.063641325,-1.8785543,-0.07900083,-0.009723334,-0.09000735,0.03203191,-0.07816299,0.062043775,0.04296189038313466,0.5184248352093405,90.59536798047039,0
1729710285209105,-0.0074189394,0.06301294,-1.8792536,-0.07848594,-0.010842017,-0.08910377,0.032180455,-0.0699177,0.056473535,0.040084781202297456,0.4988227004984393,90.61197876820006,0
1729710285217105,-0.008051699,0.06269858,-1.8796148,-0.0782325,-0.011364523,-0.0886894,0.0316808,-0.0653133,0.051796433,0.038433060970962434,0.48880382824968177,90.61986751058753,0
1729710285225105,-0.00868246,0.062384307,-1.8799837,-0.077983834,-0.011867561,-0.08826083,0.031082889,-0.062879756,0.053571533,0.03649503039685074,0.47871917471880737,90.62740774987337,0
1729710285237105,-0.009311211,0.062070105,-1.8803877,-0.07772556,-0.012374318,-0.08785759,0.021522865,-0.042229734,0.03360336,0.034417008662087675,0.468521300502214,90.63457922054282,0
1729710285249105,-0.0105629675,0.06144217,-1.8812141,-0.0772162,-0.013324156,-0.08705178,0.04244658,-0.07915318,0.06715084,0.030126511869890068,0.4477932013622234,90.64768568350804,0
1729710285257105,-0.011185948,0.061128795,-1.8816363,-0.07694745,-0.013744098,-0.086692594,0.033593737,-0.052492715,0.044898126,0.02775607089960867,0.4374058812488356,90.65366860487642,0
1729710285265105,-0.011807047,0.0608161,-1.8820643,-0.07668659,-0.01415123,-0.08634995,0.032607466,-0.050891537,0.04283059,0.025164744760158505,0.427304544270035,90.65914609531526,0
1729710285273105,-0.012546958,0.0605339,-1.8819603,-0.07653439,-0.0145523995,-0.085946724,0.019025058,-0.05014613,0.050403174,0.022439835879976472,0.4177148046487068,90.66423422722411,0
1729710285289105,-0.0140164215,0.059968386,-1.8818429,-0.076197,-0.015319973,-0.08522029,0.021087004,-0.047973353,0.04540197,0.01705698617600906,0.39998384908241646,90.67289421850992,0
1729710285297105,-0.014746033,0.059685413,-1.8818276,-0.07602901,-0.015672455,-0.08486086,0.020998528,-0.04406017,0.04492886,0.014448949673658014,0.3917289949184841,90.67662321124159,0
1729710285313105,-0.016195305,0.059119307,-1.8818492,-0.07565498,-0.01635749,-0.08424074,0.02337666,-0.042814758,0.038757455,0.009794902037197926,0.37584975615155575,90.68321366237929,0
1729710285321105,-0.016915126,0.058836363,-1.8818856,-0.07548845,-0.01668122,-0.08396953,0.02081692,-0.040466197,0.033901073,0.007447340917889033,0.3680035711099733,90.68594543721784,0
1729710285329105,-0.017631823,0.058553573,-1.8819386,-0.07529015,-0.016993178,-0.08371437,0.024787148,-0.038994707,0.031895004,0.005084802919608733,0.3602009896478975,90.68832876314684,0
1729710285337105,-0.01834536,0.058271024,-1.8820076,-0.0750988,-0.017291559,-0.083462365,0.023919156,-0.037297606,0.031501055,0.0025382636474526785,0.3523226677028225,90.69038429442034,0
1729710285345105,-0.019051395,0.05798824,-1.8820924,-0.074899055,-0.017571762,-0.0832407,0.024967825,-0.03502541,0.027707776,-0.00024535763279977946,0.3445958199383576,90.69217341842611,0
1729710285361105,-0.020454636,0.05742415,-1.8823702,-0.07451444,-0.018100163,-0.082866855,0.024038365,-0.033025045,0.023365485,-0.007045670284165743,0.32956351400700173,90.69534186996586,0
1729710285369105,-0.021152006,0.057142958,-1.8825303,-0.07430575,-0.018332591,-0.08271499,0.026086343,-0.029053537,0.018983148,-0.010926821596072705,0.3225089349519814,90.69632498736594,0
1729710285377105,-0.021846492,0.05686246,-1.8827043,-0.07409941,-0.018569674,-0.08258228,0.025792977,-0.029635381,0.016588718,-0.0149301805707645,0.3158872572754657,90.6969870617678,0
1729710285385105,-0.022538204,0.056582723,-1.8828919,-0.07389054,-0.018778086,-0.0824785,0.026108695,-0.026051419,0.012972391,-0.019139830686598747,0.3097909290808363,90.69728036854723,0
1729710285393105,-0.023227124,0.05630389,-1.883093,-0.07367808,-0.018970234,-0.08239207,0.026556661,-0.024018575,0.010804272,-0.023406507176843713,0.3039550356975058,90.69735508050246,0
1729710285409105,-0.024485836,0.054932564,-1.8832086,-0.07292243,-0.019952027,-0.08216689,0.047228295,-0.061362047,0.01407368,-0.032172294187635585,0.29309197928847763,90.70240915285504,0
1729710285417105,-0.025107486,0.054254826,-1.8833071,-0.07250902,-0.020421416,-0.08205869,0.051676292,-0.058673553,0.0135246655,-0.036720669763429616,0.28790302321604827,90.70760706137573,0
1729710285425105,-0.025725141,0.053584624,-1.8834214,-0.07209058,-0.020867022,-0.08196293,0.052304935,-0.05570077,0.011970288,-0.04138775951534818,0.28280819919576816,90.71232005330965,0
1729710285441105,-0.0269486,0.05226622,-1.8836952,-0.07126824,-0.021712901,-0.081738934,0.05139643,-0.052867454,0.01399964,-0.051058855037334004,0.2724262164535315,90.72128834915988,0
1729710285449105,-0.027554492,0.0516178,-1.8838543,-0.07086565,-0.022104315,-0.08166757,0.05032308,-0.048926797,0.008920208,-0.05582563827982162,0.2671616830627584,90.72540018586673,0
1729710285457105,-0.02815648,0.05097648,-1.8840277,-0.07045465,-0.022470705,-0.08161481,0.051375475,-0.045798715,0.006595626,-0.06048478743947137,0.26149368631036785,90.72932761693086,0
1729710285465105,-0.028754607,0.050342172,-1.8842154,-0.070051156,-0.022813817,-0.08158611,0.0504367,-0.042889033,0.0035874543,-0.06516940584115713,0.2553803380071863,90.73302949005348,0
1729710285473105,-0.029348766,0.04971478,-1.8844484,-0.0696297,-0.023143781,-0.08160008,0.05268212,-0.04124548,-0.0017462297,-0.06983718953913552,0.24868041789797204,90.73651968238022,0
1729710285489105,-0.0305226,0.048478905,-1.8849539,-0.06878313,-0.023752144,-0.081678994,0.05291076,-0.03802264,-0.004932284,-0.07872109390436981,0.23423099768335318,90.74274169754162,0
1729710285497105,-0.031102229,0.047870252,-1.8852257,-0.06834965,-0.024016287,-0.081706055,0.054184344,-0.033017945,-0.0033825634,-0.08287287752368504,0.2267497188874758,90.74808307391298,0
1729710285505105,-0.031677753,0.04726834,-1.8855094,-0.06791017,-0.024257062,-0.08171681,0.05493499,-0.030096851,-0.0013448297,-0.08674282305617827,0.2192810772319774,90.75306229459532,0
1729710285513105,-0.032249197,0.046673026,-1.8858049,-0.06747715,-0.024496768,-0.08172309,0.054127533,-0.029963206,-0.00078417355,-0.09040844344657598,0.21194762994764307,90.75793924539855,0
1729710285529105,-0.03323689,0.046606958,-1.8875788,-0.066545375,-0.024507442,-0.08194785,0.058236063,-0.00066717615,-0.014047603,-0.0972869127812245,0.19714111283642083,90.76689370552654,0
1729710285537105,-0.033726808,0.046564557,-1.8884732,-0.066087306,-0.024489682,-0.08205972,0.05725864,0.0022200402,-0.0139838075,-0.10065789594736554,0.189836357284387,90.77102603361045,0
1729710285545105,-0.034214087,0.046516385,-1.8893635,-0.06563577,-0.024457373,-0.08214666,0.05644187,0.0040386803,-0.010867602,-0.1039546645458406,0.18253544681891,90.77493976476613,0
1729710285553105,-0.034698773,0.04646277,-1.89025,-0.06518767,-0.02440398,-0.082205206,0.05601253,0.00667409,-0.0073183323,-0.10717839927924434,0.1752066581412765,90.77865548074146,0
1729710285569105,-0.035659328,0.046340667,-1.8920101,-0.06426655,-0.024284301,-0.08222625,0.057570167,0.007479917,-0.0013150274,-0.11320036741339151,0.16042657226711268,90.78529439349224,0
1729710285577105,-0.036135156,0.04627283,-1.8928837,-0.063803785,-0.024201928,-0.0821788,0.057845373,0.010296701,0.0059306617,-0.11581131108949273,0.1530999129739881,90.7887642369938,0
1729710285585105,-0.036608264,0.046201017,-1.8937526,-0.06334613,-0.024104407,-0.082100086,0.057206485,0.01219008,0.009839422,-0.11811303330310591,0.14604026141774182,90.79191308918536,0
1729710285593105,-0.037078746,0.046125557,-1.8946433,-0.06290568,-0.023992695,-0.0820104,0.055056993,0.013964017,0.011210329,-0.12017914618612754,0.13933769061917797,90.79476125017054,0
1729710285609105,-0.03801204,0.045965042,-1.8964086,-0.061997198,-0.02374975,-0.0817382,0.05677994,0.0151840495,0.017012935,-0.12327343333674924,0.12782780339044217,90.79944688904264,0
1729710285617105,-0.038474668,0.045880392,-1.8972831,-0.06154852,-0.0236187,-0.081561215,0.056084707,0.016381266,0.022122635,-0.1244890115119616,0.12301521655697774,90.80137305750848,0
1729710285625105,-0.038934655,0.04579326,-1.898152,-0.061092813,-0.023471246,-0.08133493,0.05696341,0.018431805,0.028285196,-0.1255494499962491,0.11873774770832923,90.80297135988071,0
1729710285641105,-0.0398467,0.045612607,-1.8998715,-0.06019471,-0.023170391,-0.08070885,0.05613151,0.018803403,0.03913045,-0.1273761286721937,0.11196366708313941,90.8052867622003,0
1729710285649105,-0.040704172,0.045697544,-1.9008065,-0.059905875,-0.022894155,-0.0803209,0.036104117,0.03452948,0.04849303,-0.1281898011307314,0.10952956054059815,90.80599712893788,0
1729710285657105,-0.04156366,0.045783482,-1.901732,-0.059640657,-0.022620762,-0.07990046,0.03315229,0.03417418,0.05255546,-0.12876375574115895,0.10745699461810025,90.80525939609741,0
1729710285665105,-0.04241168,0.045864724,-1.9026479,-0.059376944,-0.022338117,-0.07943841,0.032964163,0.035330653,0.057755966,-0.1292453293602166,0.10584506051126086,90.80293004768482,0
1729710285681105,-0.044074275,0.046014275,-1.9044507,-0.058836654,-0.02178673,-0.07843955,0.033768125,0.03446161,0.062428877,-0.12996843497798502,0.1041018585731424,90.79725351229823,0
1729710285689105,-0.044889435,0.04608287,-1.9053375,-0.058559515,-0.021532184,-0.07790766,0.034642406,0.0318184,0.06648619,-0.13025699686327535,0.10365855588904259,90.7939337385618,0
1729710285697105,-0.045694135,0.04614748,-1.9062144,-0.058284067,-0.021277543,-0.07732865,0.034430996,0.031830043,0.07237587,-0.13048212608878126,0.10353976109610119,90.79031327598805,0
1729710285705105,-0.046488695,0.046208367,-1.9070814,-0.058007494,-0.021017278,-0.07671936,0.034571625,0.03253319,0.0761617,-0.1307289864964505,0.10366745382582548,90.78634455399794,0
1729710285713105,-0.04727329,0.04626576,-1.9079632,-0.057722554,-0.020758156,-0.076076694,0.0356175,0.032390233,0.080333084,-0.1310652340508276,0.10421345631125739,90.78215040983802,0
1729710285721105,-0.048048213,0.04631972,-1.908834,-0.057444707,-0.020512966,-0.07541184,0.03473088,0.03064866,0.08310656,-0.1314089976770874,0.10525760321483103,90.77762161686123,0
1729710285737105,-0.049570285,0.046425834,-1.9105428,-0.056880616,-0.0200189,-0.07400456,0.03525568,0.030879162,0.08795503,-0.13273204904610503,0.10857035745189102,90.76678801634901,0
1729710285745105,-0.05031775,0.04647443,-1.9113808,-0.056603987,-0.019744094,-0.073299244,0.03457861,0.034350667,0.088164575,-0.13362952698348962,0.11071548767625383,90.76070863091753,0
1729710285753105,-0.051056497,0.046520427,-1.9122078,-0.056325436,-0.019478515,-0.07259429,0.03481889,0.03319746,0.08811894,-0.13471752983984356,0.11291905497325953,90.75436980981293,0
1729710285769105,-0.052508727,0.04660514,-1.9138552,-0.055798084,-0.018946147,-0.07118359,0.032959506,0.03327301,0.08816877,-0.1369974428797406,0.11761004372511741,90.74070833947857,0
1729710285777105,-0.05263339,0.047052335,-1.9148301,-0.055204988,-0.018565949,-0.07052746,0.074137,0.04752469,0.082016915,-0.13838404823901357,0.12001532936148722,90.73357705512926,0
1729710285785105,-0.052762076,0.047487684,-1.9157902,-0.05460018,-0.018196072,-0.06987049,0.07560104,0.046234574,0.08212122,-0.1405079803575111,0.1223662537164504,90.72783244990981,0
1729710285793105,-0.052894596,0.047911614,-1.9167358,-0.05400712,-0.017825464,-0.069230765,0.074132346,0.04632608,0.07996521,-0.1431775271680128,0.12469872871883773,90.72195129353867,0
1729710285809105,-0.05318133,0.048724517,-1.9185843,-0.052881163,-0.017088214,-0.06789918,0.07037236,0.046078112,0.08322391,-0.15008178764475122,0.13002903752680064,90.71055773571659,0
1729710285817105,-0.053329777,0.04911541,-1.9194876,-0.05232981,-0.016733527,-0.06721614,0.068919264,0.044335842,0.08537992,-0.15383191036634486,0.13315713901525697,90.70504546221562,0
1729710285825105,-0.0534814,0.04949629,-1.9203771,-0.05178369,-0.016393878,-0.066510856,0.06826501,0.0424562,0.08816085,-0.15753206161370623,0.1368026692202149,90.69949903833655,0
1729710285833105,-0.053635906,0.04986745,-1.9212756,-0.051228046,-0.016056394,-0.065787636,0.06945524,0.04218542,0.09040254,-0.16116764345136808,0.14085698536450963,90.69374080890904,0
1729710285849105,-0.053952333,0.050581668,-1.9230299,-0.05008801,-0.015417851,-0.06428873,0.07125223,0.039908975,0.09368173,-0.16766947826551143,0.15064040924251082,90.6818214746642,0
1729710285857105,-0.054113727,0.050925296,-1.9238857,-0.049521137,-0.015112091,-0.06354457,0.07085921,0.038219962,0.09301956,-0.17036750136369322,0.15598930694749846,90.67579700258187,0
1729710285865105,-0.054277,0.051260248,-1.9247278,-0.048960272,-0.01481336,-0.06276908,0.0701081,0.03734138,0.0969367,-0.17262864422082655,0.16150611994222433,90.66966325106343,0
1729710285881105,-0.054609194,0.05190555,-1.9263711,-0.047841415,-0.014278258,-0.061233565,0.06992859,0.03344385,0.09596953,-0.17540549309577166,0.17269228316507224,90.65737524790664,0
1729710285889105,-0.054777697,0.05221621,-1.9271954,-0.047282416,-0.014030746,-0.06045165,0.0698748,0.030939,0.0977395,-0.17592586711854483,0.17827653595438248,90.65116631943337,0
1729710285897105,-0.054752756,0.05264287,-1.927861,-0.046657763,-0.013743515,-0.059701905,0.078081615,0.035903882,0.09371805,-0.17598684147655688,0.18403105245598608,90.64481407795832,0
1729710285905105,-0.05473322,0.053058874,-1.9285178,-0.04602661,-0.013476972,-0.058958016,0.07889419,0.033317946,0.09298603,-0.17580700101152522,0.18987423035764814,90.63872128758318,0
1729710285913105,-0.054718763,0.053464476,-1.929166,-0.04540565,-0.013208321,-0.058206905,0.07762015,0.03358128,0.09388895,-0.17523895979808832,0.1958445965694804,90.63259442073961,0
1729710285929105,-0.054704297,0.054245427,-1.9304363,-0.04418889,-0.01274222,-0.05667033,0.076047376,0.029131303,0.09603588,-0.17279407875734204,0.20730291014175992,90.62042957322491,0
1729710285937105,-0.054703806,0.05462116,-1.9310584,-0.043588176,-0.012523392,-0.055912327,0.075089276,0.027353525,0.09475043,-0.17107062396524467,0.21282382117180262,90.61439155431277,0
1729710285945105,-0.05470758,0.054987367,-1.9316723,-0.04298818,-0.012307963,-0.05518137,0.07499941,0.02692861,0.091369726,-0.16894573621907505,0.21832504388021912,90.60834655549787,0
1729710285953105,-0.054688957,0.055359636,-1.9323014,-0.04235543,-0.01207463,-0.054477796,0.07909396,0.029166693,0.087946646,-0.16657437237824535,0.2239957973255182,90.60224709525903,0
1729710285969105,-0.054663736,0.05607666,-1.9335335,-0.041120812,-0.011676832,-0.053068116,0.07716356,0.024862353,0.08810497,-0.1613734738661475,0.2360562210277127,90.58465195123125,0
1729710285977105,-0.054656986,0.05642172,-1.934137,-0.040522624,-0.011490092,-0.05236181,0.07477356,0.023342552,0.08828844,-0.15842445307583722,0.24237462796936318,90.57585438549576,0
1729710285985105,-0.054653976,0.05675809,-1.9347321,-0.039934926,-0.011315727,-0.051671803,0.073462255,0.021795625,0.08625071,-0.1552961721379583,0.24892286521893228,90.56704322029401,0
1729710285993105,-0.054654595,0.057085812,-1.935319,-0.039360102,-0.011173309,-0.050996598,0.07185293,0.017802231,0.08440064,-0.15195421646814777,0.2554244945516549,90.55830031217488,0
1729710286009105,-0.05466614,0.05771599,-1.9364909,-0.038210116,-0.010894198,-0.04965795,0.07187412,0.017444428,0.083665594,-0.14436393651499835,0.26763422524166286,90.54092391514754,0
1729710286017105,-0.054676704,0.058018666,-1.9370756,-0.037650254,-0.010793143,-0.048993483,0.069982834,0.012631876,0.08305813,-0.14009126096085522,0.2733006506659795,90.53231764700047,0
1729710286025105,-0.05493615,0.058444306,-1.9377364,-0.037308324,-0.010627652,-0.048324186,0.042741183,0.02068642,0.0836621,-0.13550518209775078,0.2786974165000963,90.52370451004879,0
1729710286041105,-0.05545252,0.059263565,-1.9390259,-0.03661377,-0.010306925,-0.047015324,0.04340964,0.020045437,0.08180388,-0.12539415298134818,0.28897964542674454,90.50169694048667,0
1729710286049105,-0.055709373,0.059657484,-1.9396551,-0.036268692,-0.010186926,-0.046369642,0.043134667,0.014999764,0.08071027,-0.12028459934437764,0.29394509711855477,90.49080929643158,0
1729710286057105,-0.055965386,0.060041115,-1.940274,-0.03594048,-0.010075073,-0.045720838,0.04102662,0.013981712,0.08110049,-0.11532586755354333,0.2989269863844386,90.47995579309577,0
1729710286065105,-0.056220703,0.060414743,-1.9408827,-0.03562152,-0.009951601,-0.045057148,0.039869916,0.015433993,0.082961276,-0.11036807207532603,0.30384556436792226,90.46919798585425,0
1729710286081105,-0.05672969,0.061132908,-1.9421114,-0.03502366,-0.009750967,-0.043765407,0.03736629,0.012539618,0.08073379,-0.10078565033834418,0.3135918521947216,90.44785311704969,0
1729710286089105,-0.05698336,0.06147781,-1.9427103,-0.034716908,-0.009663997,-0.04314166,0.038343947,0.010871211,0.07796846,-0.09597697284034092,0.3185104636423271,90.43733433126883,0
1729710286097105,-0.057236463,0.061813474,-1.9432993,-0.034417138,-0.009590537,-0.042525135,0.037471298,0.009182491,0.07706554,-0.09140574316355532,0.32356106761063647,90.42681561364621,0
1729710286105105,-0.057489056,0.062139947,-1.9438783,-0.03413229,-0.009552514,-0.041911934,0.03560586,0.0047528883,0.07665017,-0.08724142365309465,0.32895097466254364,90.41640614192765,0
1729710286125105,-0.057993975,0.0627459,-1.9450078,-0.033596635,-0.009544465,-0.04071958,0.026782788,0.00040247105,0.059617683,-0.07986540806595367,0.34042391387462767,90.39709687071989,0
1729710286129105,-0.058245968,0.06303556,-1.9455796,-0.033329073,-0.009547187,-0.04012333,0.06689038,-0.0006805639,0.14906283,-0.07657184212969673,0.3462912050898812,90.38844968946343,0
1729710286137105,-0.0584977,0.0633166,-1.9461417,-0.033062488,-0.009564552,-0.03953536,0.033323187,-0.00217068,0.07349625,-0.07353946489718914,0.35183363293353753,90.37997334452618,0
1729710286145105,-0.058749072,0.063589066,-1.946694,-0.032787286,-0.009597798,-0.03894768,0.034400262,-0.0041556777,0.07345993,-0.07074477101979357,0.3571188063970064,90.3716130788909,0
1729710286153105,-0.05920219,0.06390615,-1.9470865,-0.03255731,-0.009697641,-0.038274944,0.028747132,-0.01248042,0.0840919,-0.06830233821534536,0.36221107955928616,90.36344402701403,0
1729710286169105,-0.060092326,0.064508386,-1.9478523,-0.032129556,-0.009897669,-0.036905024,0.026734544,-0.012501724,0.08561997,-0.06435726588501481,0.37171612308053936,90.34720841488911,0
1729710286177105,-0.060529687,0.064794056,-1.9482253,-0.031899936,-0.009998787,-0.036210023,0.028702429,-0.012639793,0.08687516,-0.06296965480670527,0.3759013572066768,90.33936720937997,0
1729710286185105,-0.060964935,0.065071136,-1.9485917,-0.03167419,-0.010090432,-0.035531946,0.02821814,-0.011455616,0.08475966,-0.061936299428730496,0.37975580213931187,90.33178554528392,0
1729710286201105,-0.061820194,0.06559623,-1.9493469,-0.031209938,-0.010291955,-0.03422135,0.029015819,-0.012595206,0.081912145,-0.060401975447492776,0.38672659301556744,90.31609625145819,0
1729710286209105,-0.062240474,0.065844506,-1.9497144,-0.030980878,-0.010399083,-0.033582687,0.02863258,-0.013390904,0.07983296,-0.05988081340984788,0.3900939002886138,90.30854192722134,0
1729710286217105,-0.06265601,0.066083536,-1.9500755,-0.030761214,-0.010514807,-0.03299583,0.027457949,-0.014465534,0.073357016,-0.05948467828938428,0.3934430124291871,90.30125395787826,0
1729710286229105,-0.063066795,0.06631335,-1.9504306,-0.0305312,-0.010651793,-0.032441985,0.019167861,-0.011415531,0.046153862,-0.05910183981489287,0.39671864625793535,90.29425968439747,0
1729710286241105,-0.06387459,0.06674601,-1.9511234,-0.030073699,-0.010915207,-0.031391848,0.038125087,-0.021951118,0.08751141,-0.05888316752024033,0.40323096342880876,90.281124991873,0
1729710286249105,-0.064277835,0.066953436,-1.9514817,-0.0298418,-0.011050093,-0.03090848,0.028987413,-0.01686078,0.060420945,-0.05918647243762924,0.4060646554693207,90.27482744170737,0
1729710286257105,-0.06467653,0.06715219,-1.9518342,-0.029619172,-0.011202243,-0.030417087,0.027828382,-0.019018771,0.061424214,-0.059754707461060604,0.40858732685769394,90.26845470522665,0
1729710286265105,-0.065070845,0.06734246,-1.952181,-0.029401146,-0.011334213,-0.02994264,0.02725329,-0.016496284,0.05930592,-0.060610694926137534,0.4107688543312213,90.26238934468195,0
1729710286273105,-0.06559056,0.06735848,-1.9525412,-0.029387942,-0.011515453,-0.02939551,0.0016505363,-0.022655003,0.068391204,-0.06191154658491939,0.4126195632073358,90.25656304154437,0
1729710286289105,-0.06661676,0.06737811,-1.9532396,-0.02936263,-0.011944007,-0.028286116,0.0015819677,-0.026784603,0.06933708,-0.06481998325738766,0.41518260520896144,90.2405936014577,0
1729710286297105,-0.06712345,0.067381665,-1.9535776,-0.029329782,-0.012158261,-0.027748622,0.0041059684,-0.026781693,0.06718677,-0.06659366188061377,0.416205132784013,90.23292306398693,0
1729710286305105,-0.067625865,0.067381136,-1.9539088,-0.029293794,-0.012369632,-0.027243746,0.004498521,-0.026421387,0.06310944,-0.06856173961533968,0.4172874262316975,90.22547791159508,0
1729710286321105,-0.068618245,0.06736776,-1.9545889,-0.029215246,-0.012813992,-0.026289187,0.0049092337,-0.027772503,0.05965994,-0.07357373718862134,0.4198460406805859,90.2111614282069,0
1729710286329105,-0.069105476,0.06736387,-1.9549187,-0.029160945,-0.013013523,-0.025851898,0.0067877113,-0.0249414,0.05466118,-0.07670929383805562,0.4211033629534745,90.20444033619161,0
1729710286337105,-0.069588654,0.067356095,-1.955242,-0.029085571,-0.013204776,-0.02542618,0.009421725,-0.023906583,0.053214837,-0.08027934030294598,0.4221638852591203,90.1969815304494,0
1729710286345105,-0.07006776,0.06734444,-1.9555591,-0.029013498,-0.013407807,-0.025019199,0.009009149,-0.025378888,0.05087256,-0.08420157369185759,0.4228058871337075,90.1897618312667,0
1729710286353105,-0.0705429,0.06732896,-1.9558704,-0.028925229,-0.0136134885,-0.0246208,0.01103361,-0.025710206,0.04979991,-0.08846719375064555,0.4232421239959067,90.182808468393,0
1729710286369105,-0.071481034,0.06728639,-1.9564952,-0.028716194,-0.014035687,-0.023897354,0.013064709,-0.026387393,0.04521536,-0.09739453754849463,0.4237960514622228,90.16937990861034,0
1729710286377105,-0.071943976,0.06725929,-1.9568086,-0.028579596,-0.014275778,-0.023531027,0.017074635,-0.030011402,0.0457908,-0.10203345429481082,0.42388804808971964,90.16307542912315,0
1729710286385105,-0.07240281,0.06722835,-1.9571161,-0.02845148,-0.014485683,-0.023185702,0.016014557,-0.026238149,0.043165635,-0.10678445234700451,0.4239333260126447,90.15699638989203,0
1729710286393105,-0.072857544,0.06719375,-1.9574178,-0.028296491,-0.014685797,-0.022832263,0.019373605,-0.025014158,0.044179846,-0.11157338390409827,0.4239454392578328,90.15121786680457,0
1729710286409105,-0.07404613,0.067193285,-1.9585018,-0.02778143,-0.015125399,-0.022299169,0.03219128,-0.027475178,0.03331841,-0.12126966423523927,0.42370888412505453,90.14237932828446,0
1729710286417105,-0.07462576,0.067185886,-1.9590267,-0.027534824,-0.0153318,-0.022042168,0.030825844,-0.02580008,0.03212504,-0.12597259508109163,0.4232383352719826,90.13940808209477,0
1729710286425105,-0.075196,0.06717394,-1.9595407,-0.027278032,-0.0155371465,-0.021786682,0.032098964,-0.025668297,0.031935748,-0.1304906977106707,0.4224013208227986,90.13658713727915,0
1729710286437105,-0.075756826,0.067157425,-1.9600608,-0.027007613,-0.015762625,-0.021534419,0.022534901,-0.018789899,0.021021968,-0.13475588935802774,0.4211949326507315,90.13409400129893,0
1729710286449105,-0.07685069,0.06711096,-1.9610686,-0.026457231,-0.01618928,-0.020984352,0.045865152,-0.035554636,0.045838922,-0.14294465984002247,0.418245839306745,90.13009134336163,0
1729710286457105,-0.0773839,0.0670812,-1.9615566,-0.026173167,-0.01641221,-0.020689996,0.03550807,-0.0278661,0.036794458,-0.14690290022856775,0.41658363130888854,90.12831542095893,0
1729710286469105,-0.07790797,0.06704712,-1.9620342,-0.025855914,-0.016631108,-0.020405665,0.026437765,-0.018241504,0.023694243,-0.1507665459586332,0.4148630987202993,90.12686735601349,0
1729710286473105,-0.07842194,0.06701671,-1.9625019,-0.025533611,-0.01682243,-0.020109372,0.0805757,-0.047830395,0.0740732,-0.1547675437599088,0.4129897904137413,90.12558322748656,0
1729710286489105,-0.07942265,0.06694394,-1.9634249,-0.024869999,-0.017189877,-0.019517973,0.04147575,-0.022965482,0.036962446,-0.16263599496685174,0.4088550717494464,90.12289198119208,0
1729710286501105,-0.07990962,0.06690169,-1.9638804,-0.024533186,-0.017386507,-0.01922491,0.028067734,-0.016385844,0.024421917,-0.16672001798282388,0.4066472905948241,90.12199034626445,0
1729710286505105,-0.080387816,0.06685549,-1.9643261,-0.02419773,-0.017591467,-0.018923791,0.0838642,-0.051239967,0.075279735,-0.17077482631318527,0.4043280364459089,90.1213960555073,0
1729710286513105,-0.08085722,0.06680541,-1.9647623,-0.023839468,-0.017788254,-0.018596642,0.044782642,-0.024598323,0.040893674,-0.17472199805787833,0.40181158307601633,90.12111596811195,0
1729710286529105,-0.08267494,0.06661397,-1.966265,-0.023401145,-0.01821637,-0.018107623,0.027395202,-0.026757246,0.030563677,-0.18185042638825352,0.39620660993577594,90.1209587837486,0
1729710286537105,-0.08356096,0.06651684,-1.9669901,-0.023171557,-0.018404886,-0.017825408,0.02869847,-0.023564555,0.035276867,-0.1851916589260173,0.39312019834491213,90.12106120271184,0
1729710286545105,-0.08442814,0.066417135,-1.9676982,-0.02294108,-0.018586695,-0.017529605,0.02880953,-0.022726132,0.03697537,-0.18830621018846605,0.389832612820572,90.12074013382217,0
1729710286561105,-0.086107574,0.066210054,-1.9690906,-0.022454558,-0.01895883,-0.016938694,0.03040768,-0.023258382,0.036931943,-0.19454409624681746,0.3827982918929736,90.12093811973256,0
1729710286569105,-0.08692056,0.066102766,-1.9697622,-0.02219227,-0.019133246,-0.016608834,0.032786045,-0.021802027,0.04123244,-0.19753593441719658,0.3792392043908157,90.12131372983518,0
1729710286581105,-0.08771616,0.06599314,-1.9704176,-0.021927945,-0.019295063,-0.01626692,0.022027021,-0.013484775,0.028492883,-0.20040325062138256,0.37574028400718695,90.12186011208472,0
1729710286585105,-0.08849478,0.06588128,-1.9710569,-0.021650692,-0.019441962,-0.015898481,0.06931321,-0.036724843,0.09210966,-0.20313932026485426,0.3723356022803384,90.12256359853035,0
1729710286593105,-0.0892566,0.065767236,-1.9716804,-0.021351416,-0.01961125,-0.015505376,0.037409596,-0.021161044,0.04913809,-0.20586734373948873,0.36937145153267925,90.12348563989356,0
1729710286609105,-0.09072969,0.065525845,-1.9728949,-0.020707175,-0.019915653,-0.014682871,0.04026503,-0.019025173,0.05140656,-0.21137068774885467,0.364763220428459,90.12567811825748,0
1729710286617105,-0.09144152,0.06539872,-1.9734857,-0.020362277,-0.020064946,-0.014237407,0.043112315,-0.018661609,0.055683076,-0.21436559198191338,0.36277511506266086,90.12778867644596,0
1729710286625105,-0.09213763,0.06526968,-1.9740613,-0.020015122,-0.02021562,-0.01379582,0.043394275,-0.018834136,0.055198323,-0.21760655838980753,0.3608078746408111,90.1300426627424,0
1729710286637105,-0.092818335,0.06513868,-1.9746217,-0.01965876,-0.02036586,-0.013336623,0.029696928,-0.0125200795,0.038266413,-0.22133748871951772,0.358676413400277,90.13246055962742,0
1729710286653105,-0.093748614,0.064789265,-1.9757817,-0.01871734,-0.020586576,-0.012382461,0.058838744,-0.013794749,0.059635144,-0.2296130523594881,0.35361928099116124,90.13737150635828,0
1729710286657105,-0.09400612,0.064574204,-1.9763792,-0.018111002,-0.020653348,-0.011901113,0.15158439,-0.016693026,0.12033688,-0.2342717586251148,0.3508531355074986,90.14293819898941,0
1729710286665105,-0.094256386,0.06436061,-1.9769602,-0.017503066,-0.020725362,-0.011415905,0.07599196,-0.009001698,0.060650982,-0.23890874426864842,0.3481390186334655,90.14866196793074,0
1729710286673105,-0.09449943,0.064148374,-1.9775364,-0.016881248,-0.020797972,-0.010912261,0.07772725,-0.009076204,0.06295554,-0.24333652418967472,0.34568143950647157,90.15457699901192,0
1729710286689105,-0.09495864,0.06373104,-1.9786403,-0.015654914,-0.020924283,-0.009888168,0.076645866,-0.007894472,0.064005785,-0.2515402837808639,0.34159144333399855,90.16681690773703,0
1729710286697105,-0.09517482,0.063525885,-1.9791684,-0.015030729,-0.020987852,-0.009365947,0.07802317,-0.007946044,0.06527767,-0.25545140194140376,0.33997111237575556,90.17254752251046,0
1729710286709105,-0.0953838,0.063321866,-1.979681,-0.014406366,-0.021063486,-0.00885433,0.0520302,-0.0063028806,0.04263478,-0.25928826649449993,0.33845051486296956,90.17833280859621,0
1729710286721105,-0.095780104,0.06291677,-1.9806612,-0.013145657,-0.02123145,-0.007833049,0.10505909,-0.0139970025,0.08510674,-0.2663231512185191,0.33501439012023776,90.19027899747293,0
1729710286729105,-0.09596734,0.06271546,-1.9811414,-0.012506019,-0.021335585,-0.0073155565,0.079954736,-0.013016862,0.06468652,-0.2694005329262874,0.33303042657623383,90.19636478725941,0
1729710286741105,-0.09614729,0.06251485,-1.9816071,-0.01186066,-0.021436285,-0.006797355,0.05377992,-0.008391682,0.04318345,-0.2722398264845246,0.33086850201826207,90.20256668847527,0
1729710286745105,-0.09631986,0.062314905,-1.9820583,-0.01120866,-0.021525389,-0.006281969,0.16300006,-0.022275837,0.1288465,-0.2746814716662621,0.32881359488355355,90.20883010850581,0
1729710286761105,-0.096644744,0.061918296,-1.9829183,-0.009917053,-0.021719312,-0.0052229958,0.08072541,-0.012120231,0.06618583,-0.2785645322877944,0.32546904218938993,90.2214388570883,0
1729710286769105,-0.09679715,0.06172152,-1.9833277,-0.009280002,-0.021811172,-0.0047131423,0.079631455,-0.011482508,0.06373168,-0.2798306672556429,0.32408033036327644,90.22762710020379,0
1729710286777105,-0.09678066,0.061645586,-1.9830639,-0.008538978,-0.021859076,-0.004060484,0.09262794,-0.005987938,0.081582285,-0.2806223053351376,0.32284337940120367,90.23390416121323,0
1729710286785105,-0.09675994,0.061567523,-1.9828043,-0.007797971,-0.021889072,-0.0034202726,0.0926259,-0.0037495045,0.08002642,-0.281337353425086,0.32198070751479163,90.24124676578788,0
1729710286793105,-0.09673471,0.061487556,-1.9825633,-0.007022069,-0.021915313,-0.0027626085,0.096987754,-0.0032801179,0.082208015,-0.28163006546661584,0.3213815890964475,90.24860993335044,0
1729710286809105,-0.096670486,0.06132167,-1.9820901,-0.0055384613,-0.02200256,-0.0015483495,0.09272547,-0.005452893,0.07589118,-0.28069335197538026,0.31971507689949064,90.2634932290627,0
1729710286817105,-0.096631765,0.06123574,-1.981858,-0.004811045,-0.022060078,-0.00097457547,0.09092706,-0.00718981,0.071721755,-0.279432213669639,0.31831203824678994,90.27076069506374,0
1729710286825105,-0.09658856,0.06114781,-1.9816289,-0.0040685846,-0.022102451,-0.0004287583,0.09280751,-0.005296664,0.06822715,-0.27775155136549357,0.31654699422785054,90.27790523115789,0
1729710286833105,-0.09655541,0.061061602,-1.9814026,-0.0033681667,-0.022122225,8.340866e-05,0.087552235,-0.0024717299,0.064020865,-0.2753717901592622,0.31461065958784246,90.2850428842454,0
1729710286849105,-0.09647564,0.06088377,-1.9809752,-0.0019760693,-0.022191683,0.000876654,0.087006085,-0.0043411274,0.049577832,-0.26870891319097784,0.31092801217701765,90.29782924733667,0
1729710286857105,-0.09642919,0.060792193,-1.9807739,-0.0013080782,-0.022231044,0.0012157642,0.08349889,-0.0049201767,0.042388774,-0.2647883757751916,0.3094212396946704,90.30404486748326,0
1729710286865105,-0.09637843,0.060698837,-1.9805759,-0.0006316899,-0.022269953,0.00153421,0.08454853,-0.0048635993,0.03980573,-0.26057795560018593,0.3080045952087271,90.31011022228175,0
1729710286881105,-0.09626408,0.060506787,-1.9801905,0.0006753153,-0.02236408,0.002050755,0.08168783,-0.0058829314,0.032284062,-0.25162524219678034,0.3051483079470617,90.3220565134382,0
1729710286889105,-0.096200734,0.060408134,-1.9800031,0.0013090126,-0.02241698,0.0022460104,0.07921216,-0.00661239,0.024406908,-0.24634841590894851,0.30363019693942706,90.32788961902646,0
1729710286897105,-0.095867835,0.060344715,-1.9795637,0.002065951,-0.02239415,0.0025245715,0.09461729,0.0028535721,0.03482014,-0.24061880761578436,0.3021723847471264,90.33361347976746,0
1729710286905105,-0.09553645,0.060279835,-1.9791337,0.0027985617,-0.022354897,0.002748624,0.09157633,0.0049066725,0.028006557,-0.23475143687828054,0.3006702292710364,90.34146154105008,0
1729710286917105,-0.09520657,0.060213555,-1.9787283,0.0035232445,-0.022323728,0.0029372633,0.060390234,0.0025974587,0.015719948,-0.22878594938968433,0.29908995264832605,90.3491115035751,0
1729710286929105,-0.094550595,0.06007711,-1.9779444,0.004959316,-0.0222308,0.003254822,0.11967262,0.007743947,0.02646322,-0.21624879710763384,0.296101117600623,90.36407003886191,0
1729710286941105,-0.09422436,0.060007107,-1.9775658,0.0056408877,-0.022180544,0.003332357,0.05679764,0.0041880026,0.0064612445,-0.20954822510404844,0.2947924252846283,90.37140589335752,0
1729710286945105,-0.093899384,0.0599359,-1.9771963,0.006294369,-0.022142934,0.0033485587,0.16337039,0.009402633,0.0040504383,-0.2026689874076762,0.29355358339543036,90.37862563483172,0
1729710286961105,-0.09325329,0.05979006,-1.9764858,0.0075334413,-0.022041228,0.0032451036,0.077442,0.0063566254,-0.0064659393,-0.18826664662824646,0.29085874523718114,90.39250492838217,0
1729710286969105,-0.09294179,0.05971269,-1.9761598,0.008111403,-0.02200609,0.0031302462,0.07224525,0.0043921173,-0.014357181,-0.1806769887437356,0.2896981317917724,90.39925333984569,0
1729710286977105,-0.09263149,0.05963427,-1.975843,0.008689131,-0.02195704,0.0030158293,0.072215915,0.0061313617,-0.014302117,-0.17279626018716251,0.288805900281169,90.4059608168569,0
1729710286985105,-0.092322424,0.05955478,-1.975535,0.009232338,-0.021926766,0.0028683562,0.067900866,0.0037841962,-0.018434133,-0.16456119762835414,0.2880352797603859,90.41244972999857,0
1729710286993105,-0.09201456,0.059474234,-1.9752362,0.009772625,-0.021882204,0.0027050092,0.0675359,0.00557024,-0.020418374,-0.15612611119943579,0.2872489176422654,90.41883614130099,0
